     2.11           OBSERVATION DATA    G (GPS)             RINEX VERSION / TYPE
teqc  2019Feb25                         20221121 12:28:01UTCPGM / RUN BY / DATE
OSX ker:10.11.6|Core i5|gcc 4.3 -m64|OSX ker:10.10+|=+      COMMENT
BIT 2 OF LLI FLAGS DATA COLLECTED UNDER A/S CONDITION       COMMENT
04711300                                                    MARKER NAME
1300                                                        MARKER NUMBER
-Unknown-           -Unknown-                               OBSERVER / AGENCY
0220400471          TRIMBLE R7          2.30                REC # / TYPE / VERS
-Unknown-           TRM39105.00     NONE                    ANT # / TYPE
  1449474.6745 -1709214.4597  5952449.0514                  APPROX POSITION XYZ
        0.0000        0.0000        0.0000                  ANTENNA: DELTA H/E/N
     1     1                                                WAVELENGTH FACT L1/2
    20    L1    L2    L5    L6    L7    L8    C1    P1    C2# / TYPES OF OBSERV
          P2    C5    C6    C7    C8    S1    S2    S5    S6# / TYPES OF OBSERV
          S7    S8                                          # / TYPES OF OBSERV
    30.0000                                                 INTERVAL
    15                                                      LEAP SECONDS
Forced Modulo Decimation to 30 seconds                      COMMENT
 SNR is mapped to RINEX snr flag value [0-9]                COMMENT
  L1 & L2: min(max(int(snr_dBHz/6), 0), 9)                  COMMENT
teqc edited: Beidou # 1 - 37 excluded                       COMMENT
  2009     5    10    18    10    0.0000000     GPS         TIME OF FIRST OBS
                                                            END OF HEADER
 09  5 10 18 10  0.0000000  0  6G09G17G22G27G26G18
    -68317.61358    -36853.86757
                  20329712.1334                                   20329709.0084
                                                                        50.7504
        42.7504
   -135834.71157    -69885.59855
                  23336678.4454                                   23336674.6564
                                                                        45.5004
        31.0004
    -59548.29358    -27168.05556
                  21462240.7734                                   21462235.2384
                                                                        49.7504
        37.5004
    -49487.63757    -28872.62955
                  22523432.5004                                   22523429.2304
                                                                        47.7504
        34.7504
     28065.91857     16450.28554
                  23506362.6094                                   23506359.7464
                                                                        43.5004
        28.0004
     -5990.78957     -3914.76654
                  22909573.3914                                   22909570.0434
                                                                        44.5004
        27.0004
 09  5 10 18 10 30.0000000  0  9G09G12G14G17G22G27G26G32G18
   -119261.73048    -76550.62547
                  20320017.9144                                   20320014.0434
                                                                        52.7504
        42.7504
   -330653.58657   -222358.40655
                  22736972.6954                                   22736968.8834
                                                                        47.2504
        34.0004
   -340237.42258   -225151.48056
                  21423678.4844                                   21423674.4414
                                                                        48.7504
        36.5004
   -263102.01647   -169054.95744
                  23312460.0474                                   23312456.3754
                                                                        43.7504
        29.5004
   -109112.75848    -65789.74646
                  21452809.0314                                   21452802.9774
                                                                        51.2504
        37.0004
    -77275.79748    -50525.79745
                  22518144.3284                                   22518141.2734
                                                                        48.5004
        35.5004
     47441.63746     31548.18043
                  23510049.4144                                   23510046.9844
                                                                        40.5004
        22.0004
   -357610.66056   -209467.71953
                  25063291.5704                                   25063289.6254
                                                                        39.7504
        20.0004
     -9407.12947     -6576.84044
                  22908923.2034                                   22908919.4884
                                                                        44.2504
        24.5004
 09  5 10 18 11  0.0000000  0 10G09G11G12G14G17G22G27G26G32G18
   1406418.83248   1112291.35546
                  20610345.3984                                   20610341.7584
                                                                        53.2504
        41.7504
   1377274.95357   1111348.68453
                  23718627.2504                                   23718623.3444
                                                                        43.7504
        22.5004
   1052239.57047    855220.74645
                  23000128.2424                                   23000124.8594
                                                                        44.5004
        30.2504
   1065849.97748    870500.90246
                  21691247.9224                                   21691243.7344
                                                                        48.5004
        36.0004
   1186226.57847    960292.08645
                  23588257.3984                                   23588254.1724
                                                                        45.2504
        30.5004
   1417845.21948   1124047.61746
                  21743379.9304                                   21743373.8244
                                                                        51.5004
        38.0004
   1471233.60248   1156104.86745
                  22812815.6804                                   22812813.0474
                                                                        48.2504
        35.5004
   1642967.84847   1274815.33244
                  23813668.3594                                   23813665.4224
                                                                        43.0004
        26.5004
   1013987.68046    859310.18443
                  25324298.6334                                   25324296.1414
                                                                        41.5004
        19.7504
   1563475.95347   1219046.21944
                  23208233.6484                                   23208229.1844
                                                                        45.0004
        26.0004
 09  5 10 18 11 30.0000000  0 10G09G11G12G14G17G22G27G26G32G18
   1357999.53148   1074561.98047
                  20601131.1954                                   20601127.4844
                                                                        52.2504
        42.2504
   1280738.71147   1036125.66443
                  23700257.0164                                   23700253.3754
                                                                        43.0004
        23.0004
    860781.93847    706033.00044
                  22963694.9924                                   22963691.1524
                                                                        45.0004
        28.5004
    897623.57848    739415.16046
                  21659236.0704                                   21659231.5514
                                                                        48.7504
        36.7504
   1061423.97347    863043.32444
                  23564508.4384                                   23564504.7114
                                                                        44.7504
        29.7504
   1370601.53548   1087234.33646
                  21734389.4614                                   21734383.8054
                                                                        50.5004
        37.5004
   1445317.68048   1135910.63345
                  22807884.3674                                   22807881.1994
                                                                        49.0004
        35.5004
   1663924.65647   1291145.25044
                  23817656.5234                                   23817653.9804
                                                                        44.5004
        27.0004
    811010.85947    701146.46543
                  25285673.3054                                   25285670.6414
                                                                        42.0004
        19.7504
   1561936.40247   1217846.53944
                  23207940.9454                                   23207936.3524
                                                                        45.2504
        26.0004
 09  5 10 18 12  0.0000000  0 10G09G11G12G14G17G22G27G26G32G18
   1310946.41448   1037897.33647
                  20592177.2584                                   20592173.7894
                                                                        52.2504
        42.2504
   1185544.78147    961948.63743
                  23682141.9614                                   23682138.4184
                                                                        42.0004
        22.0004
    670448.27747    557721.07045
                  22927475.9614                                   22927472.1804
                                                                        47.7504
        35.5004
    730557.24648    609233.32846
                  21627444.3594                                   21627440.6884
                                                                        48.0004
        36.7504
    937961.60547    766838.93845
                  23541014.3984                                   23541010.8404
                                                                        45.2504
        30.5004
   1324622.16048   1051406.21946
                  21725639.8134                                   21725634.0434
                                                                        51.0004
        37.5004
   1420441.89848   1116526.89546
                  22803150.6564                                   22803147.7584
                                                                        48.5004
        36.0004
   1685775.21547   1308171.62944
                  23821814.0004                                   23821811.6954
                                                                        44.5004
        28.7504
    608933.71146    543683.82043
                  25247219.3284                                   25247216.8524
                                                                        41.5004
        20.2504
   1561437.66047   1217457.83244
                  23207845.9534                                   23207841.6334
                                                                        45.0004
        26.0004
 09  5 10 18 12 30.0000000  0 10G09G11G12G14G17G22G27G26G32G18
   1265261.41848   1002298.61347
                  20583483.7814                                   20583480.1214
                                                                        52.5004
        42.0004
   1091696.85947    888820.38344
                  23664283.7894                                   23664279.3244
                                                                        43.2504
        24.0004
    481246.21548    410290.88345
                  22891471.9774                                   22891468.0274
                                                                        48.0004
        34.7504
    564658.19148    479961.53546
                  21595874.5164                                   21595870.8524
                                                                        48.5004
        36.7504
    815845.21947    671683.30944
                  23517776.2194                                   23517772.7074
                                                                        45.0004
        29.7504
   1279910.23048   1016565.74246
                  21717131.2894                                   21717125.9264
                                                                        50.5004
        37.5004
   1396609.08248   1097955.85545
                  22798615.3444                                   22798612.5634
                                                                        48.5004
        35.0004
   1708521.75447   1325896.10944
                  23826142.8834                                   23826140.5434
                                                                        43.0004
        28.5004
    407762.99246    386927.40243
                  25208936.9224                                   25208934.8554
                                                                        41.2504
        19.0004
   1561981.87547   1217881.87144
                  23207949.6334                                   23207945.2344
                                                                        45.5004
        26.5004
 09  5 10 18 13  0.0000000  0 10G09G11G12G14G17G22G27G26G32G18
   1220918.69948    967745.80146
                  20575045.6414                                   20575042.4494
                                                                        52.0004
        41.7504
    999170.61747    816721.96543
                  23646675.9774                                   23646672.3794
                                                                        43.0004
        22.7504
    293154.05948    263725.60245
                  22855679.3444                                   22855675.2074
                                                                        48.2504
        34.7504
    399903.08248    351581.12146
                  21564522.6094                                   21564518.5274
                                                                        48.0004
        37.2504
    695051.37947    577558.18845
                  23494790.1414                                   23494786.7854
                                                                        45.7504
        30.7504
   1236439.98448    982692.78946
                  21708859.2274                                   21708853.8754
                                                                        49.7504
        37.5004
   1373793.39548   1080177.36745
                  22794274.0234                                   22794270.1724
                                                                        48.2504
        35.0004
   1732138.24247   1344298.55944
                  23830636.4614                                   23830633.8594
                                                                        43.5004
        28.0004
    207476.87946    230860.38743
                  25170824.0784                                   25170822.0234
                                                                        40.0004
        19.5004
   1563542.60547   1219097.97744
                  23208246.3594                                   23208242.0824
                                                                        44.7504
        26.5004
 09  5 10 18 13 30.0000000  0 10G09G11G12G14G17G22G27G26G32G18
   1177882.67248    934211.18847
                  20566856.4534                                   20566853.0864
                                                                        52.2504
        42.5004
    907932.57447    745627.35943
                  23629314.7664                                   23629310.5944
                                                                        43.7504
        22.7504
    106140.95748    118001.13345
                  22820091.4774                                   22820087.4024
                                                                        48.7504
        34.2504
    236259.98848    224067.21546
                  21533382.4534                                   21533377.8954
                                                                        48.0004
        37.0004
    575547.42247    484438.20744
                  23472049.3524                                   23472046.1334
                                                                        45.0004
        29.7504
   1194176.40248    949760.12146
                  21700816.6954                                   21700811.0824
                                                                        50.2504
        37.5004
   1351960.08248   1063164.36345
                  22790118.6884                                   22790115.9454
                                                                        48.0004
        34.5004
   1756588.92247   1363350.97344
                  23835289.4534                                   23835287.1454
                                                                        44.5004
        27.7504
      8043.83246     75457.98043
                  25132872.5634                                   25132870.7304
                                                                        39.2504
        18.2504
   1566083.61347   1221077.94544
                  23208729.9694                                   23208725.5474
                                                                        44.5004
        26.7504
 09  5 10 18 14  0.0000000  0 10G09G11G12G14G17G22G27G26G32G18
   1136108.53948    901659.99647
                  20558906.9694                                   20558903.5664
                                                                        53.0004
        42.2504
    817939.24247    675502.72344
                  23612189.2424                                   23612185.0554
                                                                        43.7504
        24.0004
    -79833.58248    -26914.07845
                  22784701.9224                                   22784697.7154
                                                                        49.0004
        35.0004
     73687.64848     97387.60246
                  21502445.6724                                   21502441.7704
                                                                        49.0004
        37.5004
    457291.50847    392290.67245
                  23449545.9844                                   23449542.3444
                                                                        45.2504
        30.2504
   1153074.81348    917732.87946
                  21692995.4454                                   21692989.4104
                                                                        49.5004
        36.5004
   1331064.20348   1046881.83245
                  22786142.7894                                   22786139.9414
                                                                        48.2504
        34.0004
   1781828.46547   1383018.07844
                  23840092.7584                                   23840090.2424
                                                                        44.2504
        27.5004
   -190576.80546    -79311.42643
                  25095077.1094                                   25095074.6454
                                                                        38.7504
        19.5004
   1569559.52047   1223786.37944
                  23209391.6174                                   23209387.0434
                                                                        44.5004
        26.5004
 09  5 10 18 14 30.0000000  0 10G09G11G12G14G17G22G27G26G32G18
   1095550.21148    870056.12147
                  20551188.8134                                   20551184.8874
                                                                        52.2504
        42.5004
    729146.65647    606313.64843
                  23595292.9694                                   23595288.4104
                                                                        43.5004
        23.7504
   -264810.31648   -171051.80945
                  22749502.2584                                   22749497.7624
                                                                        49.0004
        34.0004
    -87855.61348    -28490.24646
                  21471704.9774                                   21471700.6054
                                                                        48.0004
        37.5004
    340240.52347    301081.97345
                  23427271.8204                                   23427268.6994
                                                                        46.2504
        32.0004
   1113090.53948    886576.28946
                  21685386.6024                                   21685380.8244
                                                                        50.0004
        36.7504
   1311060.69548   1031294.67645
                  22782335.6644                                   22782332.9064
                                                                        48.5004
        34.5004
   1807811.32047   1403264.41844
                  23845036.9844                                   23845034.5124
                                                                        44.0004
        26.5004
   -388426.03946   -233479.61742
                  25057427.5084                                   25057425.3284
                                                                        38.0004
        17.7504
   1573924.76247   1227187.85544
                  23210222.1254                                   23210217.9574
                                                                        44.5004
        24.5004
 09  5 10 18 15  0.0000000  0 10G09G11G12G14G17G22G27G26G32G18
   1056161.98048    839363.98047
                  20543693.3914                                   20543690.2624
                                                                        52.0004
        42.0004

                  23578616.5084                                   23578612.3284
                                                                        41.5004
        21.7504
   -448830.52048   -314444.17245
                  22714484.7504                                   22714479.4614
                                                                        49.0004
        34.5004
   -248411.85248   -153599.00446
                  21441152.2424                                   21441148.4494
                                                                        48.2504
        37.2504
    224352.35547    210779.37945
                  23405219.4454                                   23405216.1174
                                                                        45.7504
        32.0004
   1074177.42648    856254.35546
                  21677981.6804                                   21677976.2774
                                                                        50.2504
        36.5004
   1291904.32448   1016367.64845
                  22778690.9614                                   22778687.8364
                                                                        48.2504
        33.5004
   1834491.75047   1424054.33644
                  23850114.5084                                   23850111.5474
                                                                        44.2504
        27.0004

                  25019916.4844                                   25019913.8094
                                                                        32.2504
        19.5004
   1579132.85947   1231246.07444
                  23211213.0944                                   23211209.0984
                                                                        44.2504
        25.5004
 09  5 10 18 15 30.0000000  0 10G09G11G12G14G17G22G27G26G32G18
   1017896.85248    809546.96547
                  20536411.7194                                   20536408.3594
                                                                        52.7504
        42.0004
    554984.27747    470601.89543
                  23562151.4454                                   23562147.6764
                                                                        43.5004
        22.5004
   -631936.40248   -457124.06645
                  22679640.2194                                   22679635.6454
                                                                        49.5004
        35.0004
   -408024.04748   -277972.16446
                  21410778.8444                                   21410774.9144
                                                                        48.0004
        37.0004
    109582.84047    121348.55545
                  23383379.3754                                   23383376.0634
                                                                        46.0004
        32.5004
   1036289.47748    826731.27046
                  21670771.9304                                   21670766.7274
                                                                        49.5004
        37.2504
   1273548.19948   1002064.16845
                  22775197.8444                                   22775194.9104
                                                                        48.2504
        34.0004
   1861822.60947   1445351.02044
                  23855315.1724                                   23855312.7074
                                                                        43.7504
        27.5004
   -781979.22746   -511492.66843
                  24982536.8594                                   24982534.7774
                                                                        38.0004
        19.0004
   1585136.40247   1235924.10944
                  23212355.4144                                   23212351.4494
                                                                        43.5004
        25.7504
 09  5 10 18 16  0.0000000  0 10G09G11G12G14G17G22G27G26G32G18
    980718.65648    780576.91046
                  20529336.8134                                   20529333.4304
                                                                        51.5004
        41.2504
    469536.10247    404018.83643
                  23545891.3754                                   23545887.1414
                                                                        44.0004
        22.7504
   -814159.68748   -599116.24245
                  22644964.3984                                   22644959.6414
                                                                        49.0004
        35.5004
   -566724.81647   -401635.08646
                  21380579.0944                                   21380574.5394
                                                                        47.0004
        37.2504
     -4101.84047     32762.99245
                  23361746.2034                                   23361743.1294
                                                                        46.5004
        32.0004
    999390.56648    797978.84846
                  21663750.1644                                   21663744.4534
                                                                        49.0004
        37.0004
   1255956.59048    988356.38345
                  22771850.3364                                   22771846.9224
                                                                        48.5004
        33.5004
   1889767.28947   1467126.01644
                  23860632.5084                                   23860630.5664
                                                                        43.7504
        25.5004
   -977756.88746   -664046.63743
                  24945281.8134                                   24945279.5274
                                                                        36.2504
        18.5004
   1591898.50447   1241193.23444
                  23213642.2194                                   23213638.5664
                                                                        43.2504
        25.5004
 09  5 10 18 16 30.0000000  0 10G09G11G12G14G17G22G27G26G32G18
    944586.66448    752422.05946
                  20522461.1954                                   20522457.7504
                                                                        51.7504
        41.5004
    385125.94147    338244.67243
                  23529828.5554                                   23529824.2464
                                                                        43.7504
        23.7504
   -995536.26648   -740448.63345
                  22610449.4384                                   22610445.1454
                                                                        48.0004
        35.5004
   -724550.82047   -524616.41846
                  21350545.5554                                   21350541.8134
                                                                        47.5004
        37.0004
   -116739.15247    -55006.32845
                  23340311.9614                                   23340308.5164
                                                                        46.2504
        31.7504
    963440.58648    769965.87546
                  21656909.3524                                   21656903.6094
                                                                        50.5004
        37.2504
   1239089.53547    975213.19545
                  22768640.1884                                   22768637.1684
                                                                        47.5004
        34.0004
   1918285.52046   1489347.99643
                  23866059.4064                                   23866057.1954
                                                                        40.7504
        22.5004
  -1172915.80146   -816118.48842
                  24908143.8914                                   24908142.1724
                                                                        38.0004
        17.7504
   1599378.05947   1247021.41044
                  23215065.6884                                   23215061.9224
                                                                        43.5004
        24.2504
 09  5 10 18 17  0.0000000  0 10G09G11G12G14G17G22G27G26G32G18
    909466.05148    725055.32446
                  20515778.1954                                   20515774.5124
                                                                        51.5004
        41.5004
    301720.79747    273253.73844
                  23513957.1724                                   23513953.2934
                                                                        44.0004
        24.5004
  -1176096.25848   -881144.71946
                  22576090.0784                                   22576086.1414
                                                                        49.2504
        36.2504
   -881532.54347   -646939.88746
                  21320673.2344                                   21320669.5274
                                                                        47.7504
        37.7504
   -228360.66447   -141984.05945
                  23319071.1564                                   23319067.8754
                                                                        45.5004
        30.5004
    928405.28548    742665.62946
                  21650242.2974                                   21650236.7734
                                                                        50.5004
        37.2504
   1222912.95347    962608.06345
                  22765561.9144                                   22765559.1414
                                                                        47.7504
        33.0004
   1947342.70347   1511989.88744
                  23871589.1564                                   23871586.7814
                                                                        42.0004
        26.5004
  -1367486.17646   -967731.78143
                  24871119.0084                                   24871116.4654
                                                                        38.5004
        18.2504
   1607540.62147   1253381.80144
                  23216618.4614                                   23216615.3834
                                                                        43.5004
        24.5004
 09  5 10 18 17 30.0000000  0 10G09G11G12G14G17G22G27G26G32G18
    875322.30148    698449.81347
                  20509281.1414                                   20509277.0634
                                                                        51.5004
        42.0004
    219287.38747    209020.07443
                  23498270.2734                                   23498266.1254
                                                                        43.5004
        22.7504
  -1355869.57848  -1021227.81246
                  22541880.5084                                   22541876.7734
                                                                        49.0004
        36.0004
  -1037701.10547   -768629.67646
                  21290955.2894                                   21290951.0784
                                                                        47.0004
        38.2504
   -338998.33647   -228195.11345
                  23298017.3914                                   23298013.4964
                                                                        46.2504
        31.5004
    894250.50048    716051.48446
                  21643742.8674                                   21643737.0744
                                                                        49.0004
        37.5004
   1207392.64847    950514.30945
                  22762608.4844                                   22762605.6484
                                                                        47.5004
        33.5004
   1976904.02047   1535024.62544
                  23877214.5314                                   23877212.1844
                                                                        42.0004
        26.0004
  -1561498.25046  -1118909.98443
                  24834198.8674                                   24834197.0554
                                                                        37.7504
        18.5004
   1616350.96147   1260246.95744
                  23218295.4454                                   23218292.1524
                                                                        43.5004
        25.7504
 09  5 10 18 18  0.0000000  0 10G09G11G12G14G17G22G27G26G32G18
    842124.57448    672581.42647
                  20502963.6484                                   20502960.1134
                                                                        51.5004
        42.0004
    137796.52047    145520.87543
                  23482762.3984                                   23482758.3324
                                                                        43.5004
        22.2504
  -1534882.25048  -1160718.16845
                  22507815.0704                                   22507811.4024
                                                                        48.0004
        35.7504
  -1193083.27748   -889706.72346
                  21261387.3204                                   21261382.9064
                                                                        48.2504
        37.2504
   -448680.25047   -313661.47345
                  23277145.7114                                   23277141.8364
                                                                        46.0004
        31.0004
    860945.89148    690099.81346
                  21637405.1414                                   21637399.7934
                                                                        49.2504
        37.7504
   1192498.36747    938908.37145
                  22759774.2504                                   22759771.2894
                                                                        47.7504
        33.0004
   2006938.67646   1558428.20344
                  23882929.9144                                   23882927.5554
                                                                        40.7504
        26.7504
  -1754978.45346  -1269673.71543
                  24797381.2344                                   24797379.1294
                                                                        38.2504
        19.7504
   1625777.89147   1267592.58644
                  23220089.2734                                   23220085.7154
                                                                        44.5004
        25.2504
 09  5 10 18 18 30.0000000  0 10G09G11G12G14G17G22G27G26G32G18
    809843.30548    647427.15646
                  20496820.9454                                   20496817.0434
                                                                        52.0004
        41.7504
     57220.28147     82734.36743
                  23467429.1954                                   23467425.5314
                                                                        43.5004
        22.5004
  -1713159.16848  -1299635.23845
                  22473890.1644                                   22473886.1484
                                                                        48.5004
        35.7504
  -1347704.86747  -1010191.12146
                  21231964.0234                                   21231959.7384
                                                                        47.7504
        38.2504
   -557433.25447   -398404.15645
                  23256450.4224                                   23256446.7074
                                                                        46.0004
        30.0004
    828462.39148    664787.96946
                  21631223.3754                                   21631218.5984
                                                                        49.0004
        37.0004
   1178200.77347    927767.35945
                  22757053.9224                                   22757050.4414
                                                                        47.7504
        33.0004
   2037417.33246   1582177.73444
                  23888729.8594                                   23888727.3364
                                                                        40.5004
        27.0004
  -1947952.00846  -1420042.69543
                  24760659.8984                                   24760657.6994
                                                                        39.0004
        20.5004
   1635791.47347   1275395.30944
                  23221994.5864                                   23221990.7974
                                                                        43.7504
        25.0004
 09  5 10 18 19  0.0000000  0 10G09G11G12G14G17G22G27G26G32G18
   2353872.94148   1850567.09446
                  20790639.5474                                   20790636.1374
                                                                        51.5004
        41.5004
   1552956.21947   1248243.02343
                  23752058.1564                                   23752054.0904
                                                                        43.5004
        23.0004
   -315296.00847   -210391.22345
                  22739894.5234                                   22739890.9264
                                                                        46.7504
        35.7504
     73836.88348     97503.75846
                  21502473.8914                                   21502470.4574
                                                                        48.0004
        37.2504
    910143.25447    745161.85545
                  23535720.5944                                   23535717.6414
                                                                        46.0004
        30.5004
   2372195.27048   1867696.68446
                  21924986.2734                                   21924981.1094
                                                                        49.5004
        37.5004
   2739894.76647   2144671.73045
                  23054233.8914                                   23054231.0864
                                                                        47.0004
        32.2504
   3643732.66846   2833851.96944
                  24194401.9304                                   24194398.7194
                                                                        40.5004
        27.2504
   -565014.55946   -342429.14143
                  25023823.3674                                   25023821.3874
                                                                        40.7504
        19.0004
   3221784.88347   2511234.27344
                  23523799.2344                                   23523795.8054
                                                                        43.7504
        25.2504
 09  5 10 18 19 30.0000000  0 10G09G11G12G14G17G22G27G26G32G18
   2323346.31348   1826780.10946
                  20784830.7664                                   20784827.0704
                                                                        51.0004
        41.2504
   1474135.68047   1186824.53143
                  23737059.3524                                   23737055.3674
                                                                        43.2504
        22.5004
   -492165.07047   -348211.27046
                  22706237.3204                                   22706233.7344
                                                                        46.2504
        36.0004
    -79329.51247    -21846.67246
                  21473327.6334                                   21473323.6054
                                                                        47.0004
        37.7504
    803179.42647    661813.30545
                  23515366.7274                                   23515363.0744
                                                                        45.5004
        30.0004
   2341277.27348   1843604.73446
                  21919102.9614                                   21919097.5944
                                                                        49.2504
        37.2504
   2726714.85547   2134401.64145
                  23051726.1174                                   23051723.5634
                                                                        47.2504
        33.5004
   3675021.61746   2858232.92644
                  24200355.9844                                   24200353.2154
                                                                        41.2504
        26.7504
   -757039.43046   -492059.00843
                  24987282.7974                                   24987281.0744
                                                                        40.5004
        19.5004
   3232893.35947   2519890.18844
                  23525913.1484                                   23525909.5124
                                                                        43.2504
        25.5004
 09  5 10 18 20  0.0000000  0 10G09G11G12G14G17G22G27G26G32G18
   2293660.94148   1803648.63346
                  20779181.9144                                   20779178.6524
                                                                        51.5004
        41.2504
   1396159.24647   1126063.68443
                  23722220.8754                                   23722217.2114
                                                                        43.5004
        22.5004
   -668359.14147   -485505.35546
                  22672708.8914                                   22672705.6254
                                                                        46.5004
        36.5004
   -231798.68047   -140653.84446
                  21444313.4384                                   21444309.5394
                                                                        47.2504
        38.0004
    697078.62547    579137.30545
                  23495176.2194                                   23495172.9104
                                                                        46.2504
        31.0004
   2311106.63348   1820095.13746
                  21913361.6644                                   21913356.4064
                                                                        50.0004
        37.0004
   2714058.57047   2124539.60245
                  23049318.0634                                   23049314.9494
                                                                        47.7504
        32.2504
   3706679.98446   2882901.73444
                  24206380.5234                                   24206377.5594
                                                                        40.5004
        25.0004
   -948619.07846   -641341.80943
                  24950826.3364                                   24950823.8714
                                                                        41.5004
        19.0004
   3244512.53947   2528944.05143
                  23528124.4534                                   23528120.7074
                                                                        44.2504
        23.2504
 09  5 10 18 20 30.0000000  0 10G09G11G12G14G17G22G27G26G32G18
   2264794.49648   1781155.28146
                  20773688.4844                                   20773685.4384
                                                                        51.7504
        41.5004
   1319006.28947   1065944.44143
                  23707538.6564                                   23707535.4654
                                                                        42.5004
        22.7504
   -843895.97747   -622287.27346
                  22639305.4304                                   22639302.1054
                                                                        47.7504
        37.2504
   -383588.95348   -258931.93446
                  21415428.7344                                   21415424.9344
                                                                        48.5004
        38.0004
    591820.94947    497118.18844
                  23475146.3364                                   23475142.6294
                                                                        44.5004
        29.2504
   2281661.20748   1797150.63346
                  21907758.5314                                   21907753.0274
                                                                        49.7504
        36.5004
   2701903.97747   2115068.47745
                  23047004.8444                                   23047001.9574
                                                                        47.2504
        32.7504
   3738685.48846   2907841.02743
                  24212470.4454                                   24212468.1024
                                                                        40.7504
        23.7504
  -1139771.63346   -790291.87543
                  24914450.5864                                   24914449.3674
                                                                        41.7504
        20.0004
   3256620.14547   2538378.46544
                  23530428.8444                                   23530425.0634
                                                                        44.5004
        27.2504
 09  5 10 18 21  0.0000000  0 10G09G11G12G14G17G22G27G26G32G18
   2236725.68448   1759283.46946
                  20768347.1484                                   20768343.6174
                                                                        51.2504
        41.5004
   1242657.03547   1006451.56343
                  23693009.7974                                   23693006.5394
                                                                        42.5004
        22.5004
  -1018792.51247   -758570.25846
                  22606023.5784                                   22606020.5784
                                                                        47.0004
        37.0004
   -534718.09047   -376694.85246
                  21386669.9384                                   21386665.7234
                                                                        47.5004
        38.0004
    487388.10547    415741.99245
                  23455273.4614                                   23455270.4534
                                                                        45.2504
        31.0004
   2252920.19948   1774755.02346
                  21902289.0164                                   21902283.7154
                                                                        49.5004
        36.7504
   2690230.43847   2105972.21145
                  23044783.2584                                   23044780.4184
                                                                        47.5004
        33.0004
   3771016.43856   2933033.91454
                  24218622.8444                                   24218620.8594
                                                                        40.5004
        25.5004
  -1330513.94146   -938922.27343
                  24878154.8984                                   24878152.3204
                                                                        41.2504
        19.0004
   3269194.24247   2548176.43843
                  23532821.3054                                   23532817.4494
                                                                        43.5004
        23.7504
 09  5 10 18 21 30.0000000  0 10G09G11G12G14G17G22G27G26G32G18
   2209436.89148   1738019.48446
                  20763154.6644                                   20763150.9064
                                                                        51.0004
        41.5004
   1167095.42247    947572.14843
                  23678630.9454                                   23678627.4694
                                                                        43.5004
        22.0004
  -1193060.89848   -894363.77046
                  22572861.8524                                   22572858.0704
                                                                        48.0004
        37.0004
   -685199.25847   -493952.89546
                  21358033.9694                                   21358030.0084
                                                                        47.0004
        37.5004
    383765.55547    334997.27745
                  23435555.2274                                   23435551.6914
                                                                        44.7504
        30.5004
   2224866.91048   1752895.30146
                  21896950.7734                                   21896945.3134
                                                                        49.7504
        37.0004
   2679021.25847   2097237.77045
                  23042650.5234                                   23042647.1764
                                                                        47.0004
        32.2504
   3803656.02346   2958467.30943
                  24224833.9614                                   24224831.7704
                                                                        40.5004
        23.0004
  -1520858.78146  -1087242.89843
                  24841932.9774                                   24841930.9064
                                                                        41.7504
        20.5004
   3282217.26647   2558324.21143
                  23535299.1804                                   23535295.6134
                                                                        43.2504
        23.0004
 09  5 10 18 22  0.0000000  0 10G09G11G12G14G17G22G27G26G32G18
   2182916.92248   1717354.48846
                  20758108.2734                                   20758104.2194
                                                                        51.7504
        41.5004
   1092312.36747    889299.47743
                  23664401.0554                                   23664396.9734
                                                                        43.0004
        22.7504
  -1366707.76647  -1029673.02346
                  22539817.4384                                   22539814.9064
                                                                        47.0004
        36.7504
   -835039.51247   -610711.58646
                  21329520.7584                                   21329516.2664
                                                                        47.2504
        37.5004
    280944.54747    254876.85945
                  23415988.9144                                   23415985.6254
                                                                        46.0004
        31.5004
   2197490.47348   1731563.00046
                  21891741.3594                                   21891735.5514
                                                                        49.5004
        36.7504
   2668266.06347   2088857.08645
                  23040603.2034                                   23040600.7274
                                                                        46.5004
        32.2504
   3836593.53146   2984132.84044
                  24231101.9064                                   24231099.9614
                                                                        40.5004
        24.0004
  -1710812.69946  -1235259.00043
                  24805785.6644                                   24805783.4414
                                                                        41.5004
        20.7504
   3295677.90647   2568812.97743
                  23537861.6644                                   23537857.5944
                                                                        43.2504
        23.5004
 09  5 10 18 22 30.0000000  0  9G09G11G12G14G17G22G27G26G18
   2157154.14148   1697279.52346
                  20753205.5084                                   20753202.0004
                                                                        52.5004
        41.2504
   1018297.44147    831625.54343
                  23650315.8674                                   23650312.8244
                                                                        42.2504
        22.7504
  -1539740.30147  -1164503.56246
                  22506890.5314                                   22506887.0394
                                                                        47.5004
        36.5004
   -984246.96547   -726977.21946
                  21301127.6334                                   21301123.7274
                                                                        47.5004
        38.0004
    178916.07847    175373.88345
                  23396573.5554                                   23396570.2814
                                                                        45.5004
        30.5004
   2170779.32448   1710749.10246
                  21886658.3914                                   21886652.6764
                                                                        49.0004
        36.2504
   2657953.65647   2080821.46545
                  23038641.1804                                   23038638.4734
                                                                        46.2504
        33.0004
   3869817.02046   3010021.20744
                  24237424.8284                                   24237422.4774
                                                                        41.5004
        25.7504
   3309563.98847   2579633.28144
                  23540503.7584                                   23540500.2194
                                                                        43.5004
        25.5004
 09  5 10 18 23  0.0000000  0  9G09G11G12G14G17G22G27G26G18
   2132129.54748   1677779.85247
                  20748443.6254                                   20748440.2344
                                                                        51.5004
        42.0004
    945033.10947    774536.38743
                  23636374.3834                                   23636371.0554
                                                                        42.0004
        22.5004
  -1712172.55147  -1298866.35946
                  22474077.7734                                   22474074.2154
                                                                        46.7504
        36.5004
  -1132836.44148   -842761.26646
                  21272851.7974                                   21272847.9144
                                                                        48.7504
        37.7504
     77663.60947     96475.33245
                  23377306.3364                                   23377302.5864
                                                                        46.0004
        31.7504
   2144714.98848   1690439.20746
                  21881698.0864                                   21881692.8834
                                                                        48.7504
        36.5004
   2648065.48447   2073116.41045
                  23036759.7424                                   23036757.5594
                                                                        47.0004
        32.5004
   3903307.80546   3036117.89144
                  24243797.2424                                   24243795.3714
                                                                        41.7504
        26.0004
   3323856.28147   2590770.07443
                  23543223.3754                                   23543219.1884
                                                                        43.7504
        22.5004
 09  5 10 18 23 30.0000000  0  9G09G11G12G14G17G22G27G26G18
   2107834.49248   1658848.68846
                  20743820.2034                                   20743816.4024
                                                                        51.5004
        41.5004
    872512.17647    718026.56644
                  23622573.7814                                   23622570.3444
                                                                        42.0004
        24.5004
  -1884008.34448  -1432764.35546
                  22441378.5164                                   22441374.8754
                                                                        48.7504
        37.0004
  -1280812.63348   -958067.34446
                  21244693.1254                                   21244688.7194
                                                                        48.0004
        37.7504
    -22817.32047     18178.35945
                  23358185.2424                                   23358182.5944
                                                                        45.2504
        31.5004
   2119289.29748   1670626.95345
                  21876860.2194                                   21876854.5474
                                                                        49.5004
        35.5004
   2638593.74647   2065735.83645
                  23034957.2504                                   23034954.4574
                                                                        46.5004
        32.0004
   3937057.60246   3062416.35544
                  24250219.9384                                   24250217.5864
