     2.11           OBSERVATION DATA    G (GPS)             RINEX VERSION / TYPE
teqc  2019Feb25                         20221121 12:28:13UTCPGM / RUN BY / DATE
OSX ker:10.11.6|Core i5|gcc 4.3 -m64|OSX ker:10.10+|=+      COMMENT
BIT 2 OF LLI FLAGS DATA COLLECTED UNDER A/S CONDITION       COMMENT
04712840                                                    MARKER NAME
2840                                                        MARKER NUMBER
-Unknown-           -Unknown-                               OBSERVER / AGENCY
0220400471          TRIMBLE R7          2.30                REC # / TYPE / VERS
-Unknown-           TRM39105.00     NONE                    ANT # / TYPE
  1449460.7454 -1709240.9902  5952440.8300                  APPROX POSITION XYZ
        0.0000        0.0000        0.0000                  ANTENNA: DELTA H/E/N
     1     1                                                WAVELENGTH FACT L1/2
    20    L1    L2    L5    L6    L7    L8    C1    P1    C2# / TYPES OF OBSERV
          P2    C5    C6    C7    C8    S1    S2    S5    S6# / TYPES OF OBSERV
          S7    S8                                          # / TYPES OF OBSERV
    30.0000                                                 INTERVAL
    15                                                      LEAP SECONDS
Forced Modulo Decimation to 30 seconds                      COMMENT
 SNR is mapped to RINEX snr flag value [0-9]                COMMENT
  L1 & L2: min(max(int(snr_dBHz/6), 0), 9)                  COMMENT
teqc edited: Beidou # 1 - 37 excluded                       COMMENT
  2009    10    11     0     0    0.0000000     GPS         TIME OF FIRST OBS
                                                            END OF HEADER
 09 10 11  0  0  0.0000000  0  9G02G04G05G13G29G10G23G30G31
 -13611447.30548 -10554948.03947
                  20520563.9694                                   20520558.7734
                                                                        52.2504
        43.5004
  -5097361.72348  -3945743.45346
                  21375596.2734                                   21375593.1094
                                                                        51.2504
        40.0004
  -4100151.56247  -3146095.98844
                  23963465.4454                                   23963462.0664
                                                                        43.7504
        29.2504
 -15755121.51248 -12222798.26646
                  21415455.5554                                   21415451.5514
                                                                        50.5004
        36.0004
 -10930972.93047  -8471105.78545
                  23409828.8444                                   23409826.2624
                                                                        43.0004
        31.0004
 -10255981.06247  -7969854.49245
                  23120946.8914                                   23120944.2304
                                                                        44.0004
        31.0004
  -7370635.06648  -5709776.83645
                  22232118.7664                                   22232113.3164
                                                                        49.0004
        32.7504
  -4311438.67647  -3335248.98444
                  23519851.8914                                   23519848.7664
                                                                        43.2504
        26.7504
  -5009701.94947  -3879403.52044
                  24500806.2274                                   24500803.2234
                                                                        42.0004
        26.5004
 09 10 11  0  0 30.0000000  0  9G02G04G05G13G29G10G23G30G31
 -13714868.59448 -10635536.04347
                  20500883.7194                                   20500878.2384
                                                                        52.5004
        43.5004
  -5118550.68448  -3962254.35546
                  21371564.1954                                   21371560.9924
                                                                        50.5004
        39.0004
  -4300868.30147  -3302498.65245
                  23925270.4144                                   23925266.7584
                                                                        45.0004
        30.0004
 -15876929.52748 -12317713.59446
                  21392276.0704                                   21392272.1054
                                                                        51.0004
        36.5004
 -11104289.94947  -8606157.93045
                  23376847.6484                                   23376845.5944
                                                                        43.0004
        31.7504
 -10453648.48847  -8123881.01644
                  23083332.0164                                   23083329.3204
                                                                        44.2504
        29.5004
  -7408890.60248  -5739586.32445
                  22224839.0634                                   22224833.2504
                                                                        49.2504
        33.5004
  -4322013.65646  -3343489.18044
                  23517839.5164                                   23517836.8324
                                                                        41.7504
        27.0004
  -5029571.43746  -3894886.25044
                  24497025.4534                                   24497021.5944
                                                                        41.5004
        24.0004
 09 10 11  0  1  0.0000000  0  9G02G04G05G13G29G10G23G30G31
 -13817687.18448 -10715654.42247
                  20481317.7194                                   20481312.6054
                                                                        52.7504
        43.7504
  -5139261.25848  -3978392.46146
                  21367623.2664                                   21367620.0394
                                                                        52.0004
        40.0004
  -4501391.28947  -3458750.27745
                  23887111.2114                                   23887108.6564
                                                                        43.2504
        30.0004
 -15998059.91848 -12412100.94946
                  21369225.7194                                   21369221.9734
                                                                        51.2504
        36.7504
 -11277197.66447  -8740891.15245
                  23343944.4064                                   23343941.8794
                                                                        43.7504
        30.7504
 -10651034.93447  -8277688.65645
                  23045770.5394                                   23045767.6094
                                                                        44.0004
        30.0004
  -7446556.47748  -5768936.36345
                  22217671.4924                                   22217665.5004
                                                                        49.0004
        32.7504
  -4332090.45347  -3351341.21544
                  23515921.9384                                   23515919.1764
                                                                        42.7504
        27.5004
  -5048971.12947  -3910002.92644
                  24493334.7034                                   24493329.9304
                                                                        42.2504
        24.7504
 09 10 11  0  1 30.0000000  0  9G02G04G05G13G29G10G23G30G31
 -13919904.35248 -10795304.14847
                  20461866.6954                                   20461861.2234
                                                                        52.5004
        43.5004
  -5159497.03548  -3994160.59846
                  21363772.5474                                   21363769.5634
                                                                        51.7504
        39.5004
  -4701720.53947  -3614850.87945
                  23848990.4224                                   23848987.5634
                                                                        44.5004
        31.0004
 -16118513.31248 -12505960.75046
                  21346304.4304                                   21346300.6214
                                                                        51.2504
        36.2504
 -11449695.68447  -8875305.15245
                  23311118.3204                                   23311116.5314
                                                                        43.5004
        30.2504
 -10848140.15247  -8431277.12945
                  23008263.2344                                   23008260.2664
                                                                        46.0004
        32.0004
  -7483636.03948  -5797829.52045
                  22210615.5314                                   22210609.3444
                                                                        50.0004
        32.0004
  -4341674.31247  -3358809.14844
                  23514097.9224                                   23514095.4264
                                                                        42.5004
        26.2504
  -5067905.08247  -3924756.63343
                  24489731.5164                                   24489726.8364
                                                                        42.7504
        22.2504
 09 10 11  0  2  0.0000000  0  9G02G04G05G13G29G10G23G30G31
 -14021520.56648 -10874485.58247
                  20442529.5394                                   20442524.1054
                                                                        52.7504
        43.2504
  -5179260.82848  -4009560.95346
                  21360011.5474                                   21360008.6134
                                                                        50.0004
        39.2504
  -4901855.84847  -3770800.45745
                  23810905.4384                                   23810903.0864
                                                                        43.0004
        30.5004
 -16238290.20748 -12599293.38346
                  21323511.4614                                   21323508.0784
                                                                        50.7504
        37.2504
 -11621782.77747  -9009398.94145
                  23278372.0704                                   23278368.9844
                                                                        43.5004
        30.7504
 -11044962.95747  -8584645.56245
                  22970809.4844                                   22970805.6914
                                                                        45.5004
        31.7504
  -7520132.44548  -5826268.24245
                  22203670.5944                                   22203664.5004
                                                                        49.2504
        32.0004
  -4350769.30547  -3365896.14544
                  23512367.0164                                   23512364.6724
                                                                        42.7504
        24.7504
  -5086377.02046  -3939150.28943
                  24486215.6884                                   24486211.1564
                                                                        41.5004
        23.7504
 09 10 11  0  2 30.0000000  0  9G02G04G05G13G29G10G23G30G31
 -14122537.04748 -10953199.72747
                  20423306.7734                                   20423301.6134
                                                                        52.7504
        43.2504
  -5198556.22348  -4024596.32846
                  21356339.5784                                   21356336.3674
                                                                        51.0004
        39.5004
  -5101796.79347  -3926598.63345
                  23772858.5554                                   23772855.4804
                                                                        43.2504
        31.5004
 -16357390.72348 -12692098.96546
                  21300847.5164                                   21300843.4454
                                                                        50.7504
        36.7504
 -11793457.59447  -9143171.46145
                  23245703.0004                                   23245700.3164
                                                                        43.5004
        30.5004
 -11241503.29747  -8737793.86745
                  22933408.5164                                   22933405.6374
                                                                        44.0004
        31.0004
  -7556049.38748  -5854255.48445
                  22196836.0314                                   22196829.8914
                                                                        49.2504
        33.0004
  -4359379.64147  -3372605.51644
                  23510728.6254                                   23510726.4574
                                                                        42.2504
        27.0004
  -5104390.69946  -3953186.90243
                  24482788.3444                                   24482783.6644
                                                                        41.7504
        22.0004
 09 10 11  0  3  0.0000000  0  9G02G04G05G13G29G10G23G30G31
 -14222951.30148 -11031444.52347
                  20404198.5944                                   20404193.3874
                                                                        52.5004
        43.0004
  -5217383.42248  -4039266.86746
                  21352757.0164                                   21352753.9694
                                                                        49.7504
        39.5004
  -5301539.52747  -4082242.34845
                  23734848.3834                                   23734845.6844
                                                                        42.5004
        30.0004
 -16475812.16848 -12784375.41046
                  21278312.6484                                   21278308.7664
                                                                        50.7504
        36.7504
 -11964716.60247  -9276619.97345
                  23213113.4224                                   23213110.8714
                                                                        43.0004
        30.5004
 -11437756.75447  -8890718.54345
                  22896062.5864                                   22896060.4654
                                                                        44.0004
        31.7504
  -7591387.15248  -5881791.40245
                  22190111.0164                                   22190105.4184
                                                                        48.7504
        32.5004
  -4367507.07447  -3378938.58644
                  23509182.4224                                   23509179.4104
                                                                        42.7504
        26.0004
  -5121947.51646  -3966867.53943
                  24479447.5004                                   24479443.0864
                                                                        40.5004
        23.0004
 09 10 11  0  3 30.0000000  0  9G02G04G05G13G29G10G23G30G31
 -14322765.52748 -11109221.85547
                  20385204.4694                                   20385199.1454
                                                                        52.2504
        43.5004
  -5235746.59848  -4053575.83246
                  21349262.5864                                   21349259.5514
                                                                        50.7504
        39.2504
  -5501084.96147  -4237732.32845
                  23696876.2894                                   23696873.3484
                                                                        43.5004
        30.2504
 -16593556.17248 -12876123.97746
                  21255906.7584                                   21255902.7974
                                                                        50.5004
        36.0004
 -12135559.87547  -9409744.53545
                  23180603.1334                                   23180600.2234
                                                                        44.0004
        31.0004
 -11633723.97747  -9043420.20745
                  22858771.2424                                   22858768.3134
                                                                        45.0004
        32.5004
  -7626149.94548  -5908879.25045
                  22183495.7814                                   22183489.9384
                                                                        48.5004
        31.7504
  -4375157.11747  -3384899.64844
                  23507726.2664                                   23507723.4024
                                                                        42.5004
        26.5004
  -5139052.04346  -3980195.75043
                  24476191.9924                                   24476188.7274
                                                                        37.2504
        22.7504
 09 10 11  0  4  0.0000000  0  9G02G04G05G13G29G10G23G30G31
 -14421978.35548 -11186530.56247
                  20366324.9534                                   20366319.8094
                                                                        52.0004
        43.5004
  -5253647.06648  -4067524.23846
                  21345856.0864                                   21345853.3524
                                                                        49.7504
        39.5004
  -5700429.51647  -4393065.66045
                  23658943.0234                                   23658939.2114
                                                                        44.2504
        30.7504
 -16710621.70748 -12967343.89846
                  21233629.8674                                   21233625.9304
                                                                        51.0004
        36.5004
 -12305983.98447  -9542542.48445
                  23148172.7894                                   23148170.2934
                                                                        44.0004
        31.2504
 -11829401.86347  -9195896.48845
                  22821535.0554                                   22821531.8874
                                                                        45.0004
        33.2504
  -7660339.16048  -5935520.17245
                  22176990.0004                                   22176984.1094
                                                                        48.5004
        32.5004
  -4382331.54746  -3390490.13344
                  23506361.3054                                   23506358.7544
                                                                        41.2504
        27.0004
  -5155705.98046  -3993172.89144
                  24473022.5704                                   24473019.3484
                                                                        39.2504
        24.0004
 09 10 11  0  4 30.0000000  0  9G02G04G05G13G29G10G23G30G31
 -14520588.87548 -11263369.94147
                  20347560.1174                                   20347554.7934
                                                                        52.7504
        43.5004
  -5271086.62148  -4081113.50846
                  21342537.5704                                   21342534.3914
                                                                        50.5004
        39.0004
  -5899571.84047  -4548241.43745
                  23621047.2114                                   23621043.1524
                                                                        44.2504
        30.0004
 -16827007.00848 -13058033.74646
                  21211482.6174                                   21211478.4574
                                                                        51.0004
        36.2504
 -12475986.69547  -9675012.07845
                  23115822.3674                                   23115819.7974
                                                                        45.2504
        32.0004
 -12024788.36747  -9348145.68745
                  22784354.5394                                   22784350.9024
                                                                        45.5004
        31.2504
  -7693956.39548  -5961715.41845
                  22170593.0234                                   22170587.5664
                                                                        48.5004
        32.7504
  -4389033.72747  -3395712.60944
                  23505085.7344                                   23505082.9774
                                                                        43.7504
        26.7504
  -5171911.52346  -4005800.60944
                  24469939.0704                                   24469935.8834
                                                                        40.0004
        24.7504
 09 10 11  0  5  0.0000000  0  9G02G04G05G13G29G10G23G30G31
 -14618597.77748 -11339740.52747
                  20328909.7034                                   20328904.2894
                                                                        52.5004
        43.0004
  -5288067.87148  -4094345.64546
                  21339306.0164                                   21339302.8794
                                                                        50.0004
        39.0004
  -6098511.18047  -4703259.08645
                  23583189.8984                                   23583186.5164
                                                                        43.5004
        30.2504
 -16942712.37548 -13148193.78946
                  21189464.4064                                   21189460.6134
                                                                        50.5004
        37.2504
 -12645566.76647  -9807152.35945
                  23083552.9304                                   23083549.5554
                                                                        45.5004
        33.0004
 -12219882.38347  -9500167.02345
                  22747229.1174                                   22747225.7194
                                                                        46.5004
        32.2504
  -7727004.88348  -5987467.50045
                  22164303.9064                                   22164297.9654
                                                                        48.5004
        32.0004
  -4395267.77746  -3400570.34444
                  23503899.3914                                   23503896.9384
                                                                        41.2504
        25.5004
  -5187672.76646  -4018082.10944
                  24466940.8754                                   24466936.7504
                                                                        40.0004
        26.5004
 09 10 11  0  5 30.0000000  0 10G02G04G05G13G29G10G23G30G31G25
 -14716001.31248 -11415639.37147
                  20310374.4384                                   20310368.8874
                                                                        53.0004
        43.0004
  -5304589.62148  -4107219.74646
                  21336162.3984                                   21336159.2234
                                                                        50.0004
        39.2504
  -6297242.56247  -4858114.58245
                  23545371.8524                                   23545369.9964
                                                                        43.7504
        31.2504
 -17057733.60248 -13237820.70346
                  21167576.5784                                   21167572.9804
                                                                        51.0004
        37.2504
 -12814718.72747  -9938959.03545
                  23051363.6484                                   23051360.9734
                                                                        44.5004
        32.2504
 -12414678.65247  -9651956.30145
                  22710160.1954                                   22710157.0664
                                                                        45.5004
        31.0004
  -7759483.25048  -6012775.33245
                  22158123.2584                                   22158117.7584
                                                                        48.2504
        32.2504
  -4401033.56647  -3405063.19944
                  23502802.3914                                   23502799.6884
                                                                        42.5004
        25.7504
  -5202988.85246  -4030016.72344
                  24464025.5164                                   24464021.9184
                                                                        40.5004
        26.2504
   -219785.22356   -128640.02353
                  24060698.5234                                   24060696.0274
                                                                        40.0004
        21.0004
 09 10 11  0  6  0.0000000  0 10G02G04G05G13G29G10G23G30G31G25
 -13237381.88348 -10263468.41447
                  20591746.3444                                   20591741.0004
                                                                        52.7504
        43.2504
  -3745239.11748  -2892141.46146
                  21632896.5314                                   21632893.7854
                                                                        50.5004
        39.0004
  -4920343.05147  -3785205.77345
                  23807387.5314                                   23807384.3594
                                                                        44.5004
        31.5004
 -15596652.19548 -12099315.69946
                  21445611.2114                                   21445607.2464
                                                                        51.2504
        36.2504
 -11408020.60547  -8842830.61745
                  23319049.2734                                   23319046.7584
                                                                        44.5004
        32.2504
 -11033754.20347  -8575911.27045
                  22972941.3204                                   22972938.6804
                                                                        45.0004
        30.7504
  -6215978.55147  -4810044.42645
                  22451842.7274                                   22451836.8984
                                                                        47.2504
        32.5004
  -2830919.93047  -2181598.03944
                  23801585.7114                                   23801583.0434
                                                                        43.5004
        27.5004
  -3642447.59447  -2814010.54744
                  24760986.9844                                   24760982.8634
                                                                        43.0004
        27.5004
   1177780.75046    960372.53943
                  24326646.3834                                   24326644.1214
                                                                        39.5004
        21.2504
 09 10 11  0  6 30.0000000  0  9G02G04G05G13G29G10G23G30G25
 -13333590.48848 -10338436.13747
                  20573438.3444                                   20573433.1254
                                                                        52.0004
        43.2504
  -3760864.66048  -2904317.19146
                  21629923.1094                                   21629920.1214
                                                                        49.7504
        39.0004
  -5118668.95347  -3939745.34845
                  23769647.1334                                   23769644.4694
                                                                        44.7504
        32.2504
 -15710320.26648 -12187888.21946
                  21423980.8594                                   21423977.0784
                                                                        51.0004
        37.0004
 -11576325.84847  -8973977.52745
                  23287022.0394                                   23287019.0204
                                                                        44.7504
        32.0004
 -11227965.19547  -8727244.47745
                  22935984.6724                                   22935981.7154
                                                                        44.7504
        32.5004
  -6247339.78548  -4834481.67245
                  22445874.7504                                   22445869.2704
                                                                        48.0004
        32.2504
  -2835775.12547  -2185381.29344
                  23800661.3134                                   23800658.7234
                                                                        42.7504
        27.0004
   1000226.00446    822018.32843
                  24292858.7664                                   24292856.4024
                                                                        39.7504
        22.0004
 09 10 11  0  7  0.0000000  0  9G02G04G05G13G29G10G23G30G25
 -13429202.49248 -10412938.96947
                  20555244.1174                                   20555238.6884
                                                                        52.5004
        43.2504
  -3776046.04748  -2916146.82846
                  21627034.0474                                   21627031.5084
                                                                        50.5004
        38.7504
  -5316790.73447  -4094125.92645
                  23731945.9064                                   23731942.9804
                                                                        44.7504
        31.2504
 -15823312.21948 -12275933.88746
                  21402479.1724                                   21402475.3054
                                                                        51.0004
        36.5004
 -11744205.72747  -9104792.98445
                  23255075.0314                                   23255073.0164
                                                                        45.0004
        32.0004
 -11421882.00847  -8878348.50845
                  22899083.9614                                   22899080.8754
                                                                        46.2504
        33.2504
  -6278147.17248  -4858487.42245
                  22440012.2034                                   22440006.8984
                                                                        48.5004
        32.2504
  -2840181.25447  -2188814.66844
                  23799822.4844                                   23799819.7544
                                                                        43.5004
        27.0004
    822980.42646    683904.99643
                  24259130.5314                                   24259128.2304
                                                                        41.0004
        22.0004
 09 10 11  0  7 30.0000000  0  9G02G04G05G13G29G10G23G30G25
 -13524211.00848 -10486971.58247
                  20537164.3914                                   20537159.0314
                                                                        53.0004
        43.5004
  -3790779.22748  -2927627.21546
                  21624230.9694                                   21624227.5904
                                                                        50.0004
        39.0004
  -5514700.04347  -4248340.93445
                  23694285.0784                                   23694281.6094
                                                                        45.0004
        31.0004
 -15935620.62948 -12363446.92246
                  21381107.6024                                   21381103.9654
                                                                        50.5004
        37.0004
 -11911651.48847  -9235270.18745
                  23223211.5394                                   23223209.0554
                                                                        43.5004
        31.7504
 -11615496.14147  -9029216.64545
                  22862239.8204                                   22862236.9884
                                                                        45.2504
        33.0004
  -6308396.47748  -4882058.32045
                  22434255.8444                                   22434250.0704
                                                                        48.2504
        32.5004
  -2844135.14147  -2191895.62144
                  23799070.3364                                   23799067.4184
                                                                        42.2504
        25.0004
    646052.82847    546039.38743
                  24225461.7504                                   24225458.9024
                                                                        42.0004
        23.7504
 09 10 11  0  8  0.0000000  0  9G02G04G05G13G29G10G23G30G25
 -13618608.14848 -10560527.82047
                  20519201.1174                                   20519195.9964
                                                                        53.0004
        43.5004
  -3805058.67248  -2938754.09846
                  21621513.4924                                   21621510.7344
                                                                        49.5004
        39.2504
  -5712387.93447  -4402383.38345
                  23656665.8364                                   23656662.5004
                                                                        43.5004
        30.7504
 -16047237.35248 -12450421.00046
                  21359867.5084                                   21359863.6724
                                                                        50.2504
        36.7504
 -12078653.63347  -9365401.71145
                  23191432.0704                                   23191429.3714
                                                                        44.5004
        31.5004
 -11808797.97347  -9179841.44945
                  22825455.7274                                   22825452.9534
                                                                        46.2504
        31.5004
  -6338082.42648  -4905190.21545
                  22428607.4064                                   22428601.2774
                                                                        48.2504
        32.2504
  -2847632.71147  -2194621.06244
                  23798404.2894                                   23798401.9064
                                                                        42.5004
        24.2504
    469453.49647    408429.63343
                  24191856.6094                                   24191853.2464
                                                                        42.2504
        22.5004
 09 10 11  0  8 30.0000000  0  9G02G04G05G13G29G10G23G30G25
 -13712397.61748 -10633610.49647
                  20501353.6024                                   20501348.2704
                                                                        53.0004
        43.2504
  -3818890.16848  -2949531.88746
                  21618881.4304                                   21618878.4264
                                                                        50.0004
        38.2504
  -5909856.45747  -4556254.90245
                  23619088.7344                                   23619086.1844
                                                                        43.0004
        30.5004
 -16158166.04348 -12536858.94546
                  21338758.5234                                   21338754.5204
                                                                        50.5004
        36.7504
 -12245213.92247  -9495188.92245
                  23159736.7504                                   23159733.4184
                                                                        44.0004
        32.5004
 -12001789.40247  -9330224.40645
                  22788730.8054                                   22788727.8634
                                                                        46.2504
        33.0004
  -6367210.66847  -4927887.52745
                  22423064.0704                                   22423058.0594
                                                                        47.0004
        32.2504
  -2850680.65247  -2196996.09044
                  23797824.4924                                   23797821.5554
                                                                        43.7504
        25.0004
    293180.93847    271074.43044
                  24158313.3674                                   24158309.6094
                                                                        42.2504
        25.5004
 09 10 11  0  9  0.0000000  0  9G02G04G05G13G29G10G23G30G25
 -13805579.40248 -10706219.64147
                  20483621.8284                                   20483616.4694
                                                                        51.7504
        43.5004
  -3832276.19548  -2959962.57846
                  21616334.0784                                   21616331.1604
                                                                        51.2504
        39.2504
  -6107104.02747  -4709954.24245
                  23581554.5314                                   23581551.4654
                                                                        45.0004
        33.0004
 -16268406.08648 -12622760.25846
                  21317780.4534                                   21317776.4024
                                                                        50.2504
        36.5004
 -12411329.81247  -9624629.87145
                  23128125.9534                                   23128122.5164
                                                                        45.0004
        30.7504
 -12194468.65247  -9480364.06245
                  22752065.4384                                   22752062.0554
                                                                        46.2504
        32.5004
  -6395783.91048  -4950152.40645
                  22417626.5164                                   22417621.0204
                                                                        48.0004
        31.5004
  -2853282.46147  -2199023.45744
                  23797329.3834                                   23797327.3164
                                                                        44.0004
        24.7504
    117237.45746    133975.64843
                  24124832.1724                                   24124828.6914
                                                                        41.5004
        21.7504
 09 10 11  0  9 30.0000000  0  9G02G04G05G13G29G10G23G30G25
 -13898153.93048 -10778355.65247
                  20466005.5004                                   20465999.9734
                                                                        52.2504
        43.2504
  -3845219.17248  -2970048.01646
                  21613871.1564                                   21613868.1994
                                                                        50.7504
        39.0004
  -6304129.32447  -4863480.44145
                  23544061.8204                                   23544058.2774
                                                                        44.5004
        33.7504
 -16377957.63348 -12708125.09046
                  21296933.6024                                   21296929.8984
                                                                        50.0004
        37.2504
 -12577000.31647  -9753723.72345
                  23096599.6024                                   23096596.3244
                                                                        43.5004
        31.5004
 -12386834.06647  -9630259.15645
                  22715459.1414                                   22715456.2704
                                                                        46.5004
        32.2504
  -6423804.97748  -4971986.98845
                  22412294.6094                                   22412288.5634
                                                                        48.7504
        31.7504
  -2855442.33647  -2200706.45344
                  23796918.7194                                   23796916.0704
                                                                        44.5004
        26.2504
    -58374.57446     -2864.79743
                  24091413.2424                                   24091410.7664
                                                                        39.5004
        20.2504
 09 10 11  0 10  0.0000000  0  9G02G04G05G13G29G10G23G30G25
 -13990123.64848 -10850020.35947
                  20448504.3204                                   20448498.8134
                                                                        52.0004
        43.5004
  -3857724.19548  -2979792.18046
                  21611491.6564                                   21611488.5234
                                                                        50.5004
        38.2504
  -6500933.53947  -5016834.33645
                  23506610.9614                                   23506608.1954
                                                                        45.2504
        32.5004
 -16486823.56648 -12792955.68746
                  21276216.9774                                   21276213.4064
                                                                        50.0004
        36.7504
 -12742225.81247  -9882470.84845
                  23065158.6804                                   23065155.2974
                                                                        43.7504
        32.0004
 -12578886.85247  -9779910.67245
                  22678912.7584                                   22678909.6374
                                                                        46.5004
        33.5004
  -6451279.30947  -4993395.55945
                  22407066.2894                                   22407060.7234
                                                                        47.0004
        31.5004
  -2857166.25047  -2202049.76644
                  23796590.4534                                   23796588.2624
                                                                        44.2504
        26.2504
   -233656.00046   -139447.55143
                  24058058.3834                                   24058055.2464
                                                                        40.5004
        20.0004
 09 10 11  0 10 30.0000000  0  9G02G04G05G13G29G10G23G30G25
 -14081487.67648 -10921213.07447
                  20431117.9694                                   20431112.7814
                                                                        52.5004
        43.2504
  -3869792.35548  -2989195.93046
                  21609194.7584                                   21609192.2464
                                                                        51.5004
        38.7504
  -6697514.02047  -5170013.88345
                  23469203.0314                                   23469199.4964
                                                                        45.0004
        32.5004
 -16595001.81648 -12877250.42246
                  21255631.5084                                   21255627.6524
                                                                        50.5004
        36.5004
 -12907003.69547 -10010869.18045
                  23033801.3674                                   23033799.3794
                                                                        43.0004
        32.2504
 -12770624.43047  -9929316.62145
                  22642426.0314                                   22642423.2034
                                                                        47.0004
        34.0004
  -6478207.78947  -5014378.78145
                  22401941.9224                                   22401935.9454
                                                                        47.0004
        31.2504
  -2858457.16447  -2203055.68444
                  23796345.5474                                   23796342.2304
                                                                        44.2504
        26.2504
   -408602.67246   -275769.50443
                  24024767.4694                                   24024764.1054
                                                                        41.0004
        20.0004
 09 10 11  0 11  0.0000000  0  9G02G04G05G13G29G10G23G30G25
 -14172248.48848 -10991935.78947
                  20413846.9614                                   20413841.4844
                                                                        53.0004
        43.5004
  -3881428.33248  -2998262.92646
                  21606980.6884                                   21606978.1684
                                                                        51.0004
        38.7504
  -6893871.02347  -5323019.32445
                  23431837.1564                                   23431833.7464
                                                                        45.0004
        31.2504
 -16702495.15248 -12961011.46146
                  21235176.2814                                   21235172.2274
                                                                        49.7504
        37.2504
 -13071333.53547 -10138918.37545
                  23002531.1094                                   23002528.7194
                                                                        43.2504
        32.5004
 -12962046.67647 -10078476.79745
                  22605999.8984                                   22605996.8204
                                                                        46.5004
        33.7504
  -6504595.57847  -5034940.67245
                  22396920.5554                                   22396914.9304
                                                                        47.0004
        31.2504
  -2859319.84447  -2203727.90644
                  23796181.2034                                   23796178.3324
                                                                        44.0004
        26.0004
   -583215.27347   -411831.23043
                  23991540.0864                                   23991536.3874
                                                                        43.0004
        22.7504
 09 10 11  0 11 30.0000000  0  9G02G04G05G13G29G10G23G30G25
 -14262407.96148 -11062189.91447
                  20396690.1804                                   20396684.8054
                                                                        53.2504
        43.2504
  -3892636.56648  -3006996.60946
                  21604847.7664                                   21604844.8794
                                                                        50.0004
        38.5004
  -7090005.66847  -5475851.53545
                  23394514.0634                                   23394510.6954
                                                                        44.5004
        31.7504
 -16809304.62548 -13044239.61346
                  21214851.1094                                   21214847.4064
                                                                        50.0004
        36.5004
 -13235216.12547 -10266619.08245
                  22971345.6024                                   22971343.0594
                                                                        44.0004
        34.0004
 -13153154.19947 -10227391.77345
                  22569633.2504                                   22569630.2194
                                                                        46.7504
        33.5004
  -6530447.05147  -5055084.65645
                  22392001.2114                                   22391995.3444
                                                                        47.5004
        31.5004
  -2859760.49247  -2204071.29744
                  23796096.8284                                   23796094.2114
                                                                        43.7504
        24.2504
   -757493.02347   -547632.00444
                  23958376.3754                                   23958372.6484
                                                                        43.2504
        26.2504
 09 10 11  0 12  0.0000000  0  9G02G04G05G13G29G10G23G30G25
 -14351964.38348 -11131974.12547
                  20379648.0864                                   20379642.7814
                                                                        52.5004
        43.0004
  -3903417.28948  -3015397.16846
                  21602796.1564                                   21602793.2074
                                                                        51.0004
        38.5004
  -7285914.48447  -5628507.78145
                  23357234.1484                                   23357230.8404
                                                                        46.0004
        32.2504
 -16915428.56648 -13126933.60546
                  21194656.1954                                   21194652.3984
                                                                        49.5004
        37.0004
 -13398647.87947 -10393968.50045
                  22940245.7974                                   22940242.4734
                                                                        44.2504
        33.5004
 -13343943.18447 -10376058.50445
                  22533327.3594                                   22533324.4104
                                                                        45.7504
        33.5004
  -6555762.98847  -5074811.35545
                  22387183.8674                                   22387178.0594
                                                                        47.5004
        31.7504
  -2859780.86747  -2204087.18744
                  23796093.0554                                   23796090.2734
                                                                        44.2504
        25.2504
   -931432.19147   -683169.01244
                  23925276.2974                                   23925273.4694
                                                                        42.7504
        25.2504
 09 10 11  0 12 30.0000000  0  9G02G04G05G13G29G10G23G30G25
 -14440916.94948 -11201287.78147
                  20362721.0634                                   20362715.7934
                                                                        52.2504
        43.7504
  -3913772.25448  -3023465.96546
                  21600826.0394                                   21600822.3554
                                                                        51.0004
        38.0004
  -7481595.04347  -5780986.21945
                  23319996.8054                                   23319993.9574
                                                                        45.5004
        32.5004
 -17020866.25848 -13209092.86346
                  21174592.2974                                   21174588.1644
                                                                        49.2504
        37.0004
 -13561625.21547 -10520963.79345
                  22909232.2894                                   22909229.1414
                                                                        44.7504
        34.0004
 -13534411.34847 -10524475.21945
                  22497082.0944                                   22497079.5634
                                                                        47.5004
        34.0004
  -6580545.30148  -5094122.25045
                  22382467.9304                                   22382462.3404
                                                                        48.5004
        31.5004
  -2859383.73447  -2203777.73044
                  23796169.3364                                   23796165.8324
                                                                        43.5004
        25.5004
  -1105029.65646   -818439.75443
                  23892241.0944                                   23892238.8874
                                                                        41.5004
        22.7504
 09 10 11  0 13  0.0000000  0  9G02G04G05G13G29G10G23G30G25
 -14529273.47748 -11270137.00847
                  20345907.2424                                   20345901.9614
                                                                        52.2504
        43.7504
  -3923711.25448  -3031210.62146
                  21598934.6024                                   21598931.6414
                                                                        50.0004
        38.0004
  -7677052.30547  -5933290.57445
                  23282803.0314                                   23282800.0744
                                                                        45.7504
        33.7504
 -17125625.34048 -13290723.33246
                  21154657.2894                                   21154653.2934
                                                                        50.0004
        37.7504
 -13724154.21547 -10647609.76645
                  22878303.6484                                   22878300.6564
                                                                        44.5004
        33.5004
 -13724564.20747 -10672646.20345
                  22460897.5944                                   22460894.4694
                                                                        46.5004
        34.0004
  -6604803.76647  -5113024.92645
                  22377852.1094                                   22377845.4184
                                                                        47.2504
        31.5004
  -2858579.58647  -2203151.09043
                  23796321.6954                                   23796318.5944
                                                                        43.5004
        23.0004
  -1278290.52346   -953448.22344
                  23859270.3984                                   23859268.6334
                                                                        40.0004
        24.5004
 09 10 11  0 13 30.0000000  0  9G02G04G05G13G29G10G23G30G25
 -14617024.89548 -11338514.69547
                  20329208.7814                                   20329203.1844
                                                                        52.0004
        43.2504
  -3933227.29348  -3038625.72746
                  21597123.7584                                   21597120.5904
                                                                        50.2504
        38.5004
  -7872276.95747  -6085413.70345
                  23245653.5634                                   23245649.8444
                                                                        46.5004
        35.0004
 -17229695.78548 -13371817.19146
                  21134853.5234                                   21134849.5824
                                                                        49.7504
        37.2504
 -13886223.76647 -10773897.70345
                  22847462.9614                                   22847459.5554
                                                                        43.2504
        32.5004
 -13914390.98447 -10820563.15645
                  22424774.6334                                   22424771.5824
                                                                        46.2504
        34.0004
  -6628531.85947  -5131514.34045
                  22373336.3364                                   22373330.5474
                                                                        47.7504
        31.5004
  -2857362.89847  -2202203.02044
                  23796553.2974                                   23796550.6214
                                                                        43.5004
        25.0004
  -1451202.89846  -1088185.08643
                  23826366.3674                                   23826364.3014
                                                                        40.5004
        22.7504
 09 10 11  0 14  0.0000000  0  9G02G04G05G13G29G10G23G30G25
 -14704175.23048 -11406424.03547
                  20312624.6724                                   20312619.4454
                                                                        51.5004
        43.2504
  -3942326.55148  -3045716.07446
                  21595392.0554                                   21595389.4384
                                                                        51.0004
        38.0004
  -8067271.10547  -6237357.18045
                  23208547.3134                                   23208543.6134
                                                                        46.2504
        34.0004
 -17333081.94948 -13452377.83646
                  21115179.8134                                   21115175.6804
                                                                        49.7504
        37.0004
 -14047836.37147 -10899829.61745
                  22816709.0944                                   22816705.4614
                                                                        43.7504
        32.7504
 -14103893.92647 -10968227.74645
                  22388713.0704                                   22388710.1564
                                                                        46.2504
        33.0004
  -6651736.14147  -5149595.59445
                  22368920.6564                                   22368914.9694
                                                                        47.7504
        31.5004
  -2855742.08647  -2200940.03144
                  23796861.6174                                   23796858.8094
                                                                        43.5004
        25.5004
  -1623768.64546  -1222651.80543
                  23793528.8834                                   23793525.4304
                                                                        41.5004
        22.0004
 09 10 11  0 14 30.0000000  0  9G02G04G05G13G29G10G23G30G25
 -14790722.93048 -11473863.80947
                  20296155.0314                                   20296149.6524
                                                                        52.0004
        43.5004
  -3951009.74248  -3052482.21946
                  21593739.8284                                   21593736.5944
                                                                        50.2504
        37.7504
  -8262030.37947  -6389117.64145
                  23171485.3054                                   23171481.7814
                                                                        45.2504
        33.2504
 -17435781.69948 -13532403.60546
                  21095636.7584                                   21095632.4844
                                                                        49.5004
        36.5004
 -14208987.51247 -11025401.91445
                  22786043.2194                                   22786039.5984
                                                                        45.0004
        32.5004
 -14293069.14847 -11115636.97745
                  22352714.5554                                   22352710.8324
                                                                        46.5004
        33.5004
  -6674417.46147  -5167269.35545
                  22364604.5784                                   22364598.7304
                                                                        47.2504
        30.5004
  -2853717.90647  -2199362.76644
