     2.11           OBSERVATION DATA    G (GPS)             RINEX VERSION / TYPE
teqc  2019Feb25                         20221121 12:28:48UTCPGM / RUN BY / DATE
OSX ker:10.11.6|Core i5|gcc 4.3 -m64|OSX ker:10.10+|=+      COMMENT
BIT 2 OF LLI FLAGS DATA COLLECTED UNDER A/S CONDITION       COMMENT
04713010                                                    MARKER NAME
3010                                                        MARKER NUMBER
-Unknown-           -Unknown-                               OBSERVER / AGENCY
0220400471          TRIMBLE R7          2.30                REC # / TYPE / VERS
-Unknown-           TRM39105.00     NONE                    ANT # / TYPE
  1449458.8588 -1709243.3089  5952442.7280                  APPROX POSITION XYZ
        0.0000        0.0000        0.0000                  ANTENNA: DELTA H/E/N
     1     1                                                WAVELENGTH FACT L1/2
    20    L1    L2    L5    L6    L7    L8    C1    P1    C2# / TYPES OF OBSERV
          P2    C5    C6    C7    C8    S1    S2    S5    S6# / TYPES OF OBSERV
          S7    S8                                          # / TYPES OF OBSERV
    30.0000                                                 INTERVAL
    15                                                      LEAP SECONDS
Forced Modulo Decimation to 30 seconds                      COMMENT
 SNR is mapped to RINEX snr flag value [0-9]                COMMENT
  L1 & L2: min(max(int(snr_dBHz/6), 0), 9)                  COMMENT
teqc edited: Beidou # 1 - 37 excluded                       COMMENT
  2009    10    28     0     0    0.0000000     GPS         TIME OF FIRST OBS
                                                            END OF HEADER
 09 10 28  0  0  0.0000000  0  8G02G04G05G10G13G29G16G07
  -5229008.90648  -4061977.67246
                  21269886.7034                                   21269880.8554
                                                                        51.0004
        40.7504
   1138553.30146    888285.77344
                  24014058.7194                                   24014056.4024
                                                                        41.5004
        24.0004
 -17433502.68048 -13537631.77746
                  21516610.2344                                   21516606.4964
                                                                        50.5004
        41.7504
 -16006686.99248 -12444601.34446
                  20880442.7504                                   20880439.1564
                                                                        52.0004
        41.5004
  -6192462.55548  -4810800.51645
                  21857467.2584                                   21857462.7854
                                                                        48.7504
        33.2504
 -12730957.00448  -9897931.80546
                  22131964.1644                                   22131960.8014
                                                                        48.5004
        38.7504
  -8662553.84046  -6716311.73443
                  23870694.6484                                   23870689.4304
                                                                        41.2504
        23.0004
  -9034756.45747  -7004039.98444
                  23699384.2194                                   23699380.9654
                                                                        42.5004
        27.7504
 09 10 28  0  0 30.0000000  0  8G02G04G05G10G13G29G16G07
  -5250803.35548  -4078960.35546
                  21265739.2734                                   21265733.4264
                                                                        52.0004
        40.5004
   1165377.25747    909187.46344
                  24019163.8524                                   24019161.1484
                                                                        43.0004
        26.0004
 -17587426.83248 -13657572.67246
                  21487319.5474                                   21487315.5474
                                                                        50.5004
        41.2504
 -16140665.37948 -12549000.07846
                  20854947.4454                                   20854943.7814
                                                                        52.5004
        41.2504
  -6220433.67248  -4832596.19545
                  21852144.3594                                   21852140.2074
                                                                        48.5004
        33.0004
 -12826685.47848  -9972525.41446
                  22113747.8984                                   22113744.1374
                                                                        49.2504
        38.7504
  -8784680.69947  -6811475.50843
                  23847454.4454                                   23847449.2854
                                                                        42.0004
        22.5004
  -9203200.13046  -7135294.75344
                  23667330.2584                                   23667326.7814
                                                                        41.0004
        26.0004
 09 10 28  0  1  0.0000000  0  8G02G04G05G10G13G29G16G07
  -5272080.28948  -4095539.75046
                  21261690.1804                                   21261684.3524
                                                                        51.2504
        40.5004
   1192374.61747    930224.35544
                  24024301.2114                                   24024298.6414
                                                                        43.5004
        28.0004
 -17740902.69548 -13777164.27346
                  21458114.4064                                   21458110.7114
                                                                        51.0004
        41.0004
 -16274097.11348 -12652972.85546
                  20829556.3754                                   20829552.9104
                                                                        52.5004
        41.2504
  -6247829.44148  -4853943.52345
                  21846931.1174                                   21846926.7544
                                                                        48.5004
        32.7504
 -12921784.18048 -10046628.30146
                  22095651.1954                                   22095647.6914
                                                                        49.2504
        38.2504
  -8906213.28546  -6906176.24243
                  23824326.9924                                   23824322.1684
                                                                        41.0004
        22.0004
  -9371230.98846  -7266227.84844
                  23635355.2344                                   23635351.7664
                                                                        41.5004
        27.7504
 09 10 28  0  1 30.0000000  0  8G02G04G05G10G13G29G16G07
  -5292840.66848  -4111716.64846
                  21257739.5944                                   21257734.3594
                                                                        50.7504
        39.7504
   1219544.03547    951395.30944
                  24029471.1254                                   24029468.1414
                                                                        44.0004
        26.2504
 -17893927.89848 -13896404.68446
                  21428994.8364                                   21428990.7114
                                                                        51.2504
        41.2504
 -16406979.72748 -12756517.75446
                  20804269.5394                                   20804266.0744
                                                                        52.0004
        41.7504
  -6274651.23448  -4874843.62945
                  21841827.2424                                   21841823.0004
                                                                        48.2504
        32.0004
 -13016250.47348 -10120238.40646
                  22077674.5234                                   22077671.2464
                                                                        49.2504
        38.5004
  -9027148.01647  -7000411.10943
                  23801314.7034                                   23801308.9534
                                                                        42.0004
        22.5004
  -9538845.66847  -7396836.62544
                  23603459.1644                                   23603455.5594
                                                                        43.2504
        28.0004
 09 10 28  0  2  0.0000000  0  8G02G04G05G10G13G29G16G07
  -5313087.50448  -4127493.41046
                  21253886.7274                                   21253881.3674
                                                                        51.7504
        40.2504
   1246881.85247    972697.51244
                  24034673.7034                                   24034670.7304
                                                                        44.0004
        26.0004
 -18046501.85548 -14015293.51647
                  21399960.4534                                   21399957.0004
                                                                        51.5004
        42.0004
 -16539312.93748 -12859634.52346
                  20779087.3834                                   20779084.0904
                                                                        51.5004
        41.5004
  -6300902.78548  -4895299.39145
                  21836831.4924                                   21836827.2704
                                                                        49.5004
        31.7504
 -13110085.16048 -10193356.33646
                  22059818.7504                                   22059814.9734
                                                                        49.7504
        38.7504
  -9147484.75847  -7094180.02043
                  23778415.1884                                   23778409.6254
                                                                        42.0004
        22.2504
  -9706043.07847  -7527120.28944
                  23571643.2194                                   23571638.3874
                                                                        43.5004
        28.2504
 09 10 28  0  2 30.0000000  0  8G02G04G05G10G13G29G16G07
  -5332823.48448  -4142872.08246
                  21250131.2344                                   21250125.6294
                                                                        51.0004
        40.0004
   1274385.20347    994128.58243
                  24039907.4924                                   24039904.1804
                                                                        43.5004
        22.5004
 -18198624.39148 -14133830.53547
                  21371012.5314                                   21371008.9574
                                                                        51.0004
        42.0004
 -16671097.46548 -12962323.76646
                  20754009.4144                                   20754006.1524
                                                                        52.5004
        41.7504
  -6326587.07048  -4915313.10245
                  21831944.0784                                   21831939.5824
                                                                        49.0004
        32.7504
 -13203290.23448 -10265983.67246
                  22042082.1954                                   22042078.8444
                                                                        49.5004
        38.2504
  -9267224.78946  -7187483.94143
                  23755629.1804                                   23755623.6954
                                                                        40.2504
        22.2504
  -9872821.21147  -7657077.27744
                  23539906.3054                                   23539901.8324
                                                                        44.5004
        26.7504
 09 10 28  0  3  0.0000000  0  8G02G04G05G10G13G29G16G07
  -5352050.84448  -4157854.43746
                  21246472.5704                                   21246466.4574
                                                                        50.7504
        39.7504
   1302051.39547   1015686.58643
                  24045170.8134                                   24045168.2814
                                                                        43.0004
        22.7504
 -18350293.87148 -14252014.52746
                  21342151.0314                                   21342147.3634
                                                                        52.0004
        41.7504
 -16802331.92248 -13064584.37946
                  20729036.6024                                   20729033.0234
                                                                        52.0004
        40.7504
  -6351706.46148  -4934886.64545
                  21827163.8914                                   21827159.8834
                                                                        48.7504
        33.2504
 -13295864.55948 -10338119.51246
                  22024466.1884                                   22024462.0744
                                                                        50.2504
        38.5004
  -9386366.27346  -7280321.46943
                  23732957.5004                                   23732951.7704
                                                                        41.5004
        22.5004
 -10039177.65247  -7786705.64144
                  23508249.5634                                   23508245.0594
                                                                        44.0004
        27.2504
 09 10 28  0  3 30.0000000  0  8G02G04G05G10G13G29G16G07
  -5370772.13748  -4172442.44946
                  21242909.7584                                   21242904.5274
                                                                        51.2504
        40.2504
   1329877.80147   1037369.53144
                  24050467.2344                                   24050463.9654
                                                                        42.0004
        24.2504
 -18501510.09048 -14369845.34846
                  21313375.4224                                   21313371.7274
                                                                        51.2504
        41.5004
 -16933016.81648 -13166416.75846
                  20704167.7664                                   20704164.6954
                                                                        51.0004
        41.2504
  -6376264.61348  -4954022.86345
                  21822490.7114                                   21822486.7424
                                                                        48.7504
        31.7504
 -13387809.77748 -10409765.12546
                  22006969.1334                                   22006965.7664
                                                                        49.7504
        39.0004
  -9504909.23846  -7372692.61743
                  23710399.2424                                   23710394.1724
                                                                        40.0004
        22.2504
 -10205111.05147  -7916004.36744
                  23476672.8284                                   23476669.1764
                                                                        42.0004
        27.5004
 09 10 28  0  4  0.0000000  0  8G02G04G05G10G13G29G16G07
  -5388988.13748  -4186636.72346
                  21239443.5084                                   21239437.9534
                                                                        51.2504
        40.0004
   1357862.82847   1059175.97344
                  24055792.5004                                   24055789.8914
                                                                        42.5004
        24.5004
 -18652270.44548 -14487320.92646
                  21284686.5554                                   21284682.8484
                                                                        51.5004
        41.5004
 -17063149.63748 -13267818.95746
                  20679404.4144                                   20679401.4144
                                                                        52.0004
        41.0004
  -6400262.55548  -4972722.55545
                  21817924.2194                                   21817919.6884
                                                                        48.5004
        31.5004
 -13479124.18748 -10480919.21146
                  21989592.7584                                   21989588.6564
                                                                        50.0004
        39.0004
  -9622852.05547  -7464596.11343
                  23687955.0314                                   23687950.5084
                                                                        42.5004
        22.7504
 -10370617.45746  -8044970.37144
                  23445178.1644                                   23445174.0124
                                                                        41.7504
        28.2504
 09 10 28  0  4 30.0000000  0  8G02G04G05G10G13G29G16G07
  -5406701.92648  -4200439.68046
                  21236072.3594                                   21236067.1254
                                                                        51.2504
        39.5004
   1386003.14147   1081103.37144
                  24061147.5944                                   24061145.3754
                                                                        42.5004
        26.0004
 -18802574.35548 -14604440.85246
                  21256084.5554                                   21256081.1844
                                                                        52.0004
        41.5004
 -17192730.32848 -13368790.93746
                  20654746.0234                                   20654742.8714
                                                                        52.5004
        41.0004
  -6423703.70748  -4990988.38345
                  21813463.0234                                   21813459.0784
                                                                        48.7504
        32.2504
 -13569808.44548 -10551582.25446
                  21972336.0634                                   21972332.3094
                                                                        49.5004
        39.2504
  -9740193.32047  -7556030.87543
                  23665626.1484                                   23665621.3324
                                                                        42.2504
        22.7504
 -10535695.55947  -8173602.61744
                  23413765.4064                                   23413761.1804
                                                                        42.5004
        28.2504
 09 10 28  0  5  0.0000000  0  8G02G04G05G10G13G29G16G07
  -5423915.94148  -4213853.19946
                  21232796.6644                                   21232791.3444
                                                                        50.7504
        40.2504
   1414296.06646   1103149.81344
                  24066531.6564                                   24066528.8874
                                                                        41.5004
        26.5004
 -18952421.48048 -14721204.84846
                  21227569.7504                                   21227565.7304
                                                                        50.7504
        41.7504
 -17321758.52748 -13469332.38746
                  20630192.9924                                   20630189.4264
                                                                        51.7504
        41.7504
  -6446591.38748  -5008822.93445
                  21809108.0944                                   21809103.2974
                                                                        48.2504
        32.5004
 -13659863.62148 -10621755.11346
                  21955199.1484                                   21955195.8834
                                                                        50.5004
        38.5004
  -9856933.43046  -7646997.19143
                  23643411.8444                                   23643406.7114
                                                                        40.2504
        22.7504
 -10700343.76647  -8301899.88744
                  23382433.6094                                   23382429.9024
                                                                        43.2504
        29.5004
 09 10 28  0  5 30.0000000  0  8G02G04G05G10G13G29G16G07
  -5440632.38748  -4226879.01246
                  21229615.8594                                   21229610.3164
                                                                        50.5004
        39.5004
   1442739.20746   1125313.24244
                  24071944.2584                                   24071941.3054
                                                                        40.2504
        27.0004
 -19101810.59848 -14837611.94146
                  21199141.9774                                   21199138.2774
                                                                        51.5004
        41.5004
 -17450234.10248 -13569443.21946
                  20605744.6334                                   20605741.0514
                                                                        52.5004
        41.2504
  -6468928.25048  -5026228.29345
                  21804857.3524                                   21804853.4454
                                                                        48.5004
        32.5004
 -13749290.04748 -10691438.05146
                  21938181.9774                                   21938178.4534
                                                                        50.5004
        39.2504
  -9973072.08646  -7737494.83643
                  23621310.4384                                   23621305.9574
                                                                        41.5004
        23.0004
 -10864559.37947  -8429860.09444
                  23351184.2974                                   23351180.8444
                                                                        43.0004
        28.7504
 09 10 28  0  6  0.0000000  0  8G02G04G05G10G13G29G16G07
  -5456852.21548  -4239517.85246
                  21226529.1484                                   21226523.6884
                                                                        51.5004
        40.5004
   1471331.30146   1147592.74244
                  24077384.7814                                   24077382.6604
                                                                        40.0004
        24.0004
 -19250739.33648 -14953660.30547
                  21170801.6254                                   21170798.2194
                                                                        51.5004
        42.0004
 -17578154.89548 -13669121.76246
                  20581402.3594                                   20581398.6684
                                                                        52.5004
        41.7504
  -6490715.30548  -5043205.20745
                  21800711.4224                                   21800707.6134
                                                                        48.7504
        31.7504
 -13838086.27048 -10760629.91846
                  21921284.7584                                   21921280.8554
                                                                        50.0004
        39.0004
 -10088606.55546  -7827521.69544
                  23599325.3984                                   23599320.6024
                                                                        40.7504
        25.2504
 -11028338.45347  -8557480.10944
                  23320017.7344                                   23320014.0354
                                                                        42.0004
        28.5004
 09 10 28  0  6 30.0000000  0  8G02G04G05G10G13G29G16G07
  -5472577.37148  -4251771.23446
                  21223536.7344                                   21223531.0744
                                                                        51.0004
        39.5004
   1500069.87546   1169986.39143
                  24082853.5004                                   24082850.8204
                                                                        40.7504
        22.5004
 -19399206.20748 -15069348.77347
                  21142549.5394                                   21142545.7624
                                                                        51.5004
        42.2504
 -17705519.99648 -13768367.29746
                  20557165.4694                                   20557161.8014
                                                                        52.5004
        41.2504
  -6511955.28948  -5059755.84445
                  21796669.4534                                   21796665.2774
                                                                        48.0004
        32.0004
 -13926252.27348 -10829330.69546
                  21904507.3914                                   21904503.6024
                                                                        49.7504
        39.0004
 -10203535.77747  -7917076.94144
                  23577455.2894                                   23577450.6054
                                                                        42.2504
        25.7504
 -11191679.09047  -8684758.47744
                  23288935.6414                                   23288931.6334
                                                                        43.2504
        28.2504
 09 10 28  0  7  0.0000000  0  8G02G04G05G10G13G29G16G07
  -5487812.14848  -4263642.48046
                  21220637.6954                                   21220632.0274
                                                                        51.2504
        39.7504
   1528950.50446   1192490.77743
                  24088349.4614                                   24088346.5704
                                                                        41.2504
        22.5004
 -19547212.76248 -15184678.56247
                  21114384.7194                                   21114381.1564
                                                                        51.2504
        42.0004
 -17832330.92648 -13867181.00446
                  20533033.8754                                   20533030.5474
                                                                        52.0004
        41.5004
  -6532652.99648  -5075883.94145
                  21792730.8204                                   21792726.6564
                                                                        48.5004
        30.7504
 -14013791.19948 -10897542.84846
                  21887848.9534                                   21887845.5004
                                                                        50.2504
        39.0004
 -10317861.81647  -8006162.14844
                  23555699.3594                                   23555695.2544
                                                                        42.0004
        25.5004
 -11354580.97347  -8811694.99644
                  23257936.1094                                   23257932.1214
                                                                        44.0004
        28.7504
 09 10 28  0  7 30.0000000  0  8G02G04G05G10G13G29G16G07
  -5502561.73848  -4275135.66446
                  21217830.8674                                   21217825.3054
                                                                        51.2504
        39.7504
   1557967.98447   1215101.80543
                  24093871.0474                                   24093868.4064
                                                                        42.5004
        22.7504
 -19694759.98448 -15299650.41046
                  21086307.4224                                   21086303.9494
                                                                        51.5004
        41.7504
 -17958589.67648 -13965564.43746
                  20509008.0474                                   20509004.3364
                                                                        52.0004
        41.5004
  -6552813.92248  -5091593.76245
                  21788894.6174                                   21788889.9924
                                                                        49.2504
        31.7504
 -14100705.24648 -10965268.08646
                  21871309.7734                                   21871306.5204
                                                                        50.0004
        38.5004
 -10431586.48847  -8094778.77044
                  23534058.6094                                   23534054.3984
                                                                        42.5004
        26.5004
 -11517044.97747  -8938290.36744
                  23227020.6414                                   23227016.2544
                                                                        43.2504
        29.0004
 09 10 28  0  8  0.0000000  0  8G02G04G05G10G13G29G16G07
  -5516824.96148  -4286249.88346
                  21215116.8444                                   21215111.5594
                                                                        51.2504
        39.2504
   1587123.02347   1237820.03943
                  24099419.6724                                   24099416.7814
                                                                        43.2504
        23.7504
 -19841844.19548 -15414261.47347
                  21058318.1254                                   21058314.0594
                                                                        51.5004
        42.0004
 -18084292.57048 -14063514.75046
                  20485087.7664                                   20485084.1294
                                                                        52.0004
        41.5004
  -6572437.55148  -5106884.88345
                  21785160.2274                                   21785156.5084
                                                                        48.2504
        31.5004
 -14186991.73048 -11032504.32846
                  21854890.3054                                   21854886.8794
                                                                        50.0004
        38.7504
 -10544705.85247  -8182923.71144
                  23512532.2194                                   23512528.7504
                                                                        42.5004
        25.2504
 -11679065.37947  -9064540.06644
                  23196188.7584                                   23196184.7384
                                                                        44.5004
        28.0004
 09 10 28  0  8 30.0000000  0  8G02G04G05G10G13G29G16G07
  -5530603.03948  -4296986.05946
                  21212494.8204                                   21212489.1604
                                                                        51.5004
        39.5004
   1616414.15247   1260644.28144
                  24104993.8914                                   24104991.2274
                                                                        43.2504
        26.0004
 -19988462.87948 -15528509.78947
                  21030417.7664                                   21030413.3874
                                                                        51.0004
        42.0004
 -18209438.00048 -14161030.67646
                  20461273.1334                                   20461269.4344
                                                                        52.5004
        41.2504
  -6591525.44148  -5121758.54745
                  21781528.1484                                   21781523.6644
                                                                        48.5004
        32.0004
 -14272650.18748 -11099251.17646
                  21838589.7664                                   21838586.3834
                                                                        50.0004
        38.7504
 -10657218.33647  -8270595.77744
                  23491122.4144                                   23491118.0704
                                                                        42.5004
        26.2504
 -11840638.70347  -9190441.37544
                  23165442.9454                                   23165438.2974
                                                                        44.7504
        28.5004
 09 10 28  0  9  0.0000000  0  8G02G04G05G10G13G29G16G07
  -3968480.82848  -3079747.99246
                  21509756.8834                                   21509751.1054
                                                                        51.7504
        39.0004
   3221255.07047   2511169.72344
                  24410384.4304                                   24410381.4774
                                                                        43.5004
        25.2504
 -18559192.86348 -14414792.88747
                  21302398.7584                                   21302395.1334
                                                                        51.2504
        42.0004
 -16758604.20348 -13030510.82446
                  20737357.6024                                   20737354.2464
                                                                        51.7504
        41.5004
  -5034663.11348  -3908619.09045
                  22077788.7504                                   22077784.7624
                                                                        48.5004
        31.0004
 -12782260.48048  -9937908.54746
                  22122201.4534                                   22122198.2074
                                                                        49.7504
        40.0004
  -9193702.10547  -7130193.52344
                  23769619.8134                                   23769615.6214
                                                                        42.2504
        25.2504
 -10426340.63747  -8088390.93444
                  23434575.0234                                   23434570.2774
                                                                        44.5004
        28.2504
 09 10 28  0  9 30.0000000  0  8G02G04G05G10G13G29G16G07
  -3981299.28948  -3089736.42646
                  21507317.5944                                   21507312.0434
                                                                        50.5004
        40.0004
   3250807.12147   2534197.32044
                  24416008.0084                                   24416005.8914
                                                                        42.2504
        25.7504
 -18704881.00848 -14528316.10947
                  21274675.0634                                   21274671.2384
                                                                        52.2504
        42.0004
 -16882636.78948 -13127159.58646
                  20713755.1804                                   20713751.7704
                                                                        52.0004
        41.5004
  -5052692.18448  -3922667.72345
                  22074358.0234                                   22074354.1374
                                                                        48.0004
        31.5004
 -12866667.08248 -10003679.93046
                  22106139.6174                                   22106136.3284
                                                                        49.5004
        38.7504
  -9305002.44147  -7216921.04744
                  23748440.3364                                   23748436.1334
                                                                        43.2504
        25.2504
 -10587017.42247  -8213593.61744
                  23403999.0554                                   23403994.4654
                                                                        42.5004
        28.0004
 09 10 28  0 10  0.0000000  0  8G02G04G05G10G13G29G16G07
  -3993638.46548  -3099351.37546
                  21504969.5084                                   21504964.1054
                                                                        51.0004
        39.2504
   3280488.97746   2557326.02343
                  24421655.5314                                   24421653.4804
                                                                        40.0004
        22.0004
 -18850100.25848 -14641473.96147
                  21247041.2584                                   21247037.2704
                                                                        51.5004
        42.2504
 -17006109.80948 -13223372.31646
                  20690258.8284                                   20690255.2074
                                                                        52.0004
        41.7504
  -5070193.46147  -3936305.07445
                  22071027.5864                                   22071023.6724
                                                                        47.5004
        31.7504
 -12950446.87948 -10068962.88746
                  22090196.2974                                   22090193.2274
                                                                        50.0004
        39.0004
  -9415694.31247  -7303174.44944
                  23727376.3594                                   23727371.8524
                                                                        43.0004
        25.2504
 -10747239.98046  -8338442.30944
                  23373508.5864                                   23373505.2934
                                                                        40.7504
        27.7504
 09 10 28  0 10 30.0000000  0  8G02G04G05G10G13G29G16G07
  -4005506.80948  -3108599.44146
                  21502711.3754                                   21502705.4304
                                                                        50.7504
        39.5004
   3310291.41446   2580548.52743
                  24427326.8134                                   24427325.1414
                                                                        39.5004
        21.2504
 -18994854.35548 -14754269.36747
                  21219495.0474                                   21219491.5784
                                                                        51.2504
        42.2504
 -17129027.90248 -13319152.64546
                  20666868.4384                                   20666864.9064
                                                                        52.2504
        41.5004
  -5087175.30148  -3949537.68445
                  22067795.8754                                   22067792.3984
                                                                        48.0004
        31.7504
 -13033604.06648 -10133760.69546
                  22074372.6804                                   22074369.2734
                                                                        49.5004
        38.7504
  -9525780.27747  -7388955.70744
                  23706427.4454                                   23706423.3164
                                                                        43.2504
        25.5004
 -10907012.13347  -8462940.04744
                  23343105.1724                                   23343101.3954
                                                                        43.0004
        28.7504
 09 10 28  0 11  0.0000000  0  8G02G04G05G10G13G29G16G07
  -4016903.77048  -3117480.23446
                  21500542.3444                                   21500537.0434
                                                                        50.2504
        39.2504
   3340215.91447   2603866.28944
                  24433022.1724                                   24433019.6054
                                                                        42.0004
        24.7504
 -19139140.23448 -14866699.91846
                  21192038.4224                                   21192034.8794
                                                                        51.5004
        41.7504
 -17251388.12148 -13414498.26646
                  20643583.7504                                   20643580.2384
                                                                        52.0004
        41.5004
  -5103637.56248  -3962365.43045
                  22064663.2194                                   22064659.4064
                                                                        48.0004
        31.7504
 -13116138.13348 -10198072.96546
                  22058666.5704                                   22058663.5004
                                                                        49.0004
        39.0004
  -9635259.16847  -7474263.92644
                  23685594.6724                                   23685590.5314
                                                                        43.2504
        27.5004
 -11066328.45347  -8587082.57844
                  23312788.5864                                   23312784.7584
                                                                        44.0004
        28.0004
 09 10 28  0 11 30.0000000  0  8G02G04G05G10G13G29G16G07
  -4027832.62148  -3125996.24646
                  21498462.8444                                   21498457.2074
                                                                        50.2504
        39.2504
   3370258.05547   2627275.69144
                  24438739.1414                                   24438736.6764
                                                                        44.2504
        24.5004
 -19282958.31248 -14978765.94547
                  21164670.5474                                   21164667.1094
                                                                        51.0004
        42.2504
 -17373191.26248 -13509409.80146
                  20620405.5864                                   20620402.2034
                                                                        52.2504
        41.5004
  -5119584.24247  -3974791.41845
                  22061629.0394                                   22061624.8284
                                                                        47.0004
        31.5004
 -13198050.30548 -10261900.63746
                  22043079.2664                                   22043076.1724
                                                                        50.0004
        38.7504
  -9744131.83647  -7559099.76244
                  23664876.9774                                   23664872.5944
                                                                        43.5004
        26.0004
 -11225188.30547  -8710869.42244
                  23282558.5164                                   23282554.5664
                                                                        42.0004
        29.2504
 09 10 28  0 12  0.0000000  0  8G02G04G05G10G13G29G16G07
  -4038297.02348  -3134150.35946
                  21496471.5084                                   21496465.9804
                                                                        50.2504
        39.5004
   3400414.44547   2650774.20344
                  24444478.1334                                   24444475.1214
                                                                        42.5004
        24.0004
 -19426308.15648 -15090467.10947
                  21137391.9774                                   21137388.3054
                                                                        52.0004
        42.0004
 -17494437.91048 -13603887.70347
                  20597332.8444                                   20597329.4804
                                                                        52.0004
        42.0004
  -5135019.86347  -3986819.18445
                  22058691.7664                                   22058687.5664
                                                                        47.5004
        30.7504
 -13279341.32448 -10325244.29746
                  22027610.1254                                   22027607.0664
                                                                        49.5004
        39.5004
  -9852397.66447  -7643462.73044
                  23644274.4064                                   23644270.2304
                                                                        43.2504
        26.5004
 -11383590.96547  -8834300.02345
                  23252415.6564                                   23252412.0664
                                                                        44.2504
        30.7504
 09 10 28  0 12 30.0000000  0  8G02G04G05G10G13G29G16G07
  -4048299.58648  -3141944.57046
                  21494568.1564                                   21494562.5634
                                                                        50.5004
        39.0004
   3430682.75447   2674360.02744
                  24450237.5554                                   24450234.7894
                                                                        43.2504
        24.0004
 -19569189.15648 -15201802.94947
                  21110202.6414                                   21110198.8954
                                                                        50.7504
        42.2504
 -17615127.57448 -13697931.59046
                  20574366.5164                                   20574363.2154
                                                                        52.5004
        41.5004
  -5149947.27047  -3998450.93045
                  22055850.9534                                   22055847.0084
                                                                        47.5004
        31.2504
 -13360012.74648 -10388105.14146
                  22012258.7504                                   22012255.7584
                                                                        49.2504
        39.2504
  -9960057.40647  -7727353.43444
                  23623787.5554                                   23623782.9694
                                                                        43.0004
        26.0004
 -11541534.10247  -8957372.57845
                  23222359.9224                                   23222356.3324
                                                                        44.5004
        30.0004
 09 10 28  0 13  0.0000000  0  8G02G04G05G10G13G29G16G07
  -4057840.38748  -3149378.98446
                  21492752.3134                                   21492746.9224
                                                                        50.2504
        38.5004
   3461062.94546   2698032.94943
                  24456018.3204                                   24456016.1294
                                                                        39.2504
        22.0004
 -19711598.51248 -15312771.28147
                  21083103.1644                                   21083099.4774
                                                                        51.5004
        43.0004
 -17735258.20348 -13791539.87146
                  20551506.5164                                   20551503.1134
                                                                        52.2504
        41.5004
  -5164366.76247  -4009686.92245
                  22053107.3284                                   22053103.3794
                                                                        47.2504
        30.7504
 -13440063.36348 -10450482.24646
                  21997025.8984                                   21997022.0824
                                                                        49.5004
        39.0004
 -10067109.60547  -7810770.74644
                  23603416.1724                                   23603411.5864
                                                                        42.2504
        25.0004
 -11699013.15247  -9080083.46544
                  23192393.1094                                   23192388.9844
                                                                        44.2504
        29.5004
 09 10 28  0 13 30.0000000  0  8G02G04G05G10G13G29G16G07
  -4066917.26248  -3156451.89846
                  21491025.4064                                   21491019.5554
                                                                        50.5004
        38.2504
   3491556.03946   2721793.79343
                  24461820.5234                                   24461818.8634
                                                                        39.5004
        22.2504
 -19853529.82448 -15423367.09847
                  21056094.6094                                   21056090.2194
                                                                        51.2504
        42.2504
 -17854823.85548 -13884707.89546
                  20528753.8754                                   20528750.7384
                                                                        52.0004
        41.5004
  -5178276.90647  -4020526.01645
                  22050460.3204                                   22050456.1094
                                                                        47.5004
        31.5004
 -13519487.32848 -10512371.05146
                  21981911.9144                                   21981909.1644
                                                                        48.2504
        39.5004
 -10173546.32847  -7893708.43744
                  23583162.2114                                   23583157.3094
                                                                        42.0004
        25.5004
 -11856022.04347  -9202428.02744
                  23162514.6954                                   23162510.6174
                                                                        43.7504
        29.7504
 09 10 28  0 14  0.0000000  0  8G02G04G05G10G13G29G16G07
  -4075534.03148  -3163166.32046
                  21489385.8674                                   21489379.6564
                                                                        51.0004
        39.0004
   3522158.51647   2745639.89144
                  24467644.4924                                   24467641.9224
                                                                        42.5004
        25.5004
 -19994984.37548 -15533591.42647
                  21029176.4454                                   21029173.2304
                                                                        51.5004
        42.2504
 -17973826.42648 -13977437.16446
                  20506108.4614                                   20506105.0594
                                                                        52.2504
        41.5004
  -5191681.84847  -4030971.43745
                  22047909.2814                                   22047904.9574
                                                                        47.0004
        30.5004
 -13598288.60948 -10573774.64846
                  21966916.4844                                   21966913.4184
                                                                        50.0004
        39.5004
 -10279370.40647  -7976168.74644
                  23563024.1254                                   23563020.0474
                                                                        42.0004
        24.0004
 -12012560.07047  -9324405.69944
                  23132726.9844                                   23132722.2464
                                                                        44.7504
        29.2504
 09 10 28  0 14 30.0000000  0  8G02G04G05G10G13G29G16G07
  -4083693.52348  -3169524.38346
                  21487833.0164                                   21487827.3364
                                                                        50.0004
        38.5004
   3552867.84847   2769569.26643
                  24473488.3284                                   24473485.6764
                                                                        43.7504
        22.2504
 -20135961.39848 -15643443.64847
                  21002349.6884                                   21002345.9304
                                                                        51.0004
        42.5004
 -18092266.13348 -14069727.82446
                  20483570.2424                                   20483566.5704
                                                                        51.7504
        41.7504
  -5204585.37947  -4041026.13745
                  22045453.8524                                   22045449.5164
                                                                        47.0004
        30.5004
 -13676468.35248 -10634693.93046
                  21952039.4454                                   21952035.8594
                                                                        49.0004
        39.2504
 -10384583.16446  -8058152.71943
                  23543002.4924                                   23542997.9384
                                                                        40.0004
        22.5004
 -12168625.28147  -9446014.92244
                  23103028.0084                                   23103024.0394
                                                                        44.2504
        28.7504
 09 10 28  0 15  0.0000000  0  8G02G04G05G10G13G29G16G07
  -4091397.40648  -3175527.44146
                  21486366.7194                                   21486361.7344
                                                                        49.7504
        38.5004
   3583682.30147   2793580.56343
                  24479352.2894                                   24479349.4534
                                                                        43.5004
        22.7504
 -20276459.58248 -15752922.75447
                  20975613.8754                                   20975609.9804
                                                                        52.2504
        42.0004
 -18210141.25048 -14161578.54746
                  20461139.0864                                   20461135.6724
                                                                        53.0004
        41.5004
  -5216988.93747  -4050691.25045
                  22043093.7344                                   22043089.5784
                                                                        46.5004
        30.0004
 -13754025.79748 -10695128.30546
                  21937280.9924                                   21937277.6334
                                                                        49.5004
        39.2504
 -10489181.16847  -8139657.64543
                  23523098.2034                                   23523093.8404
                                                                        42.0004
        22.5004
 -12324214.67647  -9567253.38344
                  23073420.1884                                   23073416.1804
                                                                        43.0004
        27.7504
 09 10 28  0 15 30.0000000  0  8G02G04G05G10G13G29G16G07
  -4098649.26248  -3181178.25446
                  21484986.9534                                   21484981.5204
                                                                        50.0004
        39.5004
   3614597.54746   2817670.44543
                  24485234.6094                                   24485231.6024
                                                                        40.2504
        20.7504
 -20416478.86748 -15862028.68747
                  20948969.0944                                   20948964.8554
                                                                        52.0004
        42.5004
 -18327452.82848 -14252990.15646
                  20438815.4384                                   20438811.9774
                                                                        52.0004
        41.7504
  -5228897.54347  -4059970.68744
                  22040827.6334                                   22040823.1764
                                                                        47.0004
        29.7504
 -13830962.48448 -10755078.96546
                  21922640.4304                                   21922636.8524
                                                                        49.7504
        38.5004
 -10593166.72746  -8220685.35943
                  23503310.4064                                   23503305.8094
                                                                        41.7504
        22.2504
 -12479328.46947  -9688121.25444
                  23043903.2584                                   23043899.0314
                                                                        42.7504
        28.0004
 09 10 28  0 16  0.0000000  0  8G02G04G05G10G13G29G16G07
  -4105452.85948  -3186479.78946
                  21483692.1254                                   21483686.9804
                                                                        49.7504
        38.7504
   3645610.28546   2841836.21143
                  24491136.1804                                   24491133.5704
                                                                        38.7504
        19.0004
 -20556019.57048 -15970761.69547
                  20922415.1954                                   20922411.2584
                                                                        52.2504
        43.0004
 -18444201.85948 -14343963.43446
                  20416598.7424                                   20416595.5354
                                                                        52.5004
        41.5004
  -5240314.70747  -4068867.17645
                  22038655.0634                                   22038650.5234
                                                                        47.0004
        31.2504
 -13907280.66048 -10814547.66046
                  21908117.5634                                   21908113.7934
                                                                        50.0004
        39.0004
 -10696540.27746  -8301236.16844
                  23483639.4614                                   23483634.2114
                                                                        41.5004
        24.5004
 -12633965.12947  -9808617.34844
                  23014476.9844                                   23014472.6914
                                                                        42.2504
        28.5004
 09 10 28  0 16 30.0000000  0  8G02G04G05G10G13G29G16G07
  -4111809.49248  -3191433.02046
                  21482482.4614                                   21482477.1564
                                                                        49.7504
        38.5004
   3676719.43046   2866077.01843
                  24497055.7344                                   24497053.8204
                                                                        39.0004
        19.7504
 -20695080.10948 -16079120.55947
                  20895952.7424                                   20895949.1454
                                                                        51.7504
        42.5004
 -18560387.11348 -14434497.39846
                  20394489.4924                                   20394486.0004
                                                                        53.0004
        41.7504
  -5251242.77347  -4077382.55945
                  22036575.5164                                   22036571.3164
                                                                        46.5004
        30.5004
 -13982980.78948 -10873534.75446
                  21893712.3594                                   21893708.4144
