     2.11           OBSERVATION DATA    G (GPS)             RINEX VERSION / TYPE
teqc  2019Feb25                         20221121 12:27:54UTCPGM / RUN BY / DATE
OSX ker:10.11.6|Core i5|gcc 4.3 -m64|OSX ker:10.10+|=+      COMMENT
BIT 2 OF LLI FLAGS DATA COLLECTED UNDER A/S CONDITION       COMMENT
04712740                                                    MARKER NAME
2740                                                        MARKER NUMBER
-Unknown-           -Unknown-                               OBSERVER / AGENCY
0220400471          TRIMBLE R7          2.30                REC # / TYPE / VERS
-Unknown-           TRM39105.00     NONE                    ANT # / TYPE
  1449461.5386 -1709239.1149  5952443.1029                  APPROX POSITION XYZ
        0.0000        0.0000        0.0000                  ANTENNA: DELTA H/E/N
     1     1                                                WAVELENGTH FACT L1/2
    20    L1    L2    L5    L6    L7    L8    C1    P1    C2# / TYPES OF OBSERV
          P2    C5    C6    C7    C8    S1    S2    S5    S6# / TYPES OF OBSERV
          S7    S8                                          # / TYPES OF OBSERV
    30.0000                                                 INTERVAL
    15                                                      LEAP SECONDS
Forced Modulo Decimation to 30 seconds                      COMMENT
 SNR is mapped to RINEX snr flag value [0-9]                COMMENT
  L1 & L2: min(max(int(snr_dBHz/6), 0), 9)                  COMMENT
teqc edited: Beidou # 1 - 37 excluded                       COMMENT
  2009    10     1     0     0    0.0000000     GPS         TIME OF FIRST OBS
                                                            END OF HEADER
 09 10  1  0  0  0.0000000  0  8G23G12G30G02G31G13G04G20
 -32832183.76248 -25545861.13345
                  21865288.7114                                   21865283.2774
                                                                        48.7504
        34.7504
 -33257422.20747 -25878923.98845
                  23616915.5634                                   23616912.3284
                                                                        46.2504
        31.0004
 -25088294.03547 -19513022.40245
                  22682469.0474                                   22682467.1644
                                                                        45.0004
        30.2504
 -35069678.54748 -27314665.20746
                  21118832.7504                                   21118828.1334
                                                                        51.7504
        41.2504
 -18831094.27747 -14642132.36744
                  23785227.2974                                   23785223.8364
                                                                        43.0004
        27.5004
 -19182997.26648 -14935308.83245
                  22351072.7814                                   22351069.9264
                                                                        48.0004
        31.7504
 -46791139.86748 -36418024.01647
                  20656444.8054                                   20656442.3754
                                                                        53.0004
        42.0004
 -43255179.15647 -33666817.00043
                  24021959.5784                                   24021955.8164
                                                                        44.0004
        20.2504
 09 10  1  0  0 30.0000000  0  8G23G12G30G02G31G13G04G20
 -32916196.30148 -25611325.36745
                  21849301.5474                                   21849296.3404
                                                                        48.0004
        34.7504
 -33263875.12147 -25883952.14845
                  23615686.7034                                   23615684.6764
                                                                        46.5004
        31.2504
 -25142526.82047 -19555281.73445
                  22672148.7194                                   22672146.8634
                                                                        45.0004
        30.7504
 -35212449.84448 -27425915.54346
                  21091664.5474                                   21091659.5824
                                                                        50.5004
        41.0004
 -18889760.76246 -14687846.55544
                  23774063.4384                                   23774060.1334
                                                                        40.7504
        28.5004
 -19348789.43748 -15064497.50445
                  22319523.5084                                   22319520.4774
                                                                        48.0004
        31.2504
 -46852026.28148 -36465467.93446
                  20644858.2734                                   20644855.9264
                                                                        51.5004
        41.7504
 -43231656.71147 -33648487.64543
                  24026435.9144                                   24026432.1334
                                                                        42.5004
        19.7504
 09 10  1  0  1  0.0000000  0  8G23G12G30G02G31G13G04G20
 -32999567.93748 -25676290.21145
                  21833436.7274                                   21833431.0204
                                                                        49.5004
        35.0004
 -33269914.77747 -25888658.40245
                  23614537.8674                                   23614535.4184
                                                                        46.7504
        31.5004
 -25196106.78547 -19597032.40245
                  22661952.5394                                   22661950.9414
                                                                        46.0004
        31.5004
 -35354751.31248 -27536799.80146
                  21064585.3284                                   21064580.5744
                                                                        51.0004
        41.5004
 -18947843.33646 -14733105.64544
                  23763010.4304                                   23763007.6954
                                                                        41.5004
        28.0004
 -19514096.20347 -15193307.96545
                  22288066.7814                                   22288063.3954
                                                                        47.7504
        32.5004
 -46912355.17248 -36512477.39847
                  20633377.9144                                   20633375.6764
                                                                        52.7504
        42.0004
 -43207946.32846 -33630011.93043
                  24030947.0234                                   24030943.7934
                                                                        40.2504
        20.7504
 09 10  1  0  1 30.0000000  0  8G23G12G30G02G31G13G04G20
 -33082302.04348 -25740758.25445
                  21817692.8054                                   21817687.2544
                                                                        49.5004
        35.0004
 -33275545.36347 -25893045.78545
                  23613466.3444                                   23613463.4614
                                                                        46.5004
        31.5004
 -25249037.16047 -19638276.84045
                  22651880.2664                                   22651878.2344
                                                                        45.5004
        30.0004
 -35496583.52048 -27647318.39146
                  21037595.4774                                   21037590.4804
                                                                        52.0004
        41.2504
 -19005346.58647 -14777913.41044
                  23752067.9924                                   23752064.4104
                                                                        42.0004
        28.2504
 -19678917.41448 -15321740.05945
                  22256702.5474                                   22256699.2704
                                                                        48.5004
        32.7504
 -46972130.23048 -36559055.36347
                  20622003.3134                                   20622001.0704
                                                                        52.5004
        42.0004
 -43184053.46146 -33611394.23443
                  24035493.6414                                   24035491.3594
                                                                        37.5004
        19.0004
 09 10  1  0  2  0.0000000  0  8G23G12G30G02G31G13G04G20
 -33164396.04748 -25804727.60245
                  21802070.5784                                   21802065.1414
                                                                        50.5004
        34.7504
 -33280767.79347 -25897115.17245
                  23612472.8524                                   23612470.0784
                                                                        46.5004
        31.5004
 -25301316.98447 -19679014.33245
                  22641931.9384                                   22641930.0474
                                                                        46.0004
        31.0004
 -35637941.99648 -27757467.88346
                  21010695.8054                                   21010690.9774
                                                                        52.2504
        41.2504
 -19062268.92246 -14822268.44944
                  23741236.3754                                   23741232.2464
                                                                        40.7504
        27.7504
 -19843247.79348 -15449789.67645
                  22225431.5784                                   22225428.0474
                                                                        49.0004
        31.5004
 -47031349.32848 -36605200.16047
                  20610734.3984                                   20610731.5784
                                                                        51.7504
        42.0004
 -43159977.82446 -33592634.11343
                  24040075.1804                                   24040072.3284
                                                                        39.5004
        20.7504
 09 10  1  0  2 30.0000000  0  8G23G12G30G02G31G13G04G20
 -33245851.58648 -25868199.42645
                  21786570.5234                                   21786564.9534
                                                                        50.5004
        35.2504
 -33285587.13347 -25900870.52045
                  23611555.6804                                   23611552.4414
                                                                        46.5004
        31.2504
 -25352950.16447 -19719247.92644
                  22632105.8754                                   22632104.8554
                                                                        45.2504
        29.0004
 -35778827.34048 -27867248.66446
                  20983886.3444                                   20983881.1484
                                                                        52.7504
        41.7504
 -19118613.14546 -14866173.01244
                  23730513.7894                                   23730510.6294
                                                                        40.7504
        27.0004
 -20007086.91848 -15577456.49245
                  22194253.7114                                   22194250.4654
                                                                        48.7504
        31.5004
 -47090015.02048 -36650913.55947
                  20599570.7664                                   20599568.0944
                                                                        51.7504
        42.7504
 -43135722.84046 -33573734.09843
                  24044690.5704                                   24044688.1024
                                                                        40.7504
        22.0004
 09 10  1  0  3  0.0000000  0  8G23G12G30G02G31G13G04G20
 -33326665.64148 -25931171.42245
                  21771191.7584                                   21771186.1024
                                                                        49.5004
        34.5004
 -33290001.57047 -25904310.31645
                  23610715.6334                                   23610712.5044
                                                                        46.0004
        31.0004
 -25403933.80147 -19758975.40244
                  22622404.8674                                   22622402.8554
                                                                        45.5004
        29.2504
 -35919233.96548 -27976656.39846
                  20957167.8984                                   20957162.9574
                                                                        52.2504
        41.7504
 -19174376.26647 -14909624.71144
                  23719902.7194                                   23719899.0274
                                                                        44.0004
        27.2504
 -20170429.02348 -15704736.11745
                  22163170.7584                                   22163167.2344
                                                                        49.2504
        32.0004
 -47148124.61748 -36696193.64547
                  20588512.5474                                   20588510.0594
                                                                        52.5004
        42.0004
 -43111287.80946 -33554693.77043
                  24049341.2424                                   24049337.8594
                                                                        40.5004
        21.5004
 09 10  1  0  3 30.0000000  0  8G23G12G30G02G31G13G04G20
 -33406839.69948 -25993644.72745
                  21755935.1174                                   21755929.1524
                                                                        50.0004
        34.2504
 -33294016.61747 -25907438.96145
                  23609951.5394                                   23609948.3794
                                                                        46.0004
        31.2504
 -25454272.23447 -19798200.13744
                  22612824.8204                                   22612823.3594
                                                                        45.5004
        29.5004
 -36059162.37948 -28085691.52047
                  20930540.3054                                   20930535.6884
                                                                        52.0004
        42.0004
 -19229562.11347 -14952626.59844
                  23709401.0314                                   23709397.7074
                                                                        43.5004
        26.5004
 -20333272.00848 -15831626.72345
                  22132183.0394                                   22132179.5124
                                                                        48.5004
        32.5004
 -47205680.88748 -36741042.59846
                  20577559.9384                                   20577557.3794
                                                                        51.7504
        41.0004
 -43086676.59846 -33535516.20743
                  24054024.7734                                   24054020.4414
                                                                        41.5004
        22.5004
 09 10  1  0  4  0.0000000  0  8G23G12G30G02G31G13G04G20
 -33486374.34048 -26055619.79745
                  21740799.9304                                   21740794.5944
                                                                        50.5004
        34.2504
 -33297633.34847 -25910257.24645
                  23609263.4844                                   23609260.4844
                                                                        46.0004
        31.7504
 -25503965.50047 -19836922.16045
                  22603368.8054                                   22603367.3204
                                                                        45.2504
        30.2504
 -36198609.89548 -28194351.88747
                  20904004.3594                                   20903999.5234
                                                                        53.0004
        42.0004
 -19284171.03947 -14995178.98044
                  23699009.6804                                   23699005.4844
                                                                        42.0004
        26.7504
 -20495613.99648 -15958126.95745
                  22101290.0164                                   22101287.0164
                                                                        49.5004
        32.5004
 -47262684.42248 -36785460.88346
                  20566712.5394                                   20566710.1334
                                                                        52.5004
        41.5004
 -43061891.07846 -33516202.75443
                  24058740.8984                                   24058737.8134
                                                                        40.0004
        19.5004
 09 10  1  0  4 30.0000000  0  8G23G12G30G02G31G13G04G20
 -33565268.50448 -26117095.80545
                  21725787.1094                                   21725781.4964
                                                                        50.5004
        35.0004
 -33300854.25447 -25912767.07845
                  23608650.7274                                   23608647.7114
                                                                        45.7504
        31.2504
 -25553014.81647 -19875142.41445
                  22594035.3204                                   22594033.2384
                                                                        46.5004
        30.0004
 -36337574.30948 -28302635.77047
                  20877560.2814                                   20877555.9494
                                                                        52.5004
        42.2504
 -19338203.85547 -15037282.59444
                  23688727.5474                                   23688723.8914
                                                                        44.0004
        26.5004
 -20657451.11348 -16084233.67645
                  22070493.5864                                   22070490.3914
                                                                        49.0004
        32.7504
 -47319135.00048 -36829448.31247
                  20555970.3594                                   20555967.9414
                                                                        52.5004
        42.0004
 -43036933.08246 -33496754.98842
                  24063489.5164                                   24063486.7304
                                                                        38.2504
        17.2504
 09 10  1  0  5  0.0000000  0  8G23G12G30G02G31G13G04G20
 -33643521.00848 -26178071.81645
                  21710896.3364                                   21710890.7664
                                                                        50.0004
        34.7504
 -33303680.94147 -25914969.73045
                  23608112.1254                                   23608109.8134
                                                                        46.0004
        31.5004
 -25601420.33247 -19912860.98845
                  22584823.9304                                   22584821.9024
                                                                        46.5004
        30.7504
 -36476052.71948 -28410540.97346
                  20851208.6174                                   20851203.6254
                                                                        52.5004
        41.7504
 -19391659.80547 -15078936.63744
                  23678555.1094                                   23678551.3874
                                                                        44.5004
        28.0004
 -20818779.33648 -16209943.93045
                  22039793.7344                                   22039790.6684
                                                                        48.5004
        32.7504
 -47375031.99648 -36873004.35547
                  20545333.5634                                   20545330.7624
                                                                        53.0004
        42.2504
 -43011802.88346 -33477173.02743
                  24068272.0864                                   24068269.4304
                                                                        38.7504
        19.0004
 09 10  1  0  5 30.0000000  0  8G23G12G30G02G31G13G04G20
 -33721140.16448 -26238554.35245
                  21696126.0474                                   21696120.4694
                                                                        49.5004
        34.5004
 -33306123.54347 -25916873.09845
                  23607647.6804                                   23607644.4654
                                                                        46.2504
        31.0004
 -25649191.09447 -19950084.96545
                  22575733.8834                                   22575731.8484
                                                                        46.5004
        30.0004
 -36614051.18048 -28518072.21547
                  20824948.4924                                   20824943.3834
                                                                        52.2504
        42.0004
 -19444547.72347 -15120148.06644
                  23668491.1334                                   23668486.9454
                                                                        45.2504
        27.7504
 -20979604.44148 -16335262.22345
                  22009189.4064                                   22009186.6484
                                                                        48.7504
        32.2504
 -47430384.33648 -36916136.05146
                  20534800.1094                                   20534796.9804
                                                                        53.0004
        41.5004
 -42986510.78146 -33457464.94543
                  24073084.9304                                   24073082.2344
                                                                        39.2504
        19.7504
 09 10  1  0  6  0.0000000  0  8G23G12G30G02G31G13G04G20
 -33798121.24648 -26298539.66045
                  21681477.0944                                   21681471.7894
                                                                        50.2504
        35.5004
 -33308180.43047 -25918475.89545
                  23607256.7734                                   23607253.4774
                                                                        46.5004
        31.0004
 -25696324.27047 -19986812.10245
                  22566764.3364                                   22566762.2464
                                                                        46.0004
        30.2504
 -36751563.35948 -28625224.53146
                  20798780.4694                                   20798775.5044
                                                                        52.5004
        41.7504
 -19496864.23047 -15160914.18744
                  23658535.9694                                   23658531.3484
                                                                        45.2504
        28.0004
 -21139918.32048 -16460182.13345
                  21978683.1254                                   21978680.2814
                                                                        48.7504
        32.5004
 -47485187.57048 -36958839.85246
                  20524371.5634                                   20524368.8594
                                                                        53.0004
        41.5004
 -42961053.57846 -33437628.18043
                  24077929.4774                                   24077926.3714
                                                                        39.5004
        21.0004
 09 10  1  0  6 30.0000000  0  8G23G12G30G02G31G13G04G20
 -33874465.16448 -26358028.47745
                  21666949.5084                                   21666943.9694
                                                                        49.5004
        34.5004
 -33309854.32447 -25919780.22745
                  23606938.3284                                   23606935.3164
                                                                        46.2504
        30.5004
 -25742821.46947 -20023043.61744
                  22557916.4144                                   22557914.6024
                                                                        45.2504
        29.5004
 -36888587.43448 -28731996.54346
                  20772705.9304                                   20772700.8054
                                                                        52.5004
        41.7504
 -19548610.72347 -15201236.10244
                  23648688.0554                                   23648684.5984
                                                                        45.0004
        28.2504
 -21299719.28148 -16584702.33245
                  21948274.0704                                   21948270.4414
                                                                        48.7504
        33.0004
 -47539443.35548 -37001117.03946
                  20514046.7664                                   20514044.2154
                                                                        52.5004
        41.7504
 -42935434.72346 -33417665.44143
                  24082804.3284                                   24082801.9884
                                                                        40.5004
        21.7504
 09 10  1  0  7  0.0000000  0  8G23G12G30G02G31G13G04G20
 -32374749.93448 -25189419.23445
                  21952336.0164                                   21952330.1174
                                                                        48.7504
        34.7504
 -31735728.08247 -24693188.34045
                  23906483.9924                                   23906481.2074
                                                                        46.0004
        30.7504
 -24213263.40647 -18831180.18745
                  22848982.1564                                   22848979.1054
                                                                        47.0004
        30.7504
 -35449698.33248 -27610784.23446
                  21046517.1644                                   21046512.1954
                                                                        52.0004
        41.7504
 -18024367.21147 -14013513.80144
                  23938742.4224                                   23938738.6844
                                                                        44.5004
        29.2504
 -19883579.67648 -15481216.91845
                  22217756.1644                                   22217753.1844
                                                                        48.7504
        33.2504
 -46017730.95748 -35815367.12546
                  20803619.0474                                   20803616.6294
                                                                        52.5004
        41.5004
 -41334237.48846 -32169979.30143
                  24387502.7424                                   24387500.0434
                                                                        40.0004
        23.5004
 09 10  1  0  7 30.0000000  0  8G23G12G30G02G31G13G04G20
 -32449818.64548 -25247914.40645
                  21938050.5474                                   21938044.9924
                                                                        49.2504
        34.2504
 -31736642.79747 -24693901.09045
                  23906310.2114                                   23906307.1374
                                                                        45.2504
        30.0004
 -24258492.75847 -18866423.89545
                  22840375.2894                                   22840372.2544
                                                                        46.2504
        30.2504
 -35585740.92648 -27716791.40646
                  21020629.2584                                   21020624.3984
                                                                        51.2504
        41.5004
 -18074976.10246 -14052949.25044
                  23929111.7114                                   23929108.0744
                                                                        41.5004
        28.0004
 -20042345.46548 -15604930.55145
                  22187544.2114                                   22187541.1054
                                                                        49.0004
        33.0004
 -46070892.80548 -35856791.91846
                  20793502.6334                                   20793499.8524
                                                                        51.5004
        41.5004
 -41308299.45746 -32149767.93743
                  24392438.5234                                   24392435.3914
                                                                        40.5004
        21.2504
 09 10  1  0  8  0.0000000  0  8G23G12G30G02G31G13G04G20
 -32524250.91848 -25305913.58645
                  21923886.4534                                   21923881.4884
                                                                        48.5004
        34.5004
 -31737183.74247 -24694322.58244
                  23906206.8754                                   23906203.9184
                                                                        45.7504
        29.2504
 -24303092.32847 -18901176.75845
                  22831887.8524                                   22831885.6294
                                                                        47.0004
        30.7504
 -35721291.55548 -27822415.21947
                  20994834.8914                                   20994829.7274
                                                                        52.2504
        42.0004
 -18125019.43046 -14091943.93044
                  23919588.8134                                   23919585.3484
                                                                        41.0004
        27.5004
 -20200590.58648 -15728238.49645
                  22157431.6644                                   22157428.1564
                                                                        49.2504
        32.7504
 -46123510.02748 -35897792.35546
                  20783490.1724                                   20783487.5554
                                                                        52.0004
        41.7504
 -41282205.83246 -32129435.19543
                  24397403.2814                                   24397400.8484
                                                                        38.7504
        18.5004
 09 10  1  0  8 30.0000000  0  8G23G12G30G02G31G13G04G20
 -32598052.76648 -25363421.70345
                  21909842.7814                                   21909837.4924
                                                                        49.7504
        34.5004
 -31737356.84847 -24694457.52045
                  23906173.8524                                   23906171.2114
                                                                        44.2504
        31.5004
 -24347066.78147 -18935442.60945
                  22823519.4304                                   22823517.7424
                                                                        46.7504
        31.0004
 -35856352.06248 -27927657.19146
                  20969133.5864                                   20969128.4454
                                                                        52.2504
        41.7504
 -18174502.13347 -14130501.73044
                  23910172.1094                                   23910168.7234
                                                                        44.2504
        27.0004
 -20358317.41448 -15851142.57445
                  22127416.8284                                   22127413.7624
                                                                        48.7504
        33.0004
 -46175587.84048 -35938372.48447
                  20773580.1254                                   20773577.4844
                                                                        53.0004
        42.0004
 -41255963.62946 -32108986.68842
                  24402397.1254                                   24402394.2814
                                                                        38.0004
        16.2504
 09 10  1  0  9  0.0000000  0  8G23G12G30G02G31G13G04G20
 -32671218.31248 -25420433.93745
                  21895919.9304                                   21895914.4924
                                                                        49.0004
        35.0004
 -31737159.88347 -24694304.05145
                  23906211.9614                                   23906209.0594
                                                                        45.2504
        30.7504
 -24390412.98847 -18969218.91445
                  22815271.1484                                   22815268.9184
                                                                        45.5004
        30.5004
 -35990915.94948 -28032512.25047
                  20943527.0784                                   20943522.4304
                                                                        52.2504
        42.0004
 -18223420.83246 -14168620.12144
                  23900863.2664                                   23900859.6604
                                                                        40.7504
        28.2504
 -20515517.77748 -15973636.44545
                  22097502.8594                                   22097499.3364
                                                                        48.5004
        33.5004
 -46227121.59048 -35978528.64546
                  20763773.3754                                   20763770.7624
                                                                        52.2504
        41.7504
 -41229569.39546 -32088419.71943
                  24407419.5944                                   24407416.9774
                                                                        38.5004
        18.5004
 09 10  1  0  9 30.0000000  0  7G23G12G30G02G31G13G04
 -32743748.35948 -25476950.73445
                  21882117.7034                                   21882112.4384
                                                                        49.0004
        34.5004
 -31736597.38347 -24693865.72745
                  23906319.1644                                   23906316.0314
                                                                        45.7504
        31.0004
 -24433133.86747 -19002507.85944
                  22807142.1024                                   22807139.1414
                                                                        46.5004
        29.7504
 -36124982.43448 -28136979.48847
                  20918015.0084                                   20918010.1134
                                                                        52.2504
        42.2504
 -18271777.71946 -14206300.85944
                  23891661.2424                                   23891657.8634
                                                                        40.0004
        26.2504
 -20672189.88348 -16095718.59845
                  22067689.0554                                   22067686.0204
                                                                        48.2504
        34.0004
 -46278113.58648 -36018262.68446
                  20754069.9694                                   20754067.6604
                                                                        51.2504
        41.7504
 09 10  1  0 10  0.0000000  0  7G23G12G30G02G31G13G04
 -32815646.80547 -25532975.54745
                  21868435.9774                                   21868430.3754
                                                                        47.5004
        34.0004
 -31735673.16447 -24693145.55145
                  23906495.0634                                   23906491.5434
                                                                        45.7504
        31.0004
 -24475232.56047 -19035312.00345
                  22799131.0314                                   22799128.4144
                                                                        44.2504
        30.7504
 -36258552.25448 -28241059.91446
                  20892597.4064                                   20892592.5704
                                                                        51.7504
        41.7504
 -18319575.87547 -14243546.16044
                  23882565.1414                                   23882562.2584
                                                                        44.0004
        27.2504
 -20828333.95348 -16217389.29745
                  22037975.4774                                   22037972.4964
                                                                        48.0004
        33.2504
 -46328566.64548 -36057576.75446
                  20744469.1564                                   20744466.5084
                                                                        52.5004
        41.5004
 09 10  1  0 10 30.0000000  0  7G23G12G30G02G31G13G04
 -32886908.60548 -25588504.31245
                  21854875.3914                                   21854870.0004
                                                                        48.7504
        34.7504
 -31734386.27047 -24692142.77745
                  23906739.3364                                   23906736.3714
                                                                        45.5004
        30.0004
 -24516707.35547 -19067629.95345
                  22791238.1024                                   22791235.6884
                                                                        45.0004
        30.2504
 -36391619.30148 -28344748.52747
                  20867275.5234                                   20867270.7584
                                                                        51.2504
        42.0004
 -18366812.36747 -14280353.78144
                  23873576.6884                                   23873573.1414
                                                                        42.7504
        26.2504
 -20983942.16848 -16338642.42645
                  22008364.5164                                   22008361.1174
                                                                        49.0004
        33.0004
 -46378476.97348 -36096467.84447
                  20734971.6954                                   20734968.9344
                                                                        53.0004
        42.0004
 09 10  1  0 11  0.0000000  0  7G23G12G30G02G31G13G04
 -32957530.62948 -25643534.45745
                  21841436.4304                                   21841430.9494
                                                                        49.5004
        34.0004
 -31732734.60547 -24690855.74644
                  23907053.9924                                   23907050.3634
                                                                        44.0004
        29.5004
 -24557555.55947 -19099459.66045
                  22783464.8674                                   22783462.5124
                                                                        44.7504
        31.0004
 -36524177.64848 -28448040.73847
                  20842050.5634                                   20842045.7234
                                                                        51.2504
        42.5004
 -18413484.47346 -14316721.56644
                  23864695.1094                                   23864691.8244
                                                                        39.5004
        26.2504
 -21139008.82048 -16459473.55145
                  21978856.4844                                   21978852.9064
                                                                        49.2504
        33.0004
 -46427842.04348 -36134934.17246
                  20725577.4614                                   20725574.9064
                                                                        51.2504
        41.2504
 09 10  1  0 11 30.0000000  0  7G23G12G30G02G31G13G04
 -33027514.23048 -25698067.02345
                  21828118.9144                                   21828114.0744
                                                                        48.7504
        34.7504
 -31730723.01247 -24689288.24644
                  23907436.8674                                   23907433.5314
                                                                        45.0004
        29.0004
 -24597780.38347 -19130803.64545
                  22775810.0084                                   22775808.3954
                                                                        45.0004
        30.0004
 -36656227.05948 -28550936.34847
                  20816922.2814                                   20816917.3594
                                                                        51.7504
        42.7504
 -18459594.85947 -14352651.75844
                  23855920.9384                                   23855917.0084
                                                                        43.5004
        27.5004
 -21293532.58648 -16579881.68745
                  21949451.7814                                   21949447.7664
                                                                        49.0004
        33.5004
 -46476663.66448 -36172977.01646
                  20716287.1564                                   20716284.8014
                                                                        53.2504
        41.2504
 09 10  1  0 12  0.0000000  0  7G23G12G30G02G31G13G04
 -33096866.67248 -25752107.87545
                  21814921.7734                                   21814916.4064
                                                                        48.5004
        34.5004
 -31728359.83647 -24687446.84044
                  23907885.9534                                   23907883.5354
                                                                        44.2504
        29.5004
 -24637389.10247 -19161667.53145
                  22768272.7584                                   22768270.9184
                                                                        43.7504
        30.5004
 -36787772.11748 -28653438.98447
                  20791890.3444                                   20791885.4734
                                                                        51.0004
        42.5004
 -18505150.81646 -14388149.94144
                  23847251.3984                                   23847248.4844
                                                                        39.5004
        27.2504
 -21447517.08248 -16699869.57845
                  21920149.0394                                   21920145.7034
                                                                        49.2504
        33.5004
 -46524948.96548 -36210601.89146
                  20707098.6954                                   20707096.1644
                                                                        52.5004
        41.5004
 09 10  1  0 12 30.0000000  0  7G23G12G30G02G31G13G04
 -33165589.51248 -25805658.15645
                  21801844.1334                                   21801838.8874
                                                                        48.7504
        34.5004
 -31725649.74247 -24685335.14845
                  23908401.6254                                   23908399.3794
                                                                        44.7504
        31.0004
 -24676385.83647 -19192054.54745
                  22760851.5084                                   22760850.0944
                                                                        44.7504
        30.0004
 -36918812.38348 -28755548.20347
                  20766953.9304                                   20766949.2774
                                                                        51.2504
        42.2504
 -18550155.41847 -14423218.52044
                  23838687.6024                                   23838684.3204
                                                                        43.0004
        26.0004
 -21600961.19148 -16819436.43745
                  21890949.3914                                   21890946.0554
                                                                        49.5004
        33.5004
 -46572700.53948 -36247810.96546
                  20698011.7814                                   20698009.5394
                                                                        53.2504
        41.7504
 09 10  1  0 13  0.0000000  0  8G29G23G12G30G02G31G13G04
   1326462.06657   1070689.04754
                  24345040.2194                                   24345037.5784
                                                                        42.0004
        27.0004
 -33233686.78148 -25858720.87545
                  21788885.6484                                   21788880.5784
                                                                        49.0004
        34.5004
 -31722599.13347 -24682958.10545
                  23908982.4384                                   23908980.1914
                                                                        44.5004
        30.5004
 -24714776.00447 -19221968.94144
                  22753546.1414                                   22753544.4454
                                                                        44.5004
        29.5004
 -37049350.51648 -28857266.29747
                  20742113.4304                                   20742108.5594
                                                                        51.5004
        42.5004
 -18594613.50447 -14457861.18444
                  23830227.3754                                   23830224.2934
                                                                        42.5004
        27.0004
 -21753865.79348 -16938582.88745
                  21861852.8204                                   21861849.4884
                                                                        49.0004
        34.0004
 -46619922.80548 -36284607.52047
                  20689026.0314                                   20689023.3554
                                                                        53.0004
        42.0004
 09 10  1  0 13 30.0000000  0  8G29G23G12G30G02G31G13G04
   1138968.58646    924590.19544
                  24309361.1484                                   24309359.6374
                                                                        41.7504
        27.0004
 -33301164.12147 -25911300.52745
                  21776045.1724                                   21776039.9574
                                                                        47.0004
        34.5004
 -31719214.64147 -24680320.82845
                  23909626.4064                                   23909623.8554
                                                                        45.2504
        30.5004
 -24752565.89147 -19251415.59845
                  22746355.2114                                   22746353.5084
                                                                        44.2504
        30.5004
 -37179388.94548 -28958594.95347
                  20717368.0474                                   20717363.2464
                                                                        51.0004
        42.5004
 -18638531.27347 -14492082.82844
                  23821870.1174                                   23821867.0634
                                                                        44.5004
        27.2504
 -21906233.27048 -17057310.74245
                  21832858.2584                                   21832854.8204
                                                                        49.2504
        33.7504
 -46666621.18748 -36320995.84846
                  20680139.5554                                   20680136.6844
                                                                        52.5004
        41.7504
 09 10  1  0 14  0.0000000  0  8G29G23G12G30G02G31G13G04
    951698.07046    778665.27744
                  24273724.7344                                   24273723.2154
                                                                        40.5004
        26.2504
 -33368025.84448 -25963400.50045
                  21763321.4064                                   21763315.9574
                                                                        49.0004
        35.0004
 -31715502.62147 -24677428.32845
                  23910333.2814                                   23910330.1764
                                                                        45.0004
        30.2504
 -24789760.12547 -19280398.05145
                  22739277.6884                                   22739275.0704
                                                                        45.5004
        30.5004
 -37308929.61748 -29059535.76647
                  20692717.4144                                   20692712.4804
                                                                        51.7504
        42.2504
 -18681913.71147 -14525887.29744
                  23813614.9454                                   23813611.6644
                                                                        43.7504
        27.2504
 -22058065.30148 -17175621.39845
                  21803965.4774                                   21803962.3554
                                                                        49.7504
        34.7504
 -46712800.58248 -36356979.76246
                  20671351.9774                                   20671349.1054
                                                                        53.0004
        41.2504
 09 10  1  0 14 30.0000000  0  8G29G23G12G30G02G31G13G04
    764654.23046    632917.00044
                  24238131.0944                                   24238129.6414
                                                                        39.0004
        26.2504
 -33434269.19148 -26015018.63345
                  21750715.8674                                   21750710.5434
                                                                        48.0004
        35.0004
 -31711463.93447 -24674281.22745
                  23911101.6954                                   23911098.5314
                                                                        46.0004
        30.2504
 -24826359.26647 -19308916.78944
                  22732312.8834                                   22732310.8134
                                                                        44.0004
        29.5004
 -37437968.77748 -29160085.77347
                  20668162.1174                                   20668157.0634
                                                                        50.7504
        42.2504
 -18724759.41847 -14559273.57444
                  23805461.8364                                   23805458.4264
                                                                        44.2504
        28.0004
 -22209356.05948 -17293510.30945
                  21775175.9924                                   21775172.9574
                                                                        48.5004
        34.0004
 -46758459.43748 -36392558.07846
                  20662663.0944                                   20662660.5904
                                                                        53.5004
        41.2504
 09 10  1  0 15  0.0000000  0  8G29G23G12G30G02G31G13G04
    577842.79346    487349.91444
                  24202581.4224                                   24202580.4064
                                                                        38.5004
        25.2504
 -33499892.89848 -26066153.90245
                  21738227.8204                                   21738222.4304
                                                                        49.0004
        34.0004
 -31707098.80147 -24670879.85244
                  23911931.8984                                   23911928.9454
                                                                        44.5004
        29.5004
 -24862362.20347 -19336970.97345
                  22725461.6094                                   22725459.2154
                                                                        44.5004
        30.2504
 -37566502.19948 -29260241.68047
                  20643702.9454                                   20643697.7584
                                                                        51.5004
        42.7504
 -18767067.73046 -14592241.09444
                  23797410.5634                                   23797407.6564
                                                                        41.5004
        28.7504
 -22360101.44948 -17410974.23045
                  21746489.7894                                   21746486.8714
                                                                        48.7504
        34.7504
 -46803596.13748 -36427729.55546
                  20654074.1724                                   20654071.2974
                                                                        52.0004
        41.7504
 09 10  1  0 15 30.0000000  0  8G29G23G12G30G02G31G13G04
    391270.28546    341968.96944
                  24167078.6414                                   24167075.8284
                                                                        40.2504
        25.5004
 -33564893.91848 -26116804.06245
                  21725858.5394                                   21725853.3484
                                                                        48.0004
        34.5004
 -31702405.67647 -24667222.85244
                  23912825.4144                                   23912821.9734
                                                                        44.5004
        26.7504
 -24897767.37547 -19364559.39545
                  22718724.0704                                   22718721.8594
                                                                        43.7504
        30.0004
 -37694524.26648 -29359999.12947
                  20619341.2424                                   20619335.9024
                                                                        51.0004
        43.0004
 -18808836.39147 -14624788.15244
                  23789462.3834                                   23789458.8874
                                                                        45.0004
        28.5004
 -22510295.05148 -17528008.15645
                  21717909.2114                                   21717905.7934
                                                                        49.5004
        33.2504
 -46848208.02748 -36462492.01246
                  20645584.6334                                   20645582.1604
                                                                        53.5004
        41.5004
 09 10  1  0 16  0.0000000  0  8G29G23G12G30G02G31G13G04
    204940.67247    196777.13344
                  24131621.1024                                   24131618.0044
                                                                        42.2504
        24.7504
 -33629271.14848 -26166968.07445
                  21713608.2274                                   21713602.5164
                                                                        48.5004
        35.2504
 -31697386.03947 -24663311.50444
                  23913779.9534                                   23913776.9844
                                                                        44.0004
        27.7504
 -24932574.55147 -19391681.82845
                  22712101.0394                                   22712098.5124
                                                                        44.7504
        30.0004
 -37822032.49648 -29459356.26247
                  20595077.0314                                   20595072.5434
                                                                        51.7504
        42.5004
 -18850065.13747 -14656914.46944
                  23781617.2034                                   23781613.3484
                                                                        43.7504
        28.2504
 -22659933.24248 -17644609.31645
                  21689433.4224                                   21689430.5594
                                                                        49.0004
        34.0004
 -46892294.57448 -36496845.10946
                  20637195.2814                                   20637192.3714
                                                                        53.0004
        41.7504
 09 10  1  0 16 30.0000000  0  8G29G23G12G30G02G31G13G04
   1594282.45747   1279381.12144
                  24396003.9924                                   24396001.1524
                                                                        42.0004
        25.7504
 -32117602.49248 -24989044.30945
                  22001268.7734                                   22001263.7034
                                                                        48.0004
        34.5004
 -30116623.06247 -23431548.14844
                  24214589.5004                                   24214586.6884
                                                                        43.7504
        29.0004
 -23391365.18747 -18190739.40645
                  23005383.2424                                   23005380.9844
                                                                        45.0004
        30.7504
 -36373600.73848 -28330708.15247
                  20870704.4694                                   20870699.3634
                                                                        51.2504
        42.2504
 -17315334.14546 -13461020.28944
                  24073667.0164                                   24073662.9774
                                                                        41.2504
        28.0004
 -21233587.59448 -16533171.09445
                  21960858.1254                                   21960855.0864
                                                                        49.0004
        34.2504
 -45360435.02748 -35303188.32046
                  20928698.3834                                   20928695.4844
                                                                        52.5004
        41.2504
 09 10  1  0 17  0.0000000  0  8G29G23G12G30G02G31G13G04
   1408448.08246   1134575.18844
                  24360640.4614                                   24360638.6454
                                                                        41.0004
        26.0004
 -32180732.23048 -25038236.22745
                  21989255.7194                                   21989250.5394
                                                                        48.5004
        34.5004
 -30110956.84447 -23427132.87945
                  24215668.3134                                   24215665.0434
                                                                        45.2504
        30.0004
 -23424981.39547 -18216933.81645
                  22998986.1954                                   22998983.0004
                                                                        45.5004
        30.0004
 -36500074.19948 -28429258.89547
