     2.11           OBSERVATION DATA    G (GPS)             RINEX VERSION / TYPE
teqc  2019Feb25                         20221121 12:27:57UTCPGM / RUN BY / DATE
OSX ker:10.11.6|Core i5|gcc 4.3 -m64|OSX ker:10.10+|=+      COMMENT
BIT 2 OF LLI FLAGS DATA COLLECTED UNDER A/S CONDITION       COMMENT
04712751                                                    MARKER NAME
2751                                                        MARKER NUMBER
-Unknown-           -Unknown-                               OBSERVER / AGENCY
0220400471          TRIMBLE R7          2.30                REC # / TYPE / VERS
-Unknown-           TRM39105.00     NONE                    ANT # / TYPE
  1449460.5488 -1709239.4905  5952442.6932                  APPROX POSITION XYZ
        0.0000        0.0000        0.0000                  ANTENNA: DELTA H/E/N
     1     1                                                WAVELENGTH FACT L1/2
    20    L1    L2    L5    L6    L7    L8    C1    P1    C2# / TYPES OF OBSERV
          P2    C5    C6    C7    C8    S1    S2    S5    S6# / TYPES OF OBSERV
          S7    S8                                          # / TYPES OF OBSERV
    30.0000                                                 INTERVAL
    15                                                      LEAP SECONDS
Forced Modulo Decimation to 30 seconds                      COMMENT
 SNR is mapped to RINEX snr flag value [0-9]                COMMENT
  L1 & L2: min(max(int(snr_dBHz/6), 0), 9)                  COMMENT
teqc edited: Beidou # 1 - 37 excluded                       COMMENT
  2009    10     2    23     9   30.0000000     GPS         TIME OF FIRST OBS
                                                            END OF HEADER
 09 10  2 23  9 30.0000000  0 10G02G04G12G13G17G20G23G30G31G32
   -328319.63358   -187694.27756
                  22180815.5004                                   22180810.8014
                                                                        50.7504
        37.0004
   -212335.64558   -120607.11756
                  20499719.5554                                   20499716.1994
                                                                        49.5004
        41.7504
   -108111.03157    -62413.43755
                  22527836.3284                                   22527833.2344
                                                                        46.0004
        35.7504
   -364195.94556   -184565.94153
                  23770891.5314                                   23770887.7114
                                                                        41.0004
        23.5004
     14019.97357      7152.98455
                  22960931.3594                                   22960928.1994
                                                                        47.7504
        34.5004
    -22302.65657    -13584.62155
                  22286196.6884                                   22286192.9104
                                                                        47.2504
        31.0004
   -260575.62157   -148527.57855
                  22126241.5944                                   22126235.4264
                                                                        46.5004
        34.5004
   -216757.31257   -124166.08654
                  22493848.9844                                   22493846.3634
                                                                        45.0004
        29.0004
   -209806.58656   -122033.84054
                  23616031.0704                                   23616027.5124
                                                                        41.5004
        28.0004
      8331.20756      2755.84453
                  24314322.7894                                   24314320.7624
                                                                        38.5004
        21.7504
 09 10  2 23 10  0.0000000  0 10G02G04G12G13G17G20G23G30G31G32
   -517490.40648   -335100.02046
                  22144817.5004                                   22144812.6804
                                                                        50.7504
        38.5004
   -334505.87148   -215804.68047
                  20476470.8674                                   20476468.1054
                                                                        49.2504
        42.0004
   -171178.07447   -111556.57446
                  22515835.2504                                   22515832.0864
                                                                        47.2504
        36.2504
   -573942.93746   -348005.16443
                  23730977.6954                                   23730974.0084
                                                                        39.7504
        22.5004
     20209.94947     11976.30945
                  22962109.1884                                   22962105.7234
                                                                        47.7504
        32.0004
    -36681.85247    -24789.12545
                  22283460.3444                                   22283456.2854
                                                                        47.2504
        30.5004
   -410171.85248   -265096.10945
                  22097774.2664                                   22097768.5864
                                                                        48.0004
        34.2504
   -341743.30147   -221557.77745
                  22470065.0864                                   22470062.7154
                                                                        43.0004
        30.0004
   -332758.74247   -217840.66044
                  23592634.3754                                   23592630.5704
                                                                        42.0004
        27.0004
     11228.35246      5013.31643
                  24314874.5084                                   24314872.3244
                                                                        39.5004
        21.5004
 09 10  2 23 10 30.0000000  0 10G02G04G12G13G17G20G23G30G31G32
   -706401.03548   -482303.05146
                  22108869.4224                                   22108864.5784
                                                                        51.2504
        38.5004
   -456160.42248   -310600.37146
                  20453320.9454                                   20453318.0234
                                                                        51.2504
        41.7504
   -233699.31647   -160274.39546
                  22503937.7344                                   22503934.6454
                                                                        47.7504
        36.0004
   -783501.47346   -511297.51243
                  23691099.5394                                   23691095.9304
                                                                        40.2504
        22.5004
     26622.24647     16972.87545
                  22963329.7504                                   22963326.3014
                                                                        47.7504
        34.0004
    -50718.52347    -35726.83645
                  22280789.4924                                   22280785.2304
                                                                        46.5004
        30.5004
   -559252.53147   -381262.85245
                  22069405.1884                                   22069398.9924
                                                                        46.2504
        33.7504
   -466106.09047   -318463.78544
                  22446399.8834                                   22446397.1374
                                                                        44.7504
        29.7504
   -455170.69547   -313226.57044
                  23569339.4774                                   23569336.7894
                                                                        43.0004
        28.5004
     14247.48846      7365.81343
                  24315449.7814                                   24315446.8674
                                                                        41.0004
        22.2504
 09 10  2 23 11  0.0000000  0 10G02G04G12G13G17G20G23G30G31G32
   -894869.75448   -629161.72746
                  22073004.5864                                   22073000.0704
                                                                        51.0004
        38.5004
   -577119.11748   -404853.87947
                  20430303.3204                                   20430300.4884
                                                                        50.7504
        42.0004
   -295496.77047   -208428.25845
                  22492178.2194                                   22492174.9884
                                                                        47.7504
        35.7504
   -992688.35246   -674300.23443
                  23651293.1954                                   23651289.4264
                                                                        40.5004
        22.5004
     33434.39847     22281.04345
                  22964625.5944                                   22964622.5984
                                                                        47.2504
        32.7504
    -64234.20347    -46258.34445
                  22278216.9454                                   22278213.3244
                                                                        46.2504
        30.0004
   -707635.97747   -496886.28145
                  22041168.6564                                   22041162.1524
                                                                        46.7504
        34.2504
   -589665.23047   -414743.57445
                  22422887.2424                                   22422884.1764
                                                                        45.2504
        30.0004
   -576861.66446   -408050.64544
                  23546182.5864                                   23546179.5664
                                                                        40.7504
        28.5004
     17566.77746      9952.23443
                  24316081.3594                                   24316078.4774
                                                                        40.7504
        22.5004
 09 10  2 23 11 30.0000000  0 10G02G04G12G13G17G20G23G30G31G32
    492617.11348    451996.92246
                  22337034.7344                                   22337029.7704
                                                                        51.2504
        37.7504
    878128.41048    729105.20346
                  20707227.4614                                   20707224.6724
                                                                        51.7504
        41.5004
   1218935.72748    971649.02046
                  22780365.1484                                   22780362.2384
                                                                        48.2504
        36.2504
    374011.71146    390660.93844
                  23911366.6724                                   23911364.4224
                                                                        40.0004
        25.0004
   1616149.25047   1255565.35245
                  23265806.7734                                   23265803.4224
                                                                        47.7504
        34.0004
   1498273.92647   1171280.62945
                  22575552.4454                                   22575548.4964
                                                                        47.2504
        30.5004
    720190.07847    615705.51245
                  22312874.9304                                   22312869.0634
                                                                        47.5004
        33.7504
    863089.28147    717272.90645
                  22699337.3284                                   22699334.4614
                                                                        46.0004
        30.0004
    877678.34847    725357.16844
                  23822972.7504                                   23822969.0004
                                                                        43.7504
        27.5004
   1596689.15646   1240437.21143
                  24616577.8754                                   24616575.4024
                                                                        41.2504
        20.7504
 09 10  2 23 12  0.0000000  0 10G02G04G12G13G17G20G23G30G31G32
    305259.53148    306004.05946
                  22301381.5004                                   22301376.6094
                                                                        51.0004
        37.2504
    758784.85248    636110.22346
                  20684517.4384                                   20684514.2194
                                                                        51.7504
        41.7504
   1158803.04347    924792.43446
                  22768922.2274                                   22768919.3054
                                                                        47.2504
        36.2504
    165797.82446    228416.41444
                  23871745.8134                                   23871742.2544
                                                                        41.0004
        24.7504
   1623974.80547   1261663.18845
                  23267295.7664                                   23267292.5434
                                                                        47.5004
        34.0004
   1486012.70747   1161726.51245
                  22573219.0784                                   22573214.9454
                                                                        46.5004
        30.5004
    573427.43847    501345.08645
                  22284946.7814                                   22284940.9064
                                                                        47.7504
        34.0004
    741361.16847    622419.78144
                  22676172.7894                                   22676170.5864
                                                                        46.5004
        29.5004
    757652.89147    631830.89144
                  23800132.4534                                   23800128.5004
                                                                        43.7504
        27.5004
   1600823.02346   1243658.38343
                  24617364.8914                                   24617362.1054
                                                                        40.2504
        20.0004
 09 10  2 23 12 30.0000000  0 10G02G04G12G13G17G20G23G30G31G32
    118508.47748    160483.83246
                  22265843.6564                                   22265838.2544
                                                                        51.2504
        38.0004
    640297.68848    543782.53946
                  20661970.0234                                   20661966.8164
                                                                        50.0004
        41.7504
   1099548.52047    878620.07046
                  22757646.5634                                   22757643.4304
                                                                        47.5004
        36.2504
    -41876.83646     66592.07444
                  23832226.0004                                   23832222.7114
                                                                        41.7504
        25.5004
   1632351.80547   1268190.73845
                  23268889.6804                                   23268886.1484
                                                                        47.0004
        33.0004
   1474423.35947   1152695.91445
                  22571013.3834                                   22571009.6914
                                                                        47.0004
        30.2504
    427526.21947    387655.99245
                  22257182.2034                                   22257176.7974
                                                                        46.0004
        33.7504
    620598.18447    528318.75045
                  22653192.4144                                   22653189.4654
                                                                        46.2504
        30.5004
    638509.16047    538991.60944
                  23777460.1334                                   23777456.0474
                                                                        43.2504
        27.7504
   1605409.09846   1247231.96543
                  24618237.6954                                   24618233.8444
                                                                        39.0004
        18.2504
 09 10  2 23 13  0.0000000  0 10G02G04G12G13G17G20G23G30G31G32
    -67624.10548     15445.46146
                  22230424.0394                                   22230418.9384
                                                                        50.5004
        38.2504
    522677.55548    452130.51646
                  20639587.7814                                   20639584.6174
                                                                        51.0004
        41.5004
   1041180.76647    833138.73045
                  22746539.4774                                   22746536.1024
                                                                        46.7504
        35.5004
   -248999.47347    -94802.13344
                  23792812.1024                                   23792808.4694
                                                                        42.5004
        26.5004
   1641287.91847   1275153.96945
                  23270589.8524                                   23270586.7424
                                                                        47.0004
        33.0004
   1463513.19147   1144194.53144
                  22568937.0234                                   22568933.4264
                                                                        46.5004
        29.5004
    282497.57447    274646.79345
                  22229584.6644                                   22229578.7814
                                                                        47.7504
        34.5004
    500811.32047    434978.34045
                  22630397.7034                                   22630395.5474
                                                                        45.0004
        30.0004
    520258.23847    446848.01244
                  23754957.9534                                   23754953.7504
                                                                        43.0004
        27.5004
   1610455.04746   1251163.85243
                  24619197.9774                                   24619194.2384
                                                                        38.5004
        18.5004
 09 10  2 23 13 30.0000000  0 10G02G04G12G13G17G20G23G30G31G32
   -253134.16448   -129107.75446
                  22195122.3524                                   22195117.1724
                                                                        50.7504
        37.5004
    405926.95348    361156.03146
                  20617370.4844                                   20617367.8794
                                                                        52.0004
        41.7504
    983700.36347    788348.80945
                  22735601.0554                                   22735597.9454
                                                                        47.2504
        35.7504
   -455564.94546   -255762.19144
                  23753503.8594                                   23753500.5704
                                                                        41.7504
        24.0004
   1650782.29347   1282552.18045
                  23272396.8204                                   23272393.5354
                                                                        46.5004
        31.7504
   1453281.94947   1136222.14145
                  22566990.8594                                   22566986.6254
                                                                        47.0004
        30.2504
    138345.16447    162320.29345
                  22202153.1484                                   22202147.0514
                                                                        47.7504
        34.7504
    382003.38347    342400.73045
                  22607789.3204                                   22607786.9844
                                                                        45.2504
        31.0004
    402903.07847    355402.42644
                  23732625.8364                                   23732622.2934
                                                                        42.5004
        27.5004
   1615961.08246   1255454.20743
                  24620245.0864                                   24620241.9024
                                                                        37.0004
        19.5004
 09 10  2 23 14  0.0000000  0 10G02G04G12G13G17G20G23G30G31G32
   -438021.30548   -273175.64546
                  22159939.4924                                   22159934.7664
                                                                        51.7504
        38.0004
    290044.69948    270858.13746
                  20595319.1024                                   20595316.3524
                                                                        52.0004
        41.5004
    927104.01647    744247.71945
                  22724831.1334                                   22724827.8834
                                                                        47.0004
        35.5004
   -661571.23847   -416286.53143
                  23714301.9534                                   23714298.5784
                                                                        42.0004
        22.7504
   1660831.30547   1290382.53545
                  23274308.8674                                   23274305.5274
                                                                        46.0004
        32.2504
   1443725.99647   1128775.92244
                  22565171.6724                                   22565167.8554
                                                                        46.7504
        29.7504
     -4930.13347     50677.24245
                  22174888.7584                                   22174883.0204
                                                                        46.7504
        34.2504
    264173.33647    250585.13745
                  22585366.9534                                   22585364.3984
                                                                        45.5004
        30.7504
    286443.51247    264654.69944
                  23710464.2664                                   23710460.7234
                                                                        44.5004
        27.7504
   1621923.72346   1260100.36743
                  24621380.1334                                   24621377.5004
                                                                        38.2504
        22.0004
 09 10  2 23 14 30.0000000  0 10G02G04G12G13G17G20G23G30G31G32
   -622290.60948   -416762.09846
                  22124874.4064                                   22124869.4144
                                                                        51.5004
        37.7504
    175024.01648    181231.63747
                  20573431.3834                                   20573428.5084
                                                                        51.0004
        42.5004
    871383.45748    700829.10245
                  22714228.0864                                   22714224.9264
                                                                        48.2504
        35.0004
   -867023.18046   -576378.90243
                  23675205.8054                                   23675202.2304
                                                                        41.7504
        22.0004
   1671425.12547   1298637.43045
                  23276325.1804                                   23276321.7624
                                                                        46.5004
        32.5004
   1434834.87147   1121847.77344
                  22563480.2504                                   22563475.9384
                                                                        46.5004
        29.0004
   -147334.71947    -60287.35545
                  22147789.9924                                   22147784.3364
                                                                        47.5004
        34.5004
    147314.80547    159526.50845
                  22563129.6414                                   22563126.8794
                                                                        43.5004
        30.5004
    170872.20347    174599.12944
                  23688472.0784                                   23688468.2034
                                                                        44.2504
        27.7504
   1628332.87546   1265094.37143
                  24622600.1724                                   24622597.4924
                                                                        39.7504
        23.5004
 09 10  2 23 15  0.0000000  0 10G02G04G12G13G17G20G23G30G31G32
   -805944.08248   -559868.68746
                  22089926.2344                                   22089921.2234
                                                                        50.7504
        38.2504
     60861.91448     92274.16046
                  20551706.8984                                   20551703.9574
                                                                        50.5004
        41.7504
    816532.46948    658088.02045
                  22703790.0554                                   22703787.0394
                                                                        48.0004
        35.0004
  -1071920.77347   -736039.32444
                  23636215.2034                                   23636211.4454
                                                                        43.0004
        24.7504
   1682558.15247   1307312.52345
                  23278444.1564                                   23278440.3634
                                                                        47.0004
        34.0004
   1426603.34447   1115433.53944
                  22561913.7034                                   22561909.7384
                                                                        46.2504
        28.7504
   -288870.00047   -170574.57045
                  22120856.8594                                   22120851.3204
                                                                        46.2504
        34.7504
     31424.78147     69222.57045
                  22541076.6484                                   22541073.8164
                                                                        45.5004
        30.0004
     56186.57047     85233.71944
                  23666648.0554                                   23666643.9144
                                                                        42.7504
        27.7504
   1635183.53946   1270432.48843
                  24623903.7584                                   24623901.3324
                                                                        39.5004
        22.2504
 09 10  2 23 15 30.0000000  0 10G02G04G12G13G17G20G23G30G31G32
   -988992.30148   -702503.66046
                  22055093.4844                                   22055088.4654
                                                                        50.7504
        38.0004
    -52454.31248      3975.81347
                  20530143.6644                                   20530140.7304
                                                                        51.0004
        42.0004
    762537.18848    616013.73845
                  22693515.7584                                   22693512.0704
                                                                        48.0004
        35.5004
  -1276274.67647   -895276.10244
                  23597328.0554                                   23597324.6024
                                                                        43.7504
        25.2504
   1694214.64547   1316395.48845
                  23280662.1414                                   23280658.8204
                                                                        47.0004
        33.5004
   1419015.39547   1109520.79344
                  22560470.1254                                   22560465.9414
                                                                        46.5004
        29.7504
   -429548.12547   -280193.92245
                  22094086.6174                                   22094081.2424
                                                                        47.5004
        35.0004
    -83508.57047    -20335.91045
                  22519205.4534                                   22519203.1454
                                                                        44.0004
        31.2504
    -57625.95747     -3451.35544
                  23644990.3984                                   23644986.3054
                                                                        44.0004
        26.7504
   1642460.09846   1276102.46943
                  24625288.3444                                   24625286.5904
                                                                        39.2504
        22.7504
 09 10  2 23 16  0.0000000  0 10G02G04G12G13G17G20G23G30G31G32
  -1171445.09048   -844674.66846
                  22020373.6724                                   22020368.8054
                                                                        50.5004
        38.5004
   -164935.75848    -83672.07047
                  20508739.2424                                   20508736.2194
                                                                        50.0004
        42.2504
    709384.30548    574595.92645
                  22683400.9224                                   22683397.3674
                                                                        48.0004
        35.5004
  -1480092.99247  -1054095.55144
                  23558542.1724                                   23558539.3284
                                                                        43.0004
        26.5004
   1706380.48847   1325875.35945
                  23282977.0234                                   23282973.5164
                                                                        46.2504
        32.7504
   1412057.54347   1104099.10944
                  22559145.9924                                   22559141.6564
                                                                        46.5004
        28.7504
   -569378.19148   -389152.41045
                  22067477.7034                                   22067472.1254
                                                                        48.0004
        35.5004
   -197496.51647   -109157.69545
                  22497514.2504                                   22497511.5704
                                                                        43.2504
        30.0004
   -170576.12547    -91464.47744
                  23623496.1884                                   23623492.4184
                                                                        43.7504
        26.5004
   1650149.37146   1282094.06343
                  24626751.2114                                   24626749.4574
                                                                        37.5004
        20.0004
 09 10  2 23 16 30.0000000  0 10G02G04G12G13G17G20G23G30G31G32
  -1353303.27748   -986382.34446
                  21985767.3284                                   21985762.2664
                                                                        51.0004
        38.5004
   -276584.86748   -170671.35247
                  20487492.9924                                   20487489.8954
                                                                        51.0004
        42.5004
    657068.96147    533830.63346
                  22673445.6334                                   22673442.2344
                                                                        47.2504
        36.0004
  -1683375.59846  -1212497.60244
                  23519859.0084                                   23519855.7934
                                                                        41.7504
        25.5004
   1719050.36347   1335747.93045
                  23285387.5004                                   23285384.6454
                                                                        43.7504
        31.0004
   1405724.25047   1099163.98045
                  22557940.6254                                   22557936.7814
                                                                        46.2504
        30.0004
   -708361.72348   -497451.25445
                  22041030.2424                                   22041024.3954
                                                                        48.2504
        34.5004
   -310541.34047   -197244.62544
                  22476002.7974                                   22476000.1454
                                                                        44.0004
        29.7504
   -282666.25847   -178807.46544
                  23602166.3914                                   23602162.6174
                                                                        42.5004
        27.0004
   1658246.13746   1288403.16043
                  24628291.5474                                   24628289.4844
                                                                        36.7504
        18.2504
 09 10  2 23 17  0.0000000  0 10G02G04G12G13G17G20G23G30G31G32
  -1534577.00448  -1127634.60246
                  21951271.9304                                   21951267.1684
                                                                        51.0004
        38.5004
   -387413.32448   -257031.16047
                  20466403.0784                                   20466400.2274
                                                                        52.0004
        42.0004
    605577.81347    493707.64145
                  22663646.9694                                   22663644.0164
                                                                        47.5004
        35.5004
  -1886132.00446  -1370489.82444
                  23481275.3134                                   23481272.9024
                                                                        41.0004
        24.0004
   1732210.00047   1346002.12145
                  23287892.0394                                   23287888.8634
                                                                        44.7504
        31.0004
   1400000.87947   1094704.10544
                  22556851.5234                                   22556847.8674
                                                                        46.5004
        29.0004
   -846509.14148   -605098.56645
                  22014741.7814                                   22014735.6414
                                                                        48.2504
        35.2504
   -422654.23047   -284605.30945
                  22454668.6094                                   22454665.1804
                                                                        46.5004
        30.0004
   -393907.49647   -265488.96144
                  23580998.0554                                   23580994.3204
                                                                        43.5004
        29.2504
   1666736.18046   1295018.75442
                  24629907.8914                                   24629905.5004
                                                                        39.5004
        17.7504
 09 10  2 23 17 30.0000000  0  9G02G04G12G13G17G20G23G30G31
  -1715273.34848  -1268436.93046
                  21916886.7194                                   21916882.0204
                                                                        51.2504
        39.0004
   -497430.09848   -342758.50847
                  20445467.5164                                   20445464.4884
                                                                        51.0004
        42.0004
    554899.87948    454218.32446
                  22654003.5234                                   22654000.3054
                                                                        48.0004
        36.5004
  -2088367.74246  -1528076.27744
                  23442791.7584                                   23442788.3794
                                                                        40.5004
        24.7504
   1745847.82847   1356628.95345
                  23290487.4454                                   23290483.9344
                                                                        45.7504
        31.5004
   1394875.70747   1090710.46944
                  22555876.2034                                   22555872.8284
                                                                        46.0004
        29.2504
   -983828.37148   -712100.57845
                  21988610.6334                                   21988604.5394
                                                                        48.2504
        35.0004
   -533843.93047   -371246.59045
                  22433509.3204                                   22433506.7934
                                                                        46.5004
        30.5004
   -504308.54747   -351515.75444
                  23559989.3524                                   23559985.9574
                                                                        43.5004
        28.2504
 09 10  2 23 18  0.0000000  0  9G02G04G12G13G17G20G23G30G31
  -1895397.39148  -1408793.30946
                  21882610.2584                                   21882605.4884
                                                                        51.0004
        38.7504
   -606641.35948   -427858.19547
                  20424685.2114                                   20424682.5824
                                                                        50.5004
        42.0004
    505026.62547    415355.98045
                  22644513.1804                                   22644509.7464
                                                                        46.7504
        35.5004
  -2290086.31647  -1685259.64144
                  23404406.1644                                   23404402.4884
                                                                        42.5004
        25.5004
   1759954.45347   1367621.05145
                  23293172.0314                                   23293168.5354
                                                                        44.2504
        32.2504
   1390339.89147   1087176.10544
                  22555013.1884                                   22555009.6764
                                                                        45.7504
        29.5004
  -1120324.56648   -818461.23045
                  21962636.3524                                   21962630.0004
                                                                        48.0004
        35.7504
   -644117.02747   -457173.79744
                  22412525.5164                                   22412522.6094
                                                                        43.7504
        29.7504
   -613875.76247   -436892.82044
                  23539139.2974                                   23539135.6024
                                                                        43.2504
        28.5004
 09 10  2 23 18 30.0000000  0  9G02G04G12G13G17G20G23G30G31
  -2074945.35248  -1548700.76646
                  21848443.2344                                   21848438.2934
                                                                        50.7504
        37.7504
   -715045.35248   -512328.84846
                  20404056.7424                                   20404053.9264
                                                                        50.7504
        41.5004
    455958.00048    377120.64846
                  22635175.5634                                   22635172.6724
                                                                        48.0004
        36.0004
  -2491283.08247  -1842036.32444
                  23366120.0784                                   23366115.9494
                                                                        43.5004
        26.2504
   1774529.35247   1378978.04745
                  23295945.7664                                   23295942.0474
                                                                        44.5004
        31.5004
   1386392.10247   1084099.87544
                  22554261.7894                                   22554257.7544
                                                                        46.0004
        29.2504
  -1255994.54348   -924178.12145
                  21936819.0944                                   21936813.1254
                                                                        48.2504
        34.0004
   -753470.68747   -542384.50044
                  22391715.7034                                   22391713.3984
                                                                        43.5004
        29.7504
   -722606.95747   -521618.45744
                  23518448.5164                                   23518444.8094
                                                                        43.5004
        28.2504
 09 10  2 23 19  0.0000000  0  9G02G04G12G13G17G20G23G30G31
  -2253916.19548  -1688158.50046
                  21814386.2974                                   21814381.1254
                                                                        51.5004
        38.2504
   -822643.02348   -596171.18747
                  20383581.3984                                   20383578.6094
                                                                        50.5004
        42.0004
    407691.16448    339510.10545
                  22625990.7584                                   22625987.3914
                                                                        48.5004
        35.0004
  -2691956.92647  -1998405.48844
                  23327932.9694                                   23327929.2274
                                                                        43.5004
        26.7504
   1789568.24247   1390696.44945
                  23298807.5864                                   23298803.7774
                                                                        43.2504
        30.5004
   1383028.77347   1081479.05544
                  22553622.0704                                   22553618.3324
                                                                        45.5004
        28.5004
  -1390838.46148  -1029251.30145
                  21911159.2814                                   21911153.4494
                                                                        48.0004
        35.0004
   -861905.77047   -626879.30544
                  22371081.2584                                   22371078.7034
                                                                        43.5004
        29.5004
   -830503.28547   -605693.48844
                  23497916.5554                                   23497912.3834
                                                                        43.0004
        27.2504
 09 10  2 23 19 30.0000000  0  9G02G04G12G13G17G20G23G30G31
   -856893.57448   -599569.35946
                  22080230.5944                                   22080225.7344
                                                                        51.2504
        38.7504
    645978.95748    548209.57447
                  20663050.8054                                   20663047.9964
                                                                        50.5004
        42.0004
   1935634.88747   1530115.62546
                  22916748.7194                                   22916745.5274
                                                                        47.0004
        36.0004
  -1316688.39147   -926767.60544
                  23589637.7974                                   23589634.3014
                                                                        42.5004
        27.0004
   3380478.41447   2630366.77345
                  23601547.5634                                   23601544.4574
                                                                        42.2504
        30.7504
   2955657.13347   2306903.67244
                  22852883.5004                                   22852879.6484
                                                                        44.7504
        28.7504
     50559.33247     93915.83245
                  22185447.9534                                   22185442.1564
                                                                        47.7504
        34.7504
    605990.72347    516936.13344
                  22650413.0234                                   22650409.8714
                                                                        44.2504
        29.2504
    637849.43047    538477.43044
                  23777334.8674                                   23777330.4964
                                                                        43.7504
        28.2504
 09 10  2 23 20  0.0000000  0  9G02G04G12G13G17G20G23G30G31
  -1034737.79748   -738149.23846
                  22046387.6954                                   22046382.7074
                                                                        50.7504
        39.2504
    539962.57848    465599.43046
                  20642876.6484                                   20642873.9414
                                                                        51.7504
        41.5004
   1888933.26647   1493724.77745
                  22907861.7814                                   22907858.8484
                                                                        47.5004
        35.5004
  -1516338.71547  -1082339.19944
                  23551644.3444                                   23551641.8364
                                                                        42.5004
        27.5004
   3396406.83247   2642778.41045
                  23604578.8594                                   23604575.3484
                                                                        43.2504
        31.0004
   2953423.28547   2305162.96944
                  22852458.3834                                   22852454.8054
                                                                        44.5004
        28.5004
    -82659.87548     -9891.36745
                  22160096.9384                                   22160091.1994
                                                                        48.2504
        35.0004
    499361.41447    433848.34045
                  22630121.9694                                   22630119.2934
                                                                        46.0004
        30.2504
    531593.33647    455680.43044
                  23757115.1414                                   23757110.7974
                                                                        43.2504
        27.7504
 09 10  2 23 20 30.0000000  0  9G02G04G12G13G17G20G23G30G31
  -1212027.98848   -876297.43046
                  22012650.4534                                   22012645.8834
                                                                        50.0004
        38.7504
    434724.69548    383595.89146
                  20622850.6024                                   20622847.7234
                                                                        50.5004
        41.7504
   1842999.31347   1457932.18045
                  22899120.3984                                   22899117.4614
                                                                        47.7504
        35.5004
  -1715486.02347  -1237518.84844
                  23513748.2894                                   23513745.7074
                                                                        43.0004
        27.0004
   3412763.42647   2655523.62545
                  23607691.5004                                   23607688.2194
                                                                        43.0004
        31.5004
   2951737.98447   2303849.74244
                  22852137.6174                                   22852134.1094
                                                                        44.5004
        28.5004
   -215077.26247   -113073.75845
                  22134898.7344                                   22134892.8714
                                                                        46.5004
        35.2504
    393623.00447    351454.77344
                  22610000.4844                                   22609997.7704
                                                                        45.5004
        29.0004
    426145.14147    373513.00444
                  23737049.1484                                   23737044.9844
                                                                        43.5004
        28.0004
 09 10  2 23 21  0.0000000  0  9G02G04G12G13G17G20G23G30G31
  -1388774.78948  -1014022.20746
                  21979016.9774                                   21979012.3014
                                                                        51.5004
        38.7504
    330253.00048    302189.36346
                  20602970.2344                                   20602967.3674
                                                                        52.5004
        41.5004
   1797818.61747   1422726.45345
                  22890522.8054                                   22890520.0204
                                                                        47.2504
        34.7504
  -1914139.03947  -1392313.37944
                  23475946.5864                                   23475943.3914
                                                                        44.2504
        26.5004
   3429533.60947   2668591.19145
                  23610882.8204                                   23610879.3674
                                                                        44.5004
        31.0004
   2950586.19547   2302952.20744
                  22851918.4224                                   22851914.5784
                                                                        45.7504
        28.7504
   -346703.69548   -215639.78945
                  22109850.9614                                   22109845.4304
                                                                        48.5004
        34.7504
    288763.91847    269746.37945
                  22590046.3054                                   22590043.9884
                                                                        45.7504
        30.0004
    321492.96947    291965.82844
                  23717134.2584                                   23717130.2624
                                                                        43.5004
        28.2504
 09 10  2 23 21 30.0000000  0  9G02G04G12G13G17G20G23G30G31
  -1564987.77348  -1151331.00846
                  21945484.8984                                   21945479.9104
                                                                        51.5004
        39.5004
    226536.27348    221371.14147
                  20583233.3754                                   20583230.3524
                                                                        52.0004
        42.2504
   1753377.05547   1388096.65645
                  22882065.7894                                   22882062.7424
                                                                        47.5004
        35.5004
  -2112306.66447  -1546729.70744
                  23438235.8054                                   23438232.8874
                                                                        44.5004
        28.2504
   3446702.99247   2681969.80144
                  23614149.0474                                   23614146.6024
                                                                        44.0004
        29.7504
   2949953.61747   2302459.24244
                  22851798.0234                                   22851793.7384
                                                                        45.2504
        29.5004
   -477549.61748   -317597.65245
                  22084951.9844                                   22084946.1604
                                                                        48.2504
        35.2504
    184772.09847    188713.73444
                  22570257.8284                                   22570255.3984
                                                                        46.0004
        29.5004
    217625.59847    211030.19144
                  23697368.6484                                   23697364.9384
                                                                        44.2504
        27.7504
 09 10  2 23 22  0.0000000  0  9G02G04G12G13G17G20G23G30G31
  -1740668.13748  -1288224.77346
                  21912053.9224                                   21912048.8914
                                                                        52.5004
        39.5004
    123571.86748    141139.14547
                  20563640.2114                                   20563637.4534
                                                                        52.2504
        42.0004
   1709670.25047   1354039.30545
                  22873748.6254                                   22873745.5704
                                                                        47.0004
        34.7504
  -2309988.22347  -1700767.21944
                  23400618.4844                                   23400614.6994
                                                                        45.5004
        28.2504
   3464266.69547   2695655.65245
                  23617491.9774                                   23617489.5164
                                                                        43.7504
        30.7504
   2949835.50847   2302367.22744
                  22851775.2424                                   22851771.4064
                                                                        45.0004
        28.5004
   -607616.35547   -418948.42245
                  22060201.2194                                   22060195.5274
                                                                        47.7504
        34.2504
     81645.23047    108355.12945
                  22550633.3364                                   22550630.4574
                                                                        46.2504
        30.5004
    114540.72347    130704.30944
                  23677752.5234                                   23677748.4144
                                                                        44.5004
        28.2504
 09 10  2 23 22 30.0000000  0  9G02G04G12G13G17G20G23G30G31
  -1915824.56248  -1424710.30146
                  21878723.0314                                   21878717.7584
                                                                        51.5004
        39.7504
     21348.93448     61484.90646
                  20544187.7424                                   20544184.7934
                                                                        52.2504
        41.5004
   1666685.92647   1320545.04345
                  22865568.8524                                   22865565.9694
                                                                        47.0004
        35.2504
  -2507192.25447  -1854432.69944
                  23363091.6414                                   23363088.0514
                                                                        45.5004
        26.5004
   3482211.30947   2709638.34845
                  23620907.1884                                   23620903.9774
                                                                        45.5004
        31.5004
   2950217.91047   2302665.14844
                  22851848.2344                                   22851844.2894
                                                                        44.7504
        27.7504
   -736914.01248   -519699.89845
                  22035596.3674                                   22035590.6804
                                                                        48.0004
        34.7504
    -20626.97347     28662.48044
                  22531171.5944                                   22531168.9574
                                                                        45.2504
        28.2504
     12227.18047     50979.46944
                  23658282.6564                                   23658279.3954
                                                                        44.0004
        27.5004
 09 10  2 23 23  0.0000000  0  9G02G04G12G13G17G20G23G30G31
  -2090457.45748  -1560787.86346
                  21845491.1094                                   21845486.4384
                                                                        52.0004
        39.0004
    -80134.58648    -17593.16047
                  20524875.8834                                   20524873.3054
                                                                        52.0004
        42.0004
   1624419.71147   1287610.33645
                  22857526.4304                                   22857523.3954
                                                                        47.0004
        35.2504
  -2703917.73047  -2007725.21144
                  23325656.2274                                   23325652.4804
                                                                        46.0004
        26.0004
   3500531.83647   2723913.91445
                  23624393.1724                                   23624390.6174
                                                                        45.0004
        31.7504
   2951096.21947   2303349.50444
                  22852015.4064                                   22852011.9844
                                                                        45.5004
        29.5004
   -865442.98047   -619852.30945
                  22011138.5704                                   22011132.5984
                                                                        47.2504
        35.5004
   -122046.68747    -50365.85545
                  22511872.0084                                   22511869.2854
                                                                        44.5004
        30.0004
    -89316.46147    -28145.42644
                  23638959.3984                                   23638955.9184
                                                                        44.5004
        27.2504
 09 10  2 23 23 30.0000000  0  9G02G04G12G13G17G20G23G30G31
  -2264573.18048  -1696462.43446
                  21812358.0634                                   21812353.1604
                                                                        51.7504
        38.7504
   -180886.66048    -96101.27346
                  20505703.5474                                   20505700.8134
                                                                        52.2504
        41.7504
   1582861.21948   1255227.15245
