     2.11           OBSERVATION DATA    G (GPS)             RINEX VERSION / TYPE
teqc  2019Feb25                         20221121 12:28:34UTCPGM / RUN BY / DATE
OSX ker:10.11.6|Core i5|gcc 4.3 -m64|OSX ker:10.10+|=+      COMMENT
BIT 2 OF LLI FLAGS DATA COLLECTED UNDER A/S CONDITION       COMMENT
04712940                                                    MARKER NAME
2940                                                        MARKER NUMBER
-Unknown-           -Unknown-                               OBSERVER / AGENCY
0220400471          TRIMBLE R7          2.30                REC # / TYPE / VERS
-Unknown-           TRM39105.00     NONE                    ANT # / TYPE
  1449459.8219 -1709242.4412  5952441.4900                  APPROX POSITION XYZ
        0.0000        0.0000        0.0000                  ANTENNA: DELTA H/E/N
     1     1                                                WAVELENGTH FACT L1/2
    20    L1    L2    L5    L6    L7    L8    C1    P1    C2# / TYPES OF OBSERV
          P2    C5    C6    C7    C8    S1    S2    S5    S6# / TYPES OF OBSERV
          S7    S8                                          # / TYPES OF OBSERV
    30.0000                                                 INTERVAL
    15                                                      LEAP SECONDS
Forced Modulo Decimation to 30 seconds                      COMMENT
 SNR is mapped to RINEX snr flag value [0-9]                COMMENT
  L1 & L2: min(max(int(snr_dBHz/6), 0), 9)                  COMMENT
teqc edited: Beidou # 1 - 37 excluded                       COMMENT
  2009    10    21     0     0    0.0000000     GPS         TIME OF FIRST OBS
                                                            END OF HEADER
 09 10 21  0  0  0.0000000  0  9G02G04G05G10G25G13G23G29G16
  -8282357.82048  -6425069.06647
                  20628232.9844                                   20628226.9614
                                                                        51.2504
        42.2504
   -496013.65647   -377734.11345
                  22700636.4534                                   22700632.7584
                                                                        47.0004
        33.5004
 -19026597.35948 -14761783.86346
                  22293145.7664                                   22293141.5634
                                                                        50.0004
        38.0004
 -18313062.52748 -14219472.61346
                  21506989.7344                                   21506985.7304
                                                                        49.2504
        38.5004
 -11694035.79747  -9070767.59844
                  23174870.3444                                   23174865.3164
                                                                        44.7504
        26.2504
  -9783600.52348  -7586728.11346
                  21297197.0864                                   21297192.6334
                                                                        50.5004
        36.7504
  -2046126.32847  -1579522.81244
                  23280427.7664                                   23280420.8674
                                                                        44.0004
        26.7504
 -15586154.91048 -12097911.31245
                  22328333.7504                                   22328329.8014
                                                                        48.5004
        35.2504
   -705618.21146   -514378.18043
                  24327514.1644                                   24327509.4694
                                                                        40.7504
        19.5004
 09 10 21  0  0 30.0000000  0  9G02G04G05G10G25G13G23G29G16
  -8331458.22748  -6463329.12947
                  20618889.7034                                   20618883.7974
                                                                        51.7504
        42.2504
   -478864.57447   -364371.19545
                  22703899.9534                                   22703896.1954
                                                                        47.2504
        33.0004
 -19199480.59448 -14896498.04746
                  22260247.0394                                   22260242.8094
                                                                        49.2504
        38.0004
 -18473379.61348 -14344395.00446
                  21476482.3054                                   21476478.3794
                                                                        49.2504
        38.5004
 -11837749.23047  -9182752.03944
                  23147522.1884                                   23147517.9494
                                                                        45.2504
        26.5004
  -9843490.90648  -7633395.91046
                  21285800.3284                                   21285795.8244
                                                                        51.0004
        36.5004
  -2039079.77747  -1574031.99244
                  23281768.2734                                   23281761.6724
                                                                        44.0004
        26.7504
 -15712958.39147 -12196719.25046
                  22304203.7344                                   22304199.8634
                                                                        47.7504
        36.0004
   -854787.93446   -630614.31643
                  24299128.0784                                   24299123.3134
                                                                        41.2504
        21.0004
 09 10 21  0  1  0.0000000  0  9G02G04G05G10G25G13G23G29G16
  -8379952.58248  -6501116.96547
                  20609661.5084                                   20609655.5704
                                                                        52.7504
        42.0004
   -461398.36747   -350761.14145
                  22707223.6954                                   22707220.1414
                                                                        47.7504
        34.0004
 -19372000.23048 -15030928.95346
                  22227417.7504                                   22227413.1334
                                                                        50.0004
        37.5004
 -18633226.77348 -14468951.19546
                  21446064.7274                                   21446061.1094
                                                                        50.0004
        38.7504
 -11980958.41847  -9294343.55944
                  23120270.2344                                   23120266.0204
                                                                        44.5004
        27.0004
  -9902693.67648  -7679527.92246
                  21274534.4304                                   21274529.8714
                                                                        51.0004
        36.5004
  -2031622.64147  -1568221.24644
                  23283187.6884                                   23283181.3444
                                                                        43.7504
        26.5004
 -15839171.80148 -12295067.39845
                  22280185.9454                                   22280182.4774
                                                                        48.7504
        35.5004
  -1003452.75047   -746457.05943
                  24270838.1804                                   24270833.4884
                                                                        42.2504
        22.0004
 09 10 21  0  1 30.0000000  0  9G02G04G05G10G25G13G23G29G16
  -8427840.84448  -6538432.47347
                  20600548.9304                                   20600542.8244
                                                                        52.2504
        42.7504
   -443616.78147   -336905.40645
                  22710607.7274                                   22710604.5554
                                                                        47.0004
        33.2504
 -19544153.75048 -15165074.55946
                  22194658.1024                                   22194653.6174
                                                                        50.0004
        38.0004
 -18792601.48048 -14593139.27046
                  21415736.7814                                   21415732.4884
                                                                        50.0004
        39.0004
 -12123660.64547  -9405540.10544
                  23093115.0314                                   23093110.8524
                                                                        44.0004
        25.7504
  -9961209.19148  -7725124.44546
                  21263399.2424                                   21263394.6214
                                                                        51.0004
        36.5004
  -2023756.78147  -1562092.02744
                  23284684.5164                                   23284677.9734
                                                                        44.5004
        27.5004
 -15964792.80948 -12392953.80546
                  22256281.1094                                   22256277.2194
                                                                        49.2504
        36.0004
  -1151609.98447   -861904.22743
                  24242644.6414                                   24242640.0784
                                                                        42.7504
        22.2504
 09 10 21  0  2  0.0000000  0  9G02G04G05G10G25G13G23G29G16
  -8475123.10248  -6575275.77347
                  20591550.9694                                   20591545.1024
                                                                        52.5004
        42.5004
   -425520.77347   -322804.68045
                  22714051.1414                                   22714047.9264
                                                                        46.7504
        33.0004
 -19715938.13348 -15298932.48846
                  22161968.2034                                   22161964.1174
                                                                        50.0004
        37.5004
 -18951500.83648 -14716956.93746
                  21385498.9304                                   21385495.2194
                                                                        50.0004
        38.7504
 -12265852.67247  -9516339.04744
                  23066056.8134                                   23066052.8914
                                                                        43.7504
        27.7504
 -10019037.53548  -7770185.51246
                  21252395.0944                                   21252390.4734
                                                                        51.2504
        36.5004
  -2015484.07847  -1555645.76244
                  23286258.6334                                   23286252.5234
                                                                        45.5004
        27.2504
 -16089819.10948 -12490377.02746
                  22232489.6564                                   22232485.8054
                                                                        48.7504
        36.2504
  -1299255.80947   -976952.91043
                  24214548.6954                                   24214544.1294
                                                                        42.2504
        22.0004
 09 10 21  0  2 30.0000000  0  9G02G04G05G10G25G13G23G29G16
  -8521800.21948  -6611647.54346
                  20582668.6334                                   20582662.5664
                                                                        52.7504
        41.5004
   -407112.87947   -308460.91045
                  22717553.6644                                   22717550.0784
                                                                        47.5004
        32.5004
 -19887351.95348 -15432501.67646
                  22129349.4304                                   22129345.3594
                                                                        49.2504
        37.7504
 -19109923.46948 -14840403.14546
                  21355351.8524                                   21355348.2934
                                                                        50.2504
        38.7504
 -12407532.80547  -9626739.10944
                  23039095.4144                                   23039091.9224
                                                                        44.2504
        27.7504
 -10076179.96948  -7814712.04345
                  21241521.1884                                   21241516.5124
                                                                        51.0004
        35.7504
  -2006807.35247  -1548884.66444
                  23287909.8524                                   23287903.2274
                                                                        45.0004
        27.0004
 -16214248.61748 -12587335.00846
                  22208811.0164                                   22208807.5744
                                                                        48.7504
        36.2504
  -1446388.47346  -1091601.70743
                  24186550.0554                                   24186545.9884
                                                                        41.5004
        22.7504
 09 10 21  0  3  0.0000000  0  9G02G04G05G10G25G13G23G29G16
  -8567874.16848  -6647549.35247
                  20573901.3364                                   20573895.1374
                                                                        52.7504
        42.7504
   -388396.03948   -293876.39145
                  22721115.8444                                   22721111.6454
                                                                        48.0004
        32.0004
 -20058394.33648 -15565781.42646
                  22096801.0164                                   22096796.6684
                                                                        50.2504
        38.5004
 -19267868.86348 -14963477.48846
                  21325296.2814                                   21325292.2704
                                                                        51.0004
        38.5004
 -12548700.10547  -9736739.62944
                  23012232.9384                                   23012228.6254
                                                                        45.7504
        29.0004
 -10132639.01648  -7858706.16445
                  21230777.3834                                   21230772.4884
                                                                        51.0004
        35.5004
  -1997730.24647  -1541811.59844
                  23289636.9064                                   23289630.6994
                                                                        45.0004
        26.0004
 -16338081.85548 -12683828.37146
                  22185246.5234                                   22185242.9614
                                                                        48.5004
        36.2504
  -1593006.83246  -1205849.73443
                  24158649.7194                                   24158645.4264
                                                                        40.2504
        20.0004
 09 10 21  0  3 30.0000000  0  9G02G04G05G10G25G13G23G29G16
  -8613345.94148  -6682981.86346
                  20565248.1094                                   20565242.1764
                                                                        52.7504
        41.7504
   -369373.06647   -279053.34445
                  22724735.5394                                   22724731.9064
                                                                        47.2504
        31.5004
 -20229063.73448 -15698770.51246
                  22064323.6564                                   22064319.3054
                                                                        50.0004
        38.0004
 -19425335.20748 -15086178.53946
                  21295331.2424                                   21295327.6994
                                                                        51.0004
        38.5004
 -12689352.57847  -9846338.94544
                  22985467.8674                                   22985463.7544
                                                                        46.2504
        29.7504
 -10188416.02748  -7902168.78945
                  21220163.3914                                   21220158.8324
                                                                        51.0004
        35.7504
  -1988256.00447  -1534429.07844
                  23291439.6334                                   23291433.1414
                                                                        45.0004
        26.0004
 -16461317.48848 -12779856.05546
                  22161795.5634                                   22161792.1094
                                                                        48.5004
        36.2504
  -1739108.87546  -1319695.43743
                  24130847.1484                                   24130842.6804
                                                                        40.5004
        20.0004
 09 10 21  0  4  0.0000000  0 10G02G04G05G10G25G13G23G29G16G07
  -8658218.17648  -6717947.21147
                  20556709.1094                                   20556703.5744
                                                                        53.0004
        42.2504
   -350047.16447   -263994.24645
                  22728413.3364                                   22728409.7344
                                                                        46.0004
        32.5004
 -20399359.72348 -15831468.62546
                  22031917.4454                                   22031913.1214
                                                                        50.2504
        38.2504
 -19582322.05548 -15208505.96146
                  21265457.3364                                   21265453.5434
                                                                        50.7504
        39.0004
 -12829489.65247  -9955536.63344
                  22958800.2344                                   22958796.4264
                                                                        46.5004
        29.2504
 -10243513.03548  -7945101.56246
                  21209678.6564                                   21209673.8984
                                                                        51.0004
        36.0004
  -1978388.45747  -1526740.09844
                  23293317.5164                                   23293310.6254
                                                                        43.7504
        24.7504
 -16583955.29747 -12875417.94946
                  22138458.2584                                   22138454.9574
                                                                        47.5004
        36.0004
  -1884693.55946  -1433138.05543
                  24103143.0394                                   24103138.9494
                                                                        40.0004
        20.0004
   -305841.62957   -220397.82454
                  24317705.1564                                   24317701.4264
                                                                        43.5004
        26.0004
 09 10 21  0  4 30.0000000  0 10G02G04G05G10G25G13G23G29G16G07
  -8702495.76248  -6752449.23847
                  20548283.6174                                   20548277.1174
                                                                        52.0004
        42.2504
   -330424.61747   -248703.96145
                  22732147.3834                                   22732143.7544
                                                                        46.5004
        32.5004
 -20569284.17648 -15963877.25446
                  21999581.7734                                   21999577.6954
                                                                        49.7504
        38.5004
 -19738831.44948 -15330461.32846
                  21235674.9384                                   21235671.0474
                                                                        50.5004
        39.2504
 -12969113.30947 -10064334.23844
                  22932230.8914                                   22932226.9964
                                                                        44.5004
        28.2504
 -10297935.48448  -7987508.66045
                  21199322.5234                                   21199317.8014
                                                                        50.2504
        35.5004
  -1968134.11747  -1518749.68044
                  23295268.7734                                   23295262.0594
                                                                        44.2504
        25.0004
 -16705997.60548 -12970515.82046
                  22115234.3984                                   22115230.9574
                                                                        48.0004
        36.2504
  -2029762.57846  -1546178.82043
                  24075538.2664                                   24075532.6524
                                                                        40.0004
        19.2504
   -486741.35547   -361358.59043
                  24283280.5944                                   24283277.1724
                                                                        42.5004
        22.5004
 09 10 21  0  5  0.0000000  0 10G02G04G05G10G25G13G23G29G16G07
  -8746181.16848  -6786489.85546
                  20539970.3984                                   20539964.4804
                                                                        52.5004
        41.5004
   -310509.28547   -233185.54745
                  22735937.2734                                   22735933.7424
                                                                        47.7504
        32.5004
 -20738837.30948 -16095996.53546
                  21967317.0864                                   21967312.8594
                                                                        50.2504
        38.5004
 -19894863.67648 -15452044.85546
                  21205982.8444                                   21205978.8834
                                                                        51.2504
        39.7504
 -13108223.49647 -10172731.76644
                  22905758.4384                                   22905754.7464
                                                                        46.0004
        27.7504
 -10351686.53148  -8029392.61345
                  21189094.0944                                   21189089.7194
                                                                        50.2504
        35.7504
  -1957497.66447  -1510461.54344
                  23297292.7974                                   23297286.3484
                                                                        44.5004
        25.5004
 -16827444.90248 -13065149.99246
                  22092124.0554                                   22092119.9734
                                                                        48.5004
        36.2504
  -2174316.15246  -1658817.99243
                  24048029.7584                                   24048025.1914
                                                                        41.2504
        18.5004
   -667360.11346   -502100.54743
                  24248910.0234                                   24248906.2274
                                                                        40.5004
        22.0004
 09 10 21  0  5 30.0000000  0 10G02G04G05G10G25G13G23G29G16G07
  -7213851.66448  -5592466.90247
                  20831562.9534                                   20831556.9804
                                                                        52.7504
        42.0004
   1285118.15247   1010160.47745
                  23039574.7814                                   23039571.4884
                                                                        46.5004
        32.0004
 -19332589.50048 -15000219.01646
                  22234916.9064                                   22234912.6804
                                                                        49.7504
        38.5004
 -18474989.62948 -14345649.52346
                  21476176.0554                                   21476172.3484
                                                                        51.2504
        39.0004
 -11671391.16847  -9053122.19144
                  23179179.2584                                   23179174.5824
                                                                        44.7504
        27.2504
  -8829343.19548  -6843151.03145
                  21478786.2504                                   21478782.0474
                                                                        49.7504
        35.7504
   -371059.64847   -274276.07444
                  23599182.2114                                   23599175.7344
                                                                        44.2504
        25.5004
 -15372869.72748 -11931714.79346
                  22368920.0004                                   22368916.4534
                                                                        49.0004
        36.0004
   -742924.59846   -543448.00443
                  24320414.3984                                   24320410.1024
                                                                        41.2504
        20.0004
    727733.72346    584985.51643
                  24514387.7894                                   24514384.3674
                                                                        41.7504
        22.0004
 09 10 21  0  6  0.0000000  0 10G02G04G05G10G25G13G23G29G16G07
  -7256349.28548  -5625581.90646
                  20823476.2114                                   20823470.2464
                                                                        52.5004
        41.5004
   1305618.46547   1026134.66845
                  23043476.4384                                   23043473.0594
                                                                        47.0004
        32.7504
 -19501388.31648 -15131750.54346
                  22202795.5704                                   22202791.1914
                                                                        49.7504
        38.5004
 -18630056.33248 -14466480.71146
                  21446667.6954                                   21446663.8634
                                                                        50.7504
        39.2504
 -11809461.80947  -9160709.66044
                  23152904.8204                                   23152900.6564
                                                                        44.5004
        27.5004
  -8881748.64548  -6883986.44946
                  21468814.0084                                   21468809.4844
                                                                        49.5004
        36.0004
   -359660.30947   -265393.47344
                  23601351.4304                                   23601345.0084
                                                                        43.7504
        26.2504
 -15493116.69948 -12025413.65246
                  22346037.5784                                   22346034.1254
                                                                        49.5004
        37.2504
   -886433.24246   -655272.94143
                  24293106.0944                                   24293101.5124
                                                                        41.2504
        20.0004
    547692.18446    444693.35943
                  24480126.8594                                   24480123.0984
                                                                        41.5004
        23.7504
 09 10 21  0  6 30.0000000  0 10G02G04G05G10G25G13G23G29G16G07
  -7298250.18448  -5658231.93046
                  20815502.6094                                   20815496.4924
                                                                        52.0004
        41.5004
   1326412.38747   1042337.69545
                  23047432.5944                                   23047429.3954
                                                                        45.5004
        31.2504
 -19669802.79748 -15262982.60246
                  22170747.7424                                   22170743.2274
                                                                        50.0004
        38.7504
 -18784633.11748 -14586930.15246
                  21417252.7034                                   21417248.7504
                                                                        50.5004
        39.0004
 -11947005.52747  -9267886.55544
                  23126731.0234                                   23126726.6994
                                                                        45.0004
        27.0004
  -8933478.97348  -6924295.81245
                  21458970.0474                                   21458965.2384
                                                                        49.5004
        35.5004
   -347879.61347   -256213.70744
                  23603593.0944                                   23603586.9534
                                                                        43.7504
        26.5004
 -15612757.29348 -12118640.03546
                  22323271.1804                                   22323267.3484
                                                                        49.2504
        36.0004
  -1029412.27046   -766685.23043
                  24265898.0394                                   24265893.1334
                                                                        41.2504
        20.2504
    367947.97747    304633.01244
                  24445922.9144                                   24445919.5204
                                                                        44.2504
        25.7504
 09 10 21  0  7  0.0000000  0 10G02G04G05G10G25G13G23G29G16G07
  -7339555.26248  -5690417.68046
                  20807642.7664                                   20807636.3204
                                                                        51.2504
        41.7504
   1347497.93847   1058767.97345
                  23051445.5864                                   23051441.7464
                                                                        45.2504
        32.0004
 -19837830.68748 -15393913.41046
                  22138772.8284                                   22138768.2624
                                                                        49.2504
        38.7504
 -18938717.99648 -14706996.29746
                  21387931.7194                                   21387927.2584
                                                                        51.2504
        39.0004
 -12084020.32847  -9374651.29344
                  23100658.3524                                   23100654.0944
                                                                        43.2504
        27.0004
  -8984535.32048  -6964079.96946
                  21449253.8444                                   21449249.4884
                                                                        49.7504
        36.0004
   -335719.93447   -246738.62944
                  23605907.1254                                   23605901.2544
                                                                        43.5004
        26.0004
 -15731789.96548 -12211392.76646
                  22300619.9694                                   22300616.3014
                                                                        48.7504
        36.5004
  -1171859.16846   -877682.86743
                  24238791.5474                                   24238786.6334
                                                                        40.7504
        20.7504
    188504.23447    164806.87944
                  24411776.5394                                   24411772.5514
                                                                        43.5004
        26.2504
 09 10 21  0  7 30.0000000  0 10G02G04G05G10G25G13G23G29G16G07
  -7380265.98848  -5722140.32046
                  20799895.6414                                   20799889.4414
                                                                        52.7504
        41.7504
   1368872.70747   1075423.61745
                  23055513.0864                                   23055509.1644
                                                                        47.0004
        31.5004
 -20005471.03548 -15524542.26246
                  22106872.1724                                   22106868.0434
                                                                        49.2504
        39.0004
 -19092309.82448 -14826678.24646
                  21358704.0234                                   21358700.1604
                                                                        51.2504
        40.0004
 -12220504.49647  -9481002.61744
                  23074686.0704                                   23074681.5634
                                                                        45.0004
        27.7504
  -9034919.27348  -7003340.17646
                  21439666.6954                                   21439661.9654
                                                                        48.7504
        36.0004
   -323184.00047   -236970.35544
                  23608292.9454                                   23608286.2034
                                                                        44.0004
        25.0004
 -15850213.47348 -12303670.77746
                  22278084.3284                                   22278081.2664
                                                                        49.2504
        36.7504
  -1313771.91446   -988264.33243
                  24211786.7114                                   24211781.6134
                                                                        41.0004
        21.0004
      9363.41047     25216.64144
                  24377686.3984                                   24377683.1524
                                                                        43.0004
        27.5004
 09 10 21  0  8  0.0000000  0 10G02G04G05G10G25G13G23G29G16G07
  -7420378.71548  -5753396.99247
                  20792262.4224                                   20792256.3954
                                                                        52.0004
        42.0004
   1390538.95747   1092306.35545
                  23059636.0784                                   23059632.5514
                                                                        46.0004
        31.5004
 -20172717.11748 -15654863.87946
                  22075046.2034                                   22075042.2194
                                                                        48.7504
        38.2504
 -19245402.05148 -14945970.89146
                  21329571.5944                                   21329566.9734
                                                                        51.7504
        39.5004
 -12356451.58247  -9586935.39844
                  23048816.0474                                   23048811.8984
                                                                        44.0004
        28.2504
  -9084627.75048  -7042074.06246
                  21430207.1564                                   21430202.8164
                                                                        48.7504
        36.2504
   -310270.16047   -226907.60944
                  23610749.7114                                   23610743.3674
                                                                        42.7504
        25.5004
 -15968022.10248 -12395469.68446
                  22255666.4224                                   22255662.4454
                                                                        49.0004
        36.7504
  -1455143.78946  -1098424.24243
                  24184883.9614                                   24184879.4694
                                                                        40.5004
        21.5004
   -169466.84447   -114131.57444
                  24343656.3054                                   24343652.5704
                                                                        43.0004
        25.5004
 09 10 21  0  8 30.0000000  0 10G02G04G05G10G25G13G23G29G16G07
  -7459901.34048  -5784193.84846
                  20784741.3054                                   20784735.3594
                                                                        52.5004
        41.5004
   1412487.80147   1109409.28545
                  23063812.3834                                   23063809.3324
                                                                        46.2504
        31.2504
 -20339574.24648 -15784882.44546
                  22043294.1954                                   22043290.0204
                                                                        48.7504
        38.7504
 -19397999.94948 -15064878.34446
                  21300532.9614                                   21300528.8674
                                                                        51.2504
        39.2504
 -12491866.38747  -9692453.40644
                  23023047.1954                                   23023043.3054
                                                                        44.2504
        28.0004
  -9133668.97348  -7080288.00445
                  21420875.2034                                   21420870.7464
                                                                        49.7504
        35.5004
   -296987.88747   -216557.77343
                  23613277.5004                                   23613271.1724
                                                                        42.5004
        22.7504
 -16085221.45348 -12486793.87946
                  22233363.8914                                   22233360.3284
                                                                        48.7504
        36.7504
  -1595979.58246  -1208166.43743
                  24158083.3364                                   24158079.2974
                                                                        39.7504
        22.2504
   -347990.35546   -253240.83244
                  24309684.2584                                   24309680.5984
                                                                        41.0004
        24.5004
 09 10 21  0  9  0.0000000  0 10G02G04G05G10G25G13G23G29G16G07
  -7498834.53548  -5814531.41446
                  20777332.7504                                   20777326.7624
                                                                        52.0004
        41.7504
   1434717.21147   1126730.84445
                  23068043.2034                                   23068039.5554
                                                                        45.7504
        31.5004
 -20506040.12148 -15914596.13746
                  22011616.5944                                   22011612.3444
                                                                        48.2504
        38.2504
 -19550101.32848 -15183398.87546
                  21271589.2974                                   21271585.3954
                                                                        51.0004
        39.5004
 -12626746.98047  -9797555.12544
                  22997380.5864                                   22997376.2664
                                                                        43.2504
        29.5004
  -9182043.89548  -7117982.75445
                  21411669.8674                                   21411665.0164
                                                                        48.7504
        35.5004
   -283339.62146   -205922.78143
                  23615874.3984                                   23615867.7114
                                                                        41.7504
        22.0004
 -16201809.97748 -12577642.14146
                  22211177.8524                                   22211174.2734
                                                                        49.5004
        37.0004
  -1736277.13746  -1317489.23843
                  24131387.1024                                   24131381.7384
                                                                        39.2504
        22.0004
   -526204.15646   -392108.82443
                  24275771.0394                                   24275767.4774
                                                                        41.0004
        23.2504
 09 10 21  0  9 30.0000000  0 10G02G04G05G10G25G13G23G29G16G07
  -7537183.85948  -5844414.00846
                  20770035.0944                                   20770029.1294
                                                                        52.0004
        41.7504
   1457220.89147   1144266.11345
                  23072325.3524                                   23072322.1094
                                                                        47.0004
        32.0004
 -20672116.99248 -16044006.73046
                  21980013.8204                                   21980009.1254
                                                                        50.2504
        39.0004
 -19701709.18048 -15301534.85946
                  21242738.8284                                   21242734.8954
                                                                        51.0004
        39.7504
 -12761095.72347  -9902242.41844
                  22971814.3204                                   22971810.3834
                                                                        43.7504
        29.0004
  -9229758.23848  -7155162.75045
                  21402590.0704                                   21402585.2774
                                                                        48.5004
        35.5004
   -269332.16447   -195007.82443
                  23618539.8754                                   23618533.0354
                                                                        43.2504
        22.2504
 -16317790.54348 -12668016.66446
                  22189107.7894                                   22189104.1094
                                                                        49.0004
        36.2504
  -1876038.55146  -1426394.31243
                  24104790.8284                                   24104786.3874
                                                                        40.0004
        22.7504
   -704109.52346   -530736.33643
                  24241915.8674                                   24241912.6454
                                                                        41.0004
        23.5004
 09 10 21  0 10  0.0000000  0 10G02G04G05G10G25G13G23G29G16G07
  -7574945.09448  -5873838.34446
                  20762849.1564                                   20762843.0084
                                                                        52.5004
        41.7504
   1480001.94947   1162017.50045
                  23076660.6254                                   23076657.2894
                                                                        47.5004
        31.5004
 -20837798.15648 -16173108.95346
                  21948485.3984                                   21948480.8834
                                                                        49.5004
        39.0004
 -19852816.43448 -15419280.76646
                  21213984.2814                                   21213980.2774
                                                                        50.7504
        39.7504
 -12894905.42647 -10006509.67245
                  22946351.7424                                   22946347.7154
                                                                        44.0004
        30.2504
  -9276808.46148  -7191825.25845
                  21393636.4304                                   21393631.7584
                                                                        48.7504
        35.5004
   -254963.14547   -183811.16044
                  23621274.5164                                   23621267.7114
                                                                        43.0004
        25.5004
 -16433156.71548 -12757912.38746
                  22167153.8524                                   22167150.4774
                                                                        48.5004
        36.5004
  -2015256.40246  -1534875.84443
                  24078298.8284                                   24078294.2034
                                                                        39.7504
        23.2504
   -881697.96146   -669116.81244
                  24208123.0164                                   24208119.2734
                                                                        41.0004
        25.2504
 09 10 21  0 10 30.0000000  0 10G02G04G05G10G25G13G23G29G16G07
  -7612121.70748  -5902807.14546
                  20755774.7114                                   20755768.7894
                                                                        52.5004
        41.5004
   1503055.85247   1179981.51645
                  23081047.8134                                   23081044.9414
                                                                        47.5004
        31.0004
 -21003083.92248 -16301903.06246
                  21917032.7274                                   21917028.2114
                                                                        49.5004
        39.2504
 -20003423.65648 -15536637.03146
                  21185324.9304                                   21185320.6524
                                                                        51.2504
        40.0004
 -13028176.71547 -10110357.37944
                  22920990.7274                                   22920986.9534
                                                                        43.2504
        29.5004
  -9323198.21948  -7227973.10245
                  21384808.9144                                   21384804.2304
                                                                        49.7504
        35.5004
   -240237.57047   -172336.66444
                  23624077.2504                                   23624070.1094
                                                                        43.7504
        26.7504
 -16547909.48048 -12847330.11746
                  22145317.2734                                   22145313.6094
                                                                        49.2504
        36.7504
  -2153931.07046  -1642934.14543
                  24051909.6484                                   24051905.2854
                                                                        39.0004
        22.2504
  -1058969.36747   -807250.33644
                  24174389.8524                                   24174385.1844
                                                                        42.0004
        25.5004
 09 10 21  0 11  0.0000000  0 10G02G04G05G10G25G13G23G29G16G07
  -7648718.35548  -5931324.01247
                  20748810.5164                                   20748804.5474
                                                                        52.7504
        42.0004
   1526376.77747   1198153.64545
                  23085485.7734                                   23085482.1214
                                                                        47.7504
        31.5004
 -21167976.47748 -16430390.80946
                  21885654.5784                                   21885650.3674
                                                                        50.2504
        39.0004
 -20153533.10248 -15653605.43746
                  21156759.7894                                   21156755.8914
                                                                        50.7504
        39.5004
 -13160911.51247 -10213787.08244
                  22895732.5084                                   22895728.6954
                                                                        44.5004
        29.2504
  -9368932.38748  -7263610.08645
                  21376105.8204                                   21376101.1484
                                                                        50.0004
        35.2504
   -225161.81647   -160589.33644
                  23626945.7734                                   23626938.9304
                                                                        43.0004
        26.0004
 -16662051.56648 -12936272.00846
                  22123597.0004                                   22123593.3244
                                                                        48.5004
        36.7504
  -2292064.05146  -1750570.31243
                  24025624.1884                                   24025619.5864
                                                                        39.0004
        22.0004
  -1235924.45747   -945137.38344
                  24140716.1254                                   24140712.2154
                                                                        42.2504
        26.5004
 09 10 21  0 11 30.0000000  0 10G02G04G05G10G25G13G23G29G16G07
  -7684735.96548  -5959389.69146
                  20741956.7664                                   20741950.9654
                                                                        52.0004
        41.5004
   1549962.93047   1216532.46945
                  23089973.6644                                   23089970.6334
                                                                        47.0004
        31.7504
 -21332473.43048 -16558570.25846
                  21854352.1024                                   21854347.1804
                                                                        49.5004
        39.0004
 -20303142.52348 -15770184.19146
                  21128290.0084                                   21128286.0474
                                                                        51.2504
        39.7504
 -13293107.54347 -10316796.93044
                  22870576.4924                                   22870572.5234
                                                                        44.2504
        29.7504
  -9414012.28148  -7298737.23445
                  21367527.5554                                   21367522.8954
                                                                        49.7504
        35.7504
   -209738.34446   -148571.05944
                  23629879.9694                                   23629874.2974
                                                                        41.7504
        26.0004
 -16775581.56248 -13024736.96146
                  22101992.7974                                   22101989.2734
                                                                        48.2504
        36.0004
  -2429653.09446  -1857782.54343
                  23999441.8594                                   23999437.2854
                                                                        39.2504
        22.0004
  -1412559.89546  -1082775.38344
                  24107103.2194                                   24107099.5554
                                                                        41.5004
        26.7504
 09 10 21  0 12  0.0000000  0 10G02G04G05G10G25G13G23G29G16G07
  -7720175.69948  -5987005.08246
                  20735212.9304                                   20735206.6454
                                                                        52.5004
        41.5004
   1573812.14547   1235116.27745
                  23094511.7424                                   23094508.6914
                                                                        45.7504
        30.5004
 -21496573.19148 -16686440.24246
                  21823124.7584                                   21823120.5434
                                                                        50.2504
        39.2504
 -20452250.74248 -15886372.40246
                  21099915.6564                                   21099911.8594
                                                                        51.0004
        40.0004
 -13424763.08647 -10419385.60544
                  22845523.0944                                   22845518.7074
                                                                        43.5004
        29.2504
  -9458439.50848  -7333355.84445
                  21359073.1254                                   21359068.6914
                                                                        50.0004
        35.5004
   -193969.54747   -136283.71543
                  23632880.7504                                   23632874.6094
                                                                        42.5004
        22.5004
 -16888497.87548 -13112723.71946
                  22080505.6884                                   22080501.9384
                                                                        50.0004
        36.7504
  -2566696.02746  -1964569.25443
                  23973363.1174                                   23973358.9384
                                                                        39.7504
        21.5004
  -1588872.65647  -1220161.90644
                  24073552.3674                                   24073548.5664
                                                                        42.5004
        28.0004
 09 10 21  0 12 30.0000000  0 10G02G04G05G10G25G13G23G29G16G07
  -7755040.32448  -6014172.32446
                  20728578.4144                                   20728572.0904
                                                                        52.5004
        41.5004
   1597920.73847   1253902.15645
                  23099099.8284                                   23099096.4614
                                                                        46.0004
        31.0004
 -21660275.09048 -16814000.16446
                  21791973.4454                                   21791969.3134
                                                                        50.7504
        39.5004
 -20600856.94148 -16002169.47746
                  21071636.9144                                   21071632.8834
                                                                        51.5004
        39.7504
 -13555877.93747 -10521553.06644
                  22820572.8134                                   22820568.4694
                                                                        43.7504
        28.5004
  -9502216.88748  -7367468.07845
                  21350742.4694                                   21350738.0864
                                                                        50.0004
        35.5004
   -177859.90647   -123730.75443
                  23635946.1334                                   23635940.3444
                                                                        43.0004
        23.2504
 -17000801.13348 -13200232.77046
                  22059134.8594                                   22059131.4844
                                                                        49.0004
        36.7504
  -2703192.46546  -2070930.16843
                  23947389.7194                                   23947384.1724
                                                                        39.7504
        22.0004
  -1764861.35247  -1357295.86344
                  24040062.7894                                   24040059.2194
                                                                        42.0004
        28.0004
 09 10 21  0 13  0.0000000  0 10G02G04G05G10G25G13G23G29G16G07
  -7789330.47748  -6040891.93446
                  20722053.1804                                   20722046.9264
                                                                        51.7504
        41.5004
   1622286.76647   1272888.64545
                  23103736.3674                                   23103733.2504
                                                                        45.2504
        30.2504
 -21823577.37148 -16941248.70346
                  21760897.9774                                   21760893.8054
                                                                        49.5004
        39.5004
 -20748959.57448 -16117574.16046
                  21043453.8054                                   21043450.1684
                                                                        50.2504
        39.7504
 -13686449.82447 -10623297.38744
                  22795725.8834                                   22795721.2704
                                                                        43.5004
        28.7504
  -9545346.26648  -7401075.45345
                  21342535.4304                                   21342530.9104
                                                                        49.5004
        35.2504
   -161411.60247   -110913.88343
                  23639076.5004                                   23639070.1374
                                                                        43.2504
        22.5004
 -17112489.59848 -13287262.74646
                  22037881.3594                                   22037877.8834
                                                                        48.7504
        37.0004
  -2839140.19546  -2176863.55543
                  23921519.0234                                   23921513.7854
                                                                        41.2504
        21.2504
  -1940522.81646  -1494174.82044
                  24006635.1954                                   24006631.6024
                                                                        38.7504
        26.5004
 09 10 21  0 13 30.0000000  0 10G02G04G05G10G25G13G23G29G16G07
  -7823047.77048  -6067165.16446
                  20715636.7274                                   20715631.0704
                                                                        51.7504
        41.5004
   1646908.02347   1292074.00445
                  23108422.0944                                   23108418.2544
                                                                        45.2504
        30.2504
 -21986478.32448 -17068184.51646
                  21729898.9774                                   21729894.8244
                                                                        49.7504
        39.0004
 -20896557.25048 -16232585.43446
                  21015367.0864                                   21015363.0944
                                                                        50.7504
        39.0004
 -13816477.43747 -10724617.58244
                  22770982.1724                                   22770977.7504
                                                                        43.5004
        28.5004
  -9587828.85548  -7434178.78545
                  21334451.2974                                   21334446.9964
                                                                        48.7504
        35.5004
   -144627.66447    -97835.44143
                  23642270.9614                                   23642263.6374
                                                                        44.0004
        23.7504
 -17223562.84448 -13373813.31246
                  22016744.8674                                   22016741.5164
                                                                        49.2504
        37.5004
  -2974537.46946  -2282367.98043
