     2.11           OBSERVATION DATA    G (GPS)             RINEX VERSION / TYPE
teqc  2019Feb25                         20221121 12:28:04UTCPGM / RUN BY / DATE
OSX ker:10.11.6|Core i5|gcc 4.3 -m64|OSX ker:10.10+|=+      COMMENT
BIT 2 OF LLI FLAGS DATA COLLECTED UNDER A/S CONDITION       COMMENT
04712790                                                    MARKER NAME
2790                                                        MARKER NUMBER
-Unknown-           -Unknown-                               OBSERVER / AGENCY
0220400471          TRIMBLE R7          2.30                REC # / TYPE / VERS
-Unknown-           TRM39105.00     NONE                    ANT # / TYPE
  1449460.6922 -1709240.2907  5952443.0252                  APPROX POSITION XYZ
        0.0000        0.0000        0.0000                  ANTENNA: DELTA H/E/N
     1     1                                                WAVELENGTH FACT L1/2
    20    L1    L2    L5    L6    L7    L8    C1    P1    C2# / TYPES OF OBSERV
          P2    C5    C6    C7    C8    S1    S2    S5    S6# / TYPES OF OBSERV
          S7    S8                                          # / TYPES OF OBSERV
    30.0000                                                 INTERVAL
    15                                                      LEAP SECONDS
Forced Modulo Decimation to 30 seconds                      COMMENT
 SNR is mapped to RINEX snr flag value [0-9]                COMMENT
  L1 & L2: min(max(int(snr_dBHz/6), 0), 9)                  COMMENT
teqc edited: Beidou # 1 - 37 excluded                       COMMENT
  2009    10     6     0     0    0.0000000     GPS         TIME OF FIRST OBS
                                                            END OF HEADER
 09 10  6  0  0  0.0000000  0  9G02G04G12G13G29G10G23G30G31
 -16076700.59048 -12470222.61347
                  20604894.1484                                   20604887.7464
                                                                        52.2504
        43.7504
  -7821840.56248  -6060327.93046
                  20796710.5084                                   20796706.7464
                                                                        53.5004
        41.5004
  -2218203.57847  -1716013.09444
                  24156479.7504                                   24156475.7154
                                                                        43.5004
        29.0004
 -18372147.58648 -14245518.05945
                  21658495.0554                                   21658490.5354
                                                                        48.7504
        34.5004
  -3373835.11347  -2581664.10944
                  24023225.9144                                   24023223.3594
                                                                        43.2504
        29.0004
  -1330338.56247  -1014401.65644
                  23950065.9924                                   23950062.6604
                                                                        42.5004
        27.2504
 -10363300.30148  -8030724.90245
                  21822392.7274                                   21822386.1524
                                                                        49.0004
        34.7504
  -7330569.94947  -5678316.75044
                  22877122.0784                                   22877118.2504
                                                                        45.5004
        29.0004
  -7755955.88347  -6010548.29744
                  23924040.2894                                   23924036.0394
                                                                        42.5004
        28.0004
 09 10  6  0  0 30.0000000  0  9G02G04G12G13G29G10G23G30G31
 -16208966.77348 -12573287.18447
                  20579724.9534                                   20579718.5554
                                                                        52.2504
        42.5004
  -7869835.14848  -6097726.34047
                  20787577.4534                                   20787573.8284
                                                                        52.5004
        42.0004
  -2219480.09047  -1717007.79744
                  24156237.1174                                   24156233.1174
                                                                        42.5004
        27.2504
 -18525759.02748 -14365215.24645
                  21629264.1094                                   21629259.0704
                                                                        49.5004
        35.7504
  -3567155.36747  -2732303.25844
                  23986439.0394                                   23986435.1954
                                                                        44.0004
        28.5004
  -1543208.62147  -1180274.37144
                  23909558.1254                                   23909554.6844
                                                                        43.7504
        28.0004
 -10431730.86348  -8084047.39845
                  21809371.0164                                   21809364.4184
                                                                        49.7504
        35.7504
  -7369153.60547  -5708381.96144
                  22869779.6484                                   22869776.1484
                                                                        45.2504
        29.0004
  -7802092.44546  -6046498.87944
                  23915261.0084                                   23915256.6764
                                                                        40.7504
        26.7504
 09 10  6  0  1  0.0000000  0  9G02G04G12G13G29G10G23G30G31
 -16340687.78148 -12675926.90647
                  20554658.8914                                   20554652.8404
                                                                        52.5004
        43.2504
  -7917302.25448  -6134713.68046
                  20778544.8364                                   20778540.8984
                                                                        53.5004
        41.7504
  -2220447.41847  -1717761.57044
                  24156053.2734                                   24156048.7624
                                                                        43.0004
        27.0004
 -18678774.53548 -14484448.09445
                  21600145.7114                                   21600141.5744
                                                                        49.0004
        35.0004
  -3760186.93747  -2882717.43044
                  23949705.9694                                   23949701.9344
                                                                        42.7504
        26.5004
  -1755910.30947  -1346015.94944
                  23869082.7274                                   23869078.9844
                                                                        44.0004
        27.0004
 -10499530.40648  -8136878.20745
                  21796468.9384                                   21796462.2504
                                                                        50.0004
        34.7504
  -7407146.92247  -5737987.17644
                  22862549.3444                                   22862546.4884
                                                                        45.5004
        28.5004
  -7847689.29347  -6082028.89144
                  23906584.1334                                   23906580.1454
                                                                        43.0004
        28.0004
 09 10  6  0  1 30.0000000  0  9G02G04G12G13G29G10G23G30G31
 -16471862.63348 -12778141.09447
                  20529697.1254                                   20529690.6724
                                                                        52.0004
        42.5004
  -7964243.85248  -6171291.54346
                  20769612.0634                                   20769608.4414
                                                                        52.2504
        41.2504
  -2221109.52347  -1718277.55144
                  24155926.6724                                   24155923.1804
                                                                        42.2504
        28.0004
 -18831192.32048 -14603215.20745
                  21571141.9844                                   21571137.1644
                                                                        49.0004
        35.2504
  -3952927.70346  -3032904.98444
                  23913028.0634                                   23913024.2154
                                                                        40.5004
        24.2504
  -1968441.41847  -1511624.45744
                  23828638.7344                                   23828635.6954
                                                                        42.2504
        25.5004
 -10566700.07848  -8189218.22345
                  21783687.1484                                   21783680.5354
                                                                        49.5004
        34.7504
  -7444552.84047  -5767134.58244
                  22855431.3524                                   22855427.4024
                                                                        44.2504
        28.5004
  -7892748.50846  -6117139.94944
                  23898009.5634                                   23898005.2934
                                                                        40.7504
        27.5004
 09 10  6  0  2  0.0000000  0  9G02G04G12G13G29G10G23G30G31
 -16602489.98048 -12879928.64147
                  20504839.6334                                   20504833.1174
                                                                        52.5004
        42.7504
  -8010661.36348  -6207461.05946
                  20760779.1414                                   20760775.3834
                                                                        53.0004
        41.5004
  -2221468.82447  -1718557.46544
                  24155858.3364                                   24155854.4654
                                                                        43.0004
        28.0004
 -18983010.30548 -14721514.91445
                  21542251.6024                                   21542247.0234
                                                                        49.2504
        35.5004
  -4145374.96146  -3182863.79344
                  23876405.7424                                   23876403.0664
                                                                        39.5004
        25.0004
  -2180800.40247  -1677098.91443
                  23788228.4144                                   23788224.8554
                                                                        42.2504
        22.7504
 -10633240.92648  -8241068.23045
                  21771024.3054                                   21771018.2114
                                                                        49.2504
        34.7504
  -7481373.59847  -5795826.05944
                  22848424.3364                                   22848421.1254
                                                                        44.5004
        28.5004
  -7937271.94147  -6151833.49244
                  23889537.4224                                   23889532.9384
                                                                        43.7504
        27.7504
 09 10  6  0  2 30.0000000  0  9G02G04G12G13G29G10G23G30G31
 -15157146.18748 -11753686.73447
                  20779879.4144                                   20779872.9844
                                                                        51.7504
        42.0004
  -6481135.93748  -5015623.03147
                  21051838.0234                                   21051834.1804
                                                                        52.5004
        42.0004
   -646110.34447   -491005.41444
                  24455639.1174                                   24455635.2424
                                                                        44.0004
        28.0004
 -17558803.32448 -13611743.24645
                  21813269.2814                                   21813264.4574
                                                                        50.0004
        35.7504
  -2762101.73046  -2104988.44144
                  24139634.3834                                   24139631.0634
                                                                        40.5004
        24.0004
   -817559.87547   -614833.59844
                  24047644.5314                                   24047640.6604
                                                                        42.0004
        25.7504
  -9123733.85248  -7064828.94945
                  22058274.1024                                   22058267.4384
                                                                        49.5004
        34.0004
  -5942192.05547  -4596463.84444
                  23141320.9064                                   23141317.9884
                                                                        43.7504
        28.5004
  -6405841.58646  -4958511.10544
                  24180958.3674                                   24180953.8524
                                                                        40.2504
        25.5004
 09 10  6  0  3  0.0000000  0  9G02G04G12G13G29G10G23G30G31
 -15286677.62548 -11854620.32847
                  20755230.3134                                   20755224.1884
                                                                        52.2504
        42.2504
  -6526511.48048  -5050980.61746
                  21043203.4064                                   21043199.6254
                                                                        53.0004
        41.5004
   -645875.65647   -490822.50044
                  24455684.0944                                   24455679.5124
                                                                        44.5004
        28.2504
 -17709418.62148 -13729105.80945
                  21784608.2114                                   21784603.4224
                                                                        49.5004
        35.5004
  -2953957.59446  -2254486.50044
                  24103125.5634                                   24103122.5634
                                                                        41.0004
        27.7504
  -1029570.04747   -780036.17244
                  24007300.6414                                   24007296.8674
                                                                        42.2504
        28.2504
  -9189023.17648  -7115703.73445
                  22045849.9304                                   22045843.6484
                                                                        49.2504
        34.5004
  -5977851.94547  -4624250.78544
                  23134535.4064                                   23134532.0664
                                                                        44.7504
        28.5004
  -6449301.55546  -4992376.00844
                  24172688.2194                                   24172684.0664
                                                                        41.5004
        26.0004
 09 10  6  0  3 30.0000000  0  9G02G04G12G13G29G10G23G30G31
 -15415659.84448 -11955125.96547
                  20730685.8984                                   20730679.9654
                                                                        52.0004
        42.5004
  -6571369.18748  -5085934.69946
                  21034667.3134                                   21034663.3364
                                                                        52.0004
        41.5004
   -645349.46947   -490412.55144
                  24455784.0634                                   24455780.1414
                                                                        43.5004
        26.7504
 -17859430.68448 -13845998.31645
                  21756062.0004                                   21756056.8554
                                                                        49.5004
        35.7504
  -3145514.80146  -2403751.80144
                  24066673.8444                                   24066670.1524
                                                                        41.2504
        29.5004
  -1241403.62947   -945101.26244
                  23966989.7194                                   23966986.5084
                                                                        42.2504
        29.0004
  -9253689.18748  -7166092.82445
                  22033544.5784                                   22033538.3484
                                                                        49.2504
        34.2504
  -6012936.18747  -4651589.16844
                  23127859.2894                                   23127855.8984
                                                                        44.2504
        28.5004
  -6492234.10546  -5025829.94944
                  24164518.1884                                   24164514.1334
                                                                        39.5004
        25.0004
 09 10  6  0  4  0.0000000  0  9G02G04G12G13G29G10G23G30G31
 -15544091.13748 -12055202.29347
                  20706246.4144                                   20706239.8794
                                                                        52.5004
        42.7504
  -6615709.42648  -5120485.52346
                  21026229.8594                                   21026225.6254
                                                                        53.7504
        41.5004
   -644533.69947   -489776.87944
                  24455939.6564                                   24455935.1604
                                                                        43.0004
        26.2504
 -18008836.70348 -13962418.56645
                  21727630.8134                                   21727626.3284
                                                                        49.5004
        35.2504
  -3336770.24246  -2552781.99244
                  24030278.4304                                   24030275.6134
                                                                        40.5004
        28.0004
  -1453057.52747  -1110026.30944
                  23926712.6414                                   23926709.5824
                                                                        42.0004
        27.7504
  -9317732.39148  -7215996.60545
                  22021357.3984                                   22021350.7974
                                                                        48.5004
        35.0004
  -6047446.15647  -4678480.07844
                  23121291.7734                                   23121288.6804
                                                                        45.0004
        29.2504
  -6534639.49246  -5058873.11344
                  24156448.9924                                   24156444.5044
                                                                        40.5004
        25.7504
 09 10  6  0  4 30.0000000  0  9G02G04G12G13G29G10G23G30G31
 -15671967.72748 -12154846.37947
                  20681912.3674                                   20681905.7424
                                                                        53.0004
        42.5004
  -6659531.19948  -5154632.35246
                  21017890.5314                                   21017886.4184
                                                                        53.2504
        41.0004
   -643428.84447   -488915.83644
                  24456149.2504                                   24456144.9494
                                                                        43.2504
        26.7504
 -18157632.19548 -14078363.09445
                  21699316.0634                                   21699310.9224
                                                                        49.5004
        35.5004
  -3527718.65646  -2701572.96544
                  23993942.5784                                   23993938.9414
                                                                        40.7504
        27.5004
  -1664527.08246  -1274807.70344
                  23886471.5084                                   23886467.5634
                                                                        41.5004
        25.5004
  -9381151.70748  -7265414.25445
                  22009289.1484                                   22009282.4964
                                                                        49.0004
        34.0004
  -6081381.98847  -4704923.66444
                  23114834.3594                                   23114830.9344
                                                                        45.2504
        29.7504
  -6576517.38746  -5091505.26643
                  24148479.9534                                   24148475.4614
                                                                        40.2504
        23.2504
 09 10  6  0  5  0.0000000  0  9G02G04G12G13G29G10G23G30G31
 -15799290.78948 -12254059.13747
                  20657683.3444                                   20657677.1644
                                                                        52.2504
        43.2504
  -6702838.58248  -5188378.37147
                  21009649.4304                                   21009645.5044
                                                                        51.7504
        42.0004
   -642040.64847   -487834.12944
                  24456413.5394                                   24456409.1844
                                                                        43.0004
        25.5004
 -18305817.80948 -14193832.42645
                  21671117.0704                                   21671112.7464
                                                                        49.7504
        35.7504
  -3718360.32846  -2850124.94144
                  23957664.5784                                   23957660.9734
                                                                        40.5004
        26.5004
  -1875812.39847  -1439445.57444
                  23846265.1024                                   23846261.7814
                                                                        42.2504
        25.7504
  -9443950.39148  -7314348.28545
                  21997338.9614                                   21997332.1644
                                                                        49.2504
        34.5004
  -6114748.68747  -4730923.71944
                  23108485.4774                                   23108481.5044
                                                                        45.7504
        29.5004
  -6617872.29346  -5123729.88743
                  24140610.0314                                   24140605.7074
                                                                        39.5004
        23.0004
 09 10  6  0  5 30.0000000  0  9G02G04G12G13G29G10G23G30G31
 -15926059.45348 -12352839.91047
                  20633560.2034                                   20633554.3204
                                                                        53.0004
        42.7504
  -6745632.90648  -5221724.60546
                  21001506.0004                                   21001502.2814
                                                                        52.0004
        41.0004
   -640371.64547   -486533.59844
                  24456731.1024                                   24456727.2624
                                                                        42.5004
        28.0004
 -18453391.81248 -14308825.14546
                  21643034.6804                                   21643030.6724
                                                                        49.2504
        36.0004
  -3908692.41446  -2998435.64844
                  23921445.5554                                   23921442.0274
                                                                        41.2504
        26.7504
  -2086911.60247  -1603938.33644
                  23806094.2194                                   23806090.6174
                                                                        42.5004
        26.2504
  -9506129.75448  -7362799.74245
                  21985506.5004                                   21985499.5084
                                                                        49.0004
        33.7504
  -6147548.73047  -4756482.20744
                  23102243.6484                                   23102239.9654
                                                                        45.5004
        29.7504
  -6658706.02347  -5155548.32844
                  24132839.7584                                   24132834.9884
                                                                        42.7504
        24.2504
 09 10  6  0  6  0.0000000  0  9G02G04G12G13G29G10G23G30G31
 -16052276.41848 -12451190.79747
                  20609541.5944                                   20609535.5514
                                                                        52.0004
        43.2504
  -6787919.56648  -5254675.26646
                  20993459.1884                                   20993455.3554
                                                                        53.2504
        41.2504
   -638429.02346   -485019.81244
                  24457100.9304                                   24457096.5234
                                                                        41.2504
        27.5004
 -18600356.37148 -14423342.97746
                  21615068.1884                                   21615063.7854
                                                                        49.5004
        36.0004
  -4098716.54746  -3146506.40244
                  23885284.9614                                   23885281.5704
                                                                        41.0004
        26.0004
  -2297826.41847  -1768287.50044
                  23765958.3674                                   23765955.1764
                                                                        43.5004
        29.0004
  -9567695.26648  -7410772.84045
                  21973790.7584                                   21973784.3794
                                                                        48.2504
        34.0004
  -6179788.48047  -4781604.12544
                  23096108.7194                                   23096105.0554
                                                                        45.5004
        29.7504
  -6699024.82447  -5186965.61744
                  24125168.0314                                   24125163.2194
                                                                        42.5004
        25.5004
 09 10  6  0  6 30.0000000  0  9G02G04G12G13G29G10G23G30G31
 -16177936.26248 -12549107.55147
                  20585629.6884                                   20585623.6294
                                                                        52.2504
        43.0004
  -6829695.75048  -5287228.14846
                  20985509.1724                                   20985505.6914
                                                                        52.2504
        40.7504
   -636211.47746   -483291.87544
                  24457522.6254                                   24457518.5984
                                                                        40.5004
        27.2504
 -18746705.40248 -14537381.17246
                  21587219.2194                                   21587214.8094
                                                                        50.0004
        36.0004
  -4288425.75047  -3294331.78944
                  23849185.2114                                   23849181.3484
                                                                        42.5004
        28.0004
  -2508550.21547  -1932487.84844
                  23725859.5634                                   23725855.9414
                                                                        43.5004
        28.0004
  -9628643.78548  -7458265.18045
                  21962192.6564                                   21962185.8284
                                                                        49.2504
        34.0004
  -6211465.94547  -4806287.90244
                  23090080.8284                                   23090077.2664
                                                                        46.5004
        28.7504
  -6738826.21547  -5217979.72344
                  24117594.4844                                   24117589.1054
                                                                        43.7504
        28.5004
 09 10  6  0  7  0.0000000  0  9G02G04G12G13G29G10G23G30G31
 -16303040.59448 -12646591.44147
                  20561822.8284                                   20561817.0824
                                                                        52.5004
        42.5004
  -6870965.83248  -5319386.60946
                  20977655.9224                                   20977651.7624
                                                                        50.5004
        41.2504
   -633724.86746   -481354.31244
                  24457995.7194                                   24457992.3554
                                                                        40.5004
        26.7504
 -18892440.09048 -14650940.66045
                  21559486.4304                                   21559482.2584
                                                                        50.5004
        35.7504
  -4477820.54346  -3441912.14144
                  23813143.8754                                   23813140.8164
                                                                        41.2504
        28.0004
  -2719083.79347  -2096539.89844
                  23685796.4454                                   23685792.4454
                                                                        42.7504
        28.0004
  -9688979.25448  -7505279.84445
                  21950711.5004                                   21950704.5664
                                                                        48.2504
        34.0004
  -6242586.75847  -4830537.86344
                  23084158.1484                                   23084154.7034
                                                                        45.0004
        27.5004
  -6778115.18446  -5248594.52344
                  24110117.7734                                   24110113.1094
                                                                        41.5004
        28.5004
 09 10  6  0  7 30.0000000  0  9G02G04G12G13G29G10G23G30G31
 -16427589.29748 -12743642.37147
                  20538122.0554                                   20538115.9184
                                                                        52.5004
        43.2504
  -6911732.02748  -5351152.46546
                  20969898.2344                                   20969894.3524
                                                                        52.7504
        41.2504
   -630973.02047   -479210.05944
                  24458520.2194                                   24458516.2034
                                                                        42.2504
        27.2504
 -19037559.28948 -14764020.52046
                  21531871.7274                                   21531866.8954
                                                                        50.2504
        36.0004
  -4666899.42646  -3589246.31644
                  23777163.2194                                   23777160.6844
                                                                        41.0004
        27.7504
  -2929426.22347  -2260443.05144
                  23645768.6254                                   23645765.9104
                                                                        43.2504
        28.5004
  -9748704.07048  -7551818.66445
                  21939346.6804                                   21939339.5314
                                                                        49.5004
        34.0004
  -6273154.41447  -4854356.79744
                  23078341.5234                                   23078337.9884
                                                                        43.7504
        26.5004
  -6816894.25047  -5278811.97744
                  24102738.3444                                   24102734.1374
                                                                        43.7504
        28.5004
 09 10  6  0  8  0.0000000  0  9G02G04G12G13G29G10G23G30G31
 -16551580.36348 -12840258.77347
                  20514527.3284                                   20514521.3594
                                                                        52.7504
        42.7504
  -6951995.11748  -5382526.29746
                  20962236.6954                                   20962232.7384
                                                                        52.7504
        41.5004
   -627958.04346   -476860.81244
                  24459093.3134                                   24459089.4144
                                                                        41.5004
        28.7504
 -19182060.34048 -14876618.76245
                  21504373.5474                                   21504369.5004
                                                                        50.0004
        35.7504
  -4855658.70347  -3736331.44944
                  23741243.8524                                   23741240.4304
                                                                        42.2504
        27.5004
  -3139574.35547  -2424194.80544
                  23605779.2814                                   23605776.1254
                                                                        43.5004
        28.2504
  -9807818.68048  -7597881.96945
                  21928097.0704                                   21928090.6724
                                                                        49.5004
        34.5004
  -6303170.61347  -4877746.06244
                  23072629.6174                                   23072625.9384
                                                                        44.7504
        27.2504
  -6855165.02747  -5308633.39844
                  24095455.2344                                   24095451.0594
                                                                        43.7504
        27.5004
 09 10  6  0  8 30.0000000  0  8G02G04G13G29G10G23G30G31
 -16675010.55948 -12936438.13747
                  20491039.5474                                   20491033.4064
                                                                        52.7504
        43.2504
  -6991754.44948  -5413507.58246
                  20954670.5554                                   20954667.1094
                                                                        52.2504
        41.5004
 -19325939.78148 -14988732.65246
                  21476994.5004                                   21476989.7704
                                                                        50.2504
        36.2504
  -5044094.00047  -3883164.16044
                  23705386.3054                                   23705382.8364
                                                                        43.5004
        27.5004
  -3349523.98847  -2587791.85544
                  23565827.1644                                   23565823.6174
                                                                        42.2504
        28.0004
  -9866322.48048  -7643469.35245
                  21916963.8754                                   21916957.6524
                                                                        48.5004
        34.2504
  -6332635.87147  -4900706.02044
                  23067022.1564                                   23067019.3954
                                                                        43.7504
        27.5004
  -6892927.13346  -5338058.40244
                  24088268.9534                                   24088265.0634
                                                                        41.7504
        26.7504
 09 10  6  0  9  0.0000000  0  8G02G04G13G29G10G23G30G31
 -16797878.48048 -13032179.36747
                  20467658.6414                                   20467652.2154
                                                                        51.7504
        42.7504
  -7031011.18748  -5444097.25046
                  20947200.4224                                   20947196.2504
                                                                        52.2504
        41.0004
 -19469194.93048 -15100360.05146
                  21449733.7034                                   21449729.1604
                                                                        50.0004
        36.0004
  -5232202.20347  -4029741.98844
                  23669590.1024                                   23669586.4964
                                                                        44.5004
        29.2504
  -3559271.64846  -2751231.52044
                  23525913.5394                                   23525909.7304
                                                                        41.5004
        26.5004
  -9924216.09848  -7688581.24245
                  21905947.8594                                   21905941.0204
                                                                        48.2504
        34.2504
  -6361552.14147  -4923238.19144
                  23061520.1254                                   23061516.6214
                                                                        43.0004
        26.5004
  -6930182.46146  -5367088.54744
                  24081179.1484                                   24081175.8324
                                                                        41.5004
        25.7504
 09 10  6  0  9 30.0000000  0  8G02G04G13G29G10G23G30G31
 -16920178.66848 -13127478.21547
                  20444385.5234                                   20444379.1564
                                                                        51.5004
        43.0004
  -7069762.48448  -5474293.07046
                  20939826.1644                                   20939822.3164
                                                                        53.2504
        41.2504
 -19611820.29348 -15211496.66846
                  21422593.1174                                   21422588.3014
                                                                        50.5004
        36.2504
  -5419976.89147  -4176059.98444
                  23633857.7664                                   23633854.2544
                                                                        44.5004
        27.0004
  -3768811.39146  -2914509.23044
                  23486039.2974                                   23486035.5474
                                                                        41.0004
        28.2504
  -9981496.71548  -7733215.46945
                  21895047.3594                                   21895040.6684
                                                                        48.5004
        34.5004
  -6389917.66447  -4945341.19944
                  23056122.1884                                   23056118.5824
                                                                        43.0004
        27.7504
  -6966928.61346  -5395721.93044
                  24074187.8134                                   24074183.5164
                                                                        41.5004
        25.2504
 09 10  6  0 10  0.0000000  0  8G02G04G13G29G10G23G30G31
 -17041903.18048 -13222328.47347
                  20421221.9454                                   20421215.9024
                                                                        52.2504
        42.5004
  -7108002.88348  -5504090.77046
                  20932549.2734                                   20932545.1954
                                                                        53.0004
        40.7504
 -19753807.34448 -15322135.94546
                  21395573.7114                                   21395569.0664
                                                                        50.7504
        36.5004
  -5607408.32847  -4322110.44144
                  23598190.6564                                   23598187.4224
                                                                        44.0004
        28.5004
  -3978134.27747  -3077617.97744
                  23446206.4304                                   23446202.3714
                                                                        42.2504
        27.7504
 -10038159.00048  -7777367.89145
                  21884264.8524                                   21884258.2504
                                                                        49.0004
        35.0004
  -6417728.54747  -4967012.02344
                  23050829.5314                                   23050826.4804
                                                                        43.7504
        27.0004
  -7003160.82046  -5423954.82044
                  24067292.5314                                   24067288.4844
                                                                        41.7504
        24.5004
 09 10  6  0 10 30.0000000  0  8G02G04G13G29G10G23G30G31
 -15587628.01248 -12089127.04347
                  20697961.5784                                   20697955.3014
                                                                        52.0004
        42.5004
  -5570313.88348  -4305891.53946
                  21225161.7504                                   21225157.9574
                                                                        53.0004
        41.0004
 -18319730.93448 -14204673.84846
                  21668469.5864                                   21668464.6914
                                                                        51.2504
        36.2504
  -4219069.09447  -3240287.62144
                  23862383.0944                                   23862379.3094
                                                                        44.5004
        28.5004
  -2611812.39547  -2012951.56644
                  23706208.5394                                   23706205.2974
                                                                        42.2504
        28.2504
  -8518783.55548  -6593439.00845
                  22173392.3834                                   22173385.5354
                                                                        49.7504
        34.5004
  -4869566.98847  -3760652.36744
                  23345434.7584                                   23345431.9184
                                                                        44.5004
        28.5004
  -5463461.07847  -4224188.82444
                  24360287.8364                                   24360283.5514
                                                                        42.5004
        24.5004
 09 10  6  0 11  0.0000000  0  8G02G04G13G29G10G23G30G31
 -15708202.18748 -12183080.94547
                  20675017.2034                                   20675010.7384
                                                                        52.7504
        43.0004
  -5607541.18048  -4334899.81646
                  21218077.6644                                   21218073.8244
                                                                        53.5004
        40.5004
 -18460440.14148 -14314317.38746
                  21641693.3524                                   21641689.0474
                                                                        50.7504
        36.2504
  -4405810.62947  -3385800.48044
                  23826846.9454                                   23826843.9224
                                                                        43.7504
        27.7504
  -2820698.84847  -2175720.28544
                  23666458.9844                                   23666455.4064
                                                                        42.5004
        29.0004
  -8574217.21948  -6636634.06645
                  22162843.6024                                   22162837.1214
                                                                        49.5004
        34.0004
  -4896279.68747  -3781467.44544
                  23340351.9774                                   23340348.6884
                                                                        43.5004
        28.2504
  -5498675.51646  -4251628.68744
                  24353587.5784                                   24353582.0164
                                                                        41.0004
        26.2504
 09 10  6  0 11 30.0000000  0  9G02G04G05G13G29G10G23G30G31
 -15828205.84448 -12276590.29747
                  20652180.9924                                   20652174.4774
                                                                        53.0004
        42.7504
  -5644270.62948  -4363520.18046
                  21211088.0164                                   21211084.4614
                                                                        52.7504
        40.5004
   2892234.86757   2275487.08654
                  24438958.7114                                   24438954.9494
                                                                        43.0004
        28.7504
 -18600514.06248 -14423465.88346
                  21615038.1724                                   21615033.6024
                                                                        51.0004
        36.2504
  -4592209.62147  -3531046.40244
                  23791375.9694                                   23791373.0474
                                                                        43.0004
        27.7504
  -3029370.23047  -2338321.34844
                  23626750.7424                                   23626747.2504
                                                                        42.5004
        29.2504
  -8629045.03148  -6679357.00445
                  22152410.1724                                   22152404.0204
                                                                        49.5004
        34.7504
  -4922453.99247  -3801863.01245
                  23335371.2814                                   23335367.8444
                                                                        43.5004
        30.2504
  -5533390.53146  -4278679.33244
                  24346980.9774                                   24346975.7894
                                                                        40.5004
        25.7504
 09 10  6  0 12  0.0000000  0  9G02G04G05G13G29G10G23G30G31
 -15947646.14548 -12369660.66847
                  20629452.1644                                   20629446.0594
                                                                        52.2504
        43.0004
  -5680511.61348  -4391759.90646
                  21204191.9384                                   21204188.0634
                                                                        53.5004
        40.2504
   2682685.54747   2112202.02744
                  24399083.1564                                   24399078.8524
                                                                        43.2504
        28.2504
 -18739959.50048 -14532124.63346
                  21588502.5314                                   21588498.1054
                                                                        50.7504
        36.2504
  -4778271.62547  -3676029.76244
                  23755969.9924                                   23755966.8914
                                                                        43.7504
        28.7504
  -3237832.41847  -2500759.32445
                  23587081.3444                                   23587077.6254
                                                                        42.7504
        30.2504
  -8683276.55148  -6721615.32445
                  22142090.3364                                   22142083.9534
                                                                        49.0004
        34.0004
  -4948100.40647  -3821847.23445
                  23330490.8674                                   23330488.1174
                                                                        44.0004
        30.7504
  -5567616.32447  -4305348.75044
                  24340467.9694                                   24340462.7894
                                                                        42.5004
        25.5004
 09 10  6  0 12 30.0000000  0  9G02G04G05G13G29G10G23G30G31
 -16066531.02048 -12462298.21947
                  20606829.1644                                   20606822.8444
                                                                        52.0004
        43.0004
  -5716274.87148  -4419627.35246
                  21197386.5004                                   21197382.2424
                                                                        52.7504
        41.2504
   2473259.47347   1949012.98844
                  24359230.1024                                   24359226.1804
                                                                        43.2504
        28.5004
 -18878783.85548 -14640299.46146
                  21562085.4614                                   21562080.9844
                                                                        51.0004
        36.2504
  -4964003.32047  -3820755.70345
                  23720625.9224                                   23720623.3324
                                                                        44.7504
        30.0004
  -3446092.20347  -2663039.62544
                  23547450.4844                                   23547447.1024
                                                                        43.7504
        28.5004
  -8736922.19548  -6763417.10545
                  22131881.8284                                   22131874.8164
                                                                        48.2504
        33.5004
  -4973230.36347  -3841429.06244
                  23325708.8834                                   23325705.4574
                                                                        42.7504
        28.2504
  -5601364.27047  -4331645.85244
                  24334046.0704                                   24334041.2974
                                                                        42.5004
        26.0004
 09 10  6  0 13  0.0000000  0  9G02G04G05G13G29G10G23G30G31
 -16184857.39548 -12554500.57847
                  20584312.2034                                   20584306.1724
                                                                        52.5004
        43.2504
  -5751559.37948  -4447121.75846
                  21190672.0164                                   21190667.6024
                                                                        53.2504
        40.7504
   2263961.78947   1785923.94544
                  24319401.9144                                   24319398.1054
                                                                        43.0004
        28.2504
 -19016982.89548 -14747986.98046
                  21535786.6884                                   21535782.2854
                                                                        51.2504
        36.5004
  -5149399.44947  -3965220.19545
                  23685346.7974                                   23685343.4224
                                                                        46.0004
        30.5004
  -3654144.80947  -2825158.52044
                  23507859.7194                                   23507855.3834
                                                                        45.2504
        28.7504
  -8789980.95348  -6804761.58245
                  22121784.9694                                   22121777.9224
                                                                        49.2504
        34.2504
  -4997844.37147  -3860608.81244
                  23321025.2034                                   23321021.9224
                                                                        43.2504
        28.0004
  -5634633.53947  -4357569.95344
                  24327714.8524                                   24327710.0394
                                                                        42.0004
        26.5004
 09 10  6  0 13 30.0000000  0  9G02G04G05G13G29G10G23G30G31
 -16302620.66448 -12646264.15247
                  20561902.8984                                   20561896.5124
                                                                        52.0004
        43.0004
  -5786363.79348  -4474242.08646
                  21184048.9144                                   21184045.2194
                                                                        51.5004
        40.7504
   2054797.13746   1622938.49644
                  24279599.2734                                   24279595.6214
                                                                        41.0004
        27.2504
 -19154552.23448 -14855183.85546
                  21509608.1414                                   21509603.8204
                                                                        51.5004
        36.5004
  -5334454.85247  -4109419.21144
                  23650131.8284                                   23650128.0984
                                                                        45.2504
        29.0004
  -3861985.00047  -2987111.93044
                  23468308.9064                                   23468304.5004
                                                                        46.0004
        28.0004
  -8842451.26648  -6845647.52345
                  22111800.5474                                   22111793.5904
                                                                        49.5004
        34.2504
  -5021942.10247  -3879386.28144
                  23316439.5234                                   23316436.0084
                                                                        43.5004
        27.2504
  -5667423.70346  -4383120.74244
                  24321475.3984                                   24321470.6334
                                                                        40.0004
        26.0004
 09 10  6  0 14  0.0000000  0  9G02G04G05G13G29G10G23G30G31
 -16419812.68448 -12737582.61747
                  20539601.7894                                   20539595.7974
                                                                        52.5004
        43.0004
  -5820682.52748  -4500983.97746
                  21177518.3524                                   21177514.5004
                                                                        51.7504
        41.0004
   1845774.88347   1460063.96144
                  24239824.1724                                   24239820.1454
                                                                        43.2504
        28.5004
 -19291482.96548 -14961883.11346
                  21483551.4224                                   21483546.9454
                                                                        51.5004
        36.7504
  -5519159.27347  -4253344.72745
                  23614983.9844                                   23614980.3364
                                                                        45.2504
        30.0004
  -4069602.98047  -3148892.19544
                  23428800.8444                                   23428796.0984
                                                                        45.0004
        27.0004
  -8894327.73048  -6886070.72745
                  22101928.6254                                   22101921.7074
                                                                        49.7504
        33.5004
  -5045519.19147  -3897758.02744
                  23311952.5704                                   23311949.3014
                                                                        43.2504
        26.7504
  -5699729.62546  -4408294.19944
                  24315327.7114                                   24315323.1484
                                                                        39.7504
        26.0004
 09 10  6  0 14 30.0000000  0  9G02G04G05G13G29G10G23G30G31
 -16536432.67248 -12828455.32447
                  20517409.9064                                   20517403.4574
                                                                        52.0004
        43.0004
  -5854516.84848  -4527348.37546
                  21171080.0944                                   21171076.1724
                                                                        53.0004
        40.5004
   1636897.50847   1297302.39544
                  24200076.3054                                   24200072.3134
                                                                        44.5004
        29.0004
 -19427773.87148 -15068083.82046
                  21457615.7814                                   21457611.2154
                                                                        51.5004
        36.0004
  -5703510.62947  -4396995.14544
                  23579903.0784                                   23579899.1604
                                                                        44.7504
        29.5004
  -4276996.74647  -3310497.73045
                  23389334.5004                                   23389331.0124
                                                                        44.2504
        30.0004
  -8945611.47348  -6926032.08245
                  22092169.7194                                   22092162.9734
                                                                        49.5004
        33.5004
  -5068577.88347  -3915725.83244
                  23307564.5864                                   23307561.3554
                                                                        42.5004
        25.0004
  -5731553.09046  -4433091.70743
                  24309271.6414                                   24309266.9494
                                                                        41.0004
        22.7504
 09 10  6  0 15  0.0000000  0  9G02G04G05G13G29G10G23G30G31
 -16652480.43448 -12918882.14147
                  20495326.9454                                   20495320.3554
                                                                        52.5004
        43.0004
  -5887869.30148  -4553337.31646
                  21164732.8204                                   21164729.3364
                                                                        53.2504
        41.0004
   1428165.93447   1134654.41844
                  24160355.3444                                   24160351.5084
                                                                        42.5004
        27.7504
 -19563423.91448 -15173785.15246
                  21431802.4064                                   21431797.9414
                                                                        51.2504
        36.7504
  -5887506.82047  -4540368.78544
                  23544889.6484                                   23544885.8094
                                                                        44.2504
        28.2504
  -4484164.82147  -3471927.35845
                  23349912.2734                                   23349908.6994
                                                                        44.2504
        30.0004
