     2.11           OBSERVATION DATA    G (GPS)             RINEX VERSION / TYPE
teqc  2019Feb25                         20221121 12:28:14UTCPGM / RUN BY / DATE
OSX ker:10.11.6|Core i5|gcc 4.3 -m64|OSX ker:10.10+|=+      COMMENT
BIT 2 OF LLI FLAGS DATA COLLECTED UNDER A/S CONDITION       COMMENT
04712841                                                    MARKER NAME
2841                                                        MARKER NUMBER
-Unknown-           -Unknown-                               OBSERVER / AGENCY
0220400471          TRIMBLE R7          2.30                REC # / TYPE / VERS
-Unknown-           TRM39105.00     NONE                    ANT # / TYPE
  1449459.8451 -1709240.7754  5952443.9432                  APPROX POSITION XYZ
        0.0000        0.0000        0.0000                  ANTENNA: DELTA H/E/N
     1     1                                                WAVELENGTH FACT L1/2
    20    L1    L2    L5    L6    L7    L8    C1    P1    C2# / TYPES OF OBSERV
          P2    C5    C6    C7    C8    S1    S2    S5    S6# / TYPES OF OBSERV
          S7    S8                                          # / TYPES OF OBSERV
    30.0000                                                 INTERVAL
    15                                                      LEAP SECONDS
Forced Modulo Decimation to 30 seconds                      COMMENT
 SNR is mapped to RINEX snr flag value [0-9]                COMMENT
  L1 & L2: min(max(int(snr_dBHz/6), 0), 9)                  COMMENT
teqc edited: Beidou # 1 - 37 excluded                       COMMENT
  2009    10    11    23    10    0.0000000     GPS         TIME OF FIRST OBS
                                                            END OF HEADER
 09 10 11 23 10  0.0000000  0  8G02G04G12G13G20G23G30G31
   -189379.10558    -83380.34857
                  21319397.0314                                   21319391.3714
                                                                        50.5004
        42.0004
    -89826.87558    -40080.84057
                  20702483.6174                                   20702479.7114
                                                                        52.0004
        42.5004
    -24063.90257    -11201.37155
                  23565211.5864                                   23565208.1764
                                                                        46.7504
        33.0004
   -216291.23457    -95257.84455
                  22580260.1174                                   22580256.3014
                                                                        47.2504
        32.0004
     12978.52757      3988.65254
                  23854705.7734                                   23854701.5124
                                                                        42.5004
        24.2504
   -122248.29757    -53955.37555
                  21942025.4774                                   21942019.0744
                                                                        47.7504
        35.7504
    -85345.19557    -38213.46155
                  22702966.0084                                   22702963.2934
                                                                        45.0004
        30.7504
    -87973.77057    -40512.57855
                  23810906.5784                                   23810901.7624
                                                                        43.5004
        30.2504
 09 10 11 23 10 30.0000000  0  8G02G04G12G13G20G23G30G31
   -349029.82848   -207783.52346
                  21289016.1804                                   21289010.8674
                                                                        51.5004
        41.2504
   -166641.16848    -99936.16046
                  20687866.3754                                   20687862.9804
                                                                        52.0004
        41.2504
    -45708.05747    -28066.94645
                  23561092.9064                                   23561089.0664
                                                                        47.5004
        33.0004
   -398456.36747   -237204.69944
                  22545595.2814                                   22545590.9884
                                                                        47.0004
        29.7504
     22302.92246     11254.39143
                  23856479.0634                                   23856475.5784
                                                                        39.2504
        21.0004
   -225629.20348   -134511.92245
                  21922352.7974                                   21922346.5234
                                                                        48.0004
        34.7504
   -157837.82047    -94701.30545
                  22689171.5634                                   22689168.7814
                                                                        44.5004
        30.0004
   -164839.60547   -100408.06244
                  23796279.4534                                   23796275.4734
                                                                        43.5004
        28.5004
 09 10 11 23 11  0.0000000  0  8G02G04G12G13G20G23G30G31
   -508056.32848   -331700.28146
                  21258754.6024                                   21258748.8914
                                                                        52.0004
        41.2504
   -242719.57048   -159218.04747
                  20673389.0704                                   20673385.7464
                                                                        52.2504
        42.0004
    -66743.85248    -44458.47745
                  23557090.0634                                   23557086.8524
                                                                        48.0004
        34.2504
   -579989.27347   -378658.91045
                  22511050.8054                                   22511046.0984
                                                                        47.0004
        30.7504
     32014.38346     18821.61742
                  23858326.7114                                   23858323.8134
                                                                        37.5004
        17.2504
   -328197.64848   -214435.37545
                  21902835.0004                                   21902828.4964
                                                                        48.0004
        35.0004
   -229491.23847   -150535.16045
                  22675536.5004                                   22675533.8324
                                                                        43.7504
        30.2504
   -240939.57847   -159706.78144
                  23781798.0634                                   23781793.7774
                                                                        42.5004
        29.0004
 09 10 11 23 11 30.0000000  0  8G02G04G12G13G20G23G30G31
   -666154.17248   -454893.41046
                  21228669.6094                                   21228664.3714
                                                                        51.5004
        41.2504
   -317760.04348   -217691.19146
                  20659109.3284                                   20659106.2734
                                                                        52.2504
        41.7504
    -86870.93447    -60141.89545
                  23553259.5554                                   23553256.0824
                                                                        47.5004
        32.2504
   -760584.57048   -519382.50845
                  22476684.7034                                   22476680.1134
                                                                        48.0004
        31.5004
     42413.97647     26925.24743
                  23860307.0784                                   23860302.0124
                                                                        42.0004
        20.0004
   -429650.69548   -293489.68045
                  21883529.3054                                   21883522.6054
                                                                        48.0004
        35.2504
   -300003.87947   -205480.14845
                  22662117.8364                                   22662115.9964
                                                                        45.2504
        30.7504
   -315971.05547   -218172.82844
                  23767520.2344                                   23767516.1954
                                                                        44.5004
        28.5004
 09 10 11 23 12  0.0000000  0  8G02G04G12G13G20G23G30G31
   -823244.25048   -577301.23846
                  21198776.4774                                   21198770.8094
                                                                        51.7504
        41.5004
   -391685.82848   -275295.71547
                  20645041.8984                                   20645038.5084
                                                                        52.7504
        42.2504
   -106015.27347    -75059.57845
                  23549616.6564                                   23549613.0314
                                                                        47.0004
        32.2504
   -940161.89148   -659312.87145
                  22442511.9844                                   22442507.7504
                                                                        48.0004
        30.5004
     53576.21547     35623.11743
                  23862430.8364                                   23862426.1254
                                                                        43.7504
        21.7504
   -529910.52048   -371614.20345
                  21864449.9534                                   21864443.9734
                                                                        48.5004
        35.5004
   -369300.20747   -259477.32845
                  22648932.0004                                   22648928.9694
                                                                        45.7504
        31.0004
   -389858.62547   -275747.59044
                  23753459.9224                                   23753455.7584
                                                                        44.5004
        29.5004
 09 10 11 23 12 30.0000000  0  8G02G04G12G13G20G23G30G31
   -979305.29348   -698907.23446
                  21169079.2344                                   21169073.5744
                                                                        50.7504
        41.0004
   -464477.91448   -332016.85547
                  20631189.8364                                   20631186.4574
                                                                        53.0004
        42.0004
   -124159.45347    -89197.92645
                  23546164.1334                                   23546159.9844
                                                                        47.7504
        32.7504
  -1118698.63347   -798432.39845
                  22408537.8674                                   22408532.9734
                                                                        47.5004
        31.2504
     65519.29747     44929.39543
                  23864704.1564                                   23864699.3284
                                                                        44.7504
        22.5004
   -628957.24248   -448793.45745
                  21845602.3594                                   21845595.7774
                                                                        48.0004
        35.5004
   -437361.29347   -312511.95345
                  22635980.3834                                   22635977.6214
                                                                        44.0004
        31.0004
   -462582.73047   -332415.72345
                  23739621.0394                                   23739616.6724
                                                                        45.0004
        30.0004
 09 10 11 23 13  0.0000000  0  8G02G04G12G13G20G23G30G31
  -1134347.23048   -819719.10946
                  21139575.7424                                   21139570.1174
                                                                        50.5004
        41.5004
   -536149.05148   -387864.49647
                  20617551.3914                                   20617548.0004
                                                                        52.5004
        42.0004
   -141318.44047   -102568.57245
                  23542898.5314                                   23542894.8834
                                                                        47.0004
        31.0004
  -1296204.96147   -936749.00845
                  22374759.2344                                   22374755.1684
                                                                        47.5004
        31.7504
     78228.01647     54832.26644
                  23867121.8444                                   23867117.8594
                                                                        43.0004
        24.7504
   -726803.30548   -525037.14145
                  21826982.3914                                   21826976.1454
                                                                        48.0004
        35.5004
   -504200.57447   -364594.51245
                  22623260.9614                                   22623258.7424
                                                                        45.2504
        31.0004
   -534156.85547   -388187.77044
                  23726000.9924                                   23725996.3914
                                                                        43.5004
        29.5004
 09 10 11 23 13 30.0000000  0  8G02G04G12G13G20G23G30G31
  -1288389.14548   -939751.72346
                  21110262.1954                                   21110256.7774
                                                                        51.2504
        41.7504
   -606720.30948   -442855.07047
                  20604121.8914                                   20604118.5664
                                                                        52.7504
        42.0004
   -157515.14547   -115189.37945
                  23539815.9924                                   23539812.6024
                                                                        46.5004
        30.2504
  -1472697.55148  -1074275.67245
                  22341173.6334                                   22341170.2854
                                                                        48.0004
        32.0004
     91680.31346     65314.51643
                  23869680.8284                                   23869677.5984
                                                                        41.5004
        22.5004
   -823468.48048   -600360.65245
                  21808587.4534                                   21808581.7114
                                                                        48.0004
        35.7504
   -569839.62547   -415741.78945
                  22610770.4534                                   22610767.3754
                                                                        44.0004
        30.0004
   -604601.62147   -443079.80544
                  23712595.8364                                   23712591.7664
                                                                        44.5004
        29.2504
 09 10 11 23 14  0.0000000  0  8G02G04G12G13G20G23G30G31
  -1441453.10548  -1059022.31246
                  21081135.0554                                   21081129.5904
                                                                        50.0004
        41.5004
   -676216.45348   -497007.89546
                  20590897.4614                                   20590894.0314
                                                                        52.5004
        41.5004
   -172776.13347   -127081.07445
                  23536912.0944                                   23536908.5634
                                                                        46.2504
        31.0004
  -1648198.14548  -1211029.36345
                  22307777.2344                                   22307773.6134
                                                                        48.5004
        32.2504
    105849.69946     76355.54343
                  23872377.5554                                   23872374.6214
                                                                        39.5004
        19.5004
   -918976.69547   -674782.64145
                  21790413.0864                                   21790406.9534
                                                                        47.5004
        35.5004
   -634303.84847   -465973.66845
                  22598503.1414                                   22598500.3594
                                                                        44.5004
        31.0004
   -673942.26647   -497111.48044
                  23699400.6094                                   23699396.5824
                                                                        44.5004
        29.7504
 09 10 11 23 14 30.0000000  0  8G02G04G12G13G20G23G30G31
  -1593562.55548  -1177549.16446
                  21052189.6334                                   21052184.2664
                                                                        51.5004
        41.2504
   -744663.53548   -550343.34047
                  20577872.3524                                   20577868.7854
                                                                        53.5004
        42.0004
   -187129.21947   -138265.30145
                  23534180.8594                                   23534177.3594
                                                                        47.7504
        30.7504
  -1822729.27747  -1347027.63745
                  22274565.5554                                   22274561.2704
                                                                        47.7504
        31.2504
    120708.08646     87933.44543
                  23875205.4614                                   23875201.5084
                                                                        39.2504
        20.0004
  -1013353.46948   -748322.98045
                  21772454.0474                                   21772447.8714
                                                                        48.0004
        35.7504
   -697619.88347   -515310.84445
                  22586454.7504                                   22586452.1804
                                                                        46.0004
        30.5004
   -742205.55947   -550303.68444
                  23686410.7274                                   23686406.0984
                                                                        44.0004
        29.2504
 09 10 11 23 15  0.0000000  0  8G02G04G12G13G20G23G30G31
  -1744742.21948  -1295351.51246
                  21023420.8914                                   21023415.3164
                                                                        51.7504
        41.5004
   -812088.97748   -602882.71946
                  20565041.7894                                   20565038.3634
                                                                        52.5004
        41.5004
   -200603.62947   -148764.82445
                  23531616.8134                                   23531613.3674
                                                                        46.7504
        31.2504
  -1996315.33648  -1482289.50045
                  22241532.5864                                   22241528.7624
                                                                        48.0004
        32.2504
    136226.79346    100025.91043
                  23878158.7584                                   23878154.8914
                                                                        41.0004
        20.7504
  -1106625.80548   -821002.71146
                  21754704.7734                                   21754698.7384
                                                                        48.0004
        36.2504
   -759815.12547   -563774.75445
                  22574619.2424                                   22574616.8914
                                                                        45.2504
        30.7504
   -809418.24647   -602677.20745
                  23673620.1724                                   23673615.8094
                                                                        44.0004
        30.0004
 09 10 11 23 15 30.0000000  0  8G02G04G12G13G20G23G30G31
  -1895012.51248  -1412445.27346
                  20994825.5864                                   20994819.8834
                                                                        50.2504
        41.5004
   -878515.14848   -654643.38746
                  20552401.2894                                   20552398.0704
                                                                        52.2504
        41.7504
   -213224.45747   -158599.22745
                  23529215.1644                                   23529212.0594
                                                                        46.7504
        32.2504
  -2168974.77748  -1616829.32845
                  22208676.5784                                   22208672.5084
                                                                        48.0004
        31.7504
    152382.04346    112614.44143
                  23881233.1254                                   23881228.3984
                                                                        41.2504
        20.0004
  -1198814.94547   -892838.38745
                  21737161.6414                                   21737155.2974
                                                                        47.2504
        35.5004
   -820913.65247   -611384.09045
                  22562992.8984                                   22562990.3794
                                                                        45.5004
        30.5004
   -875603.53547   -654250.17644
                  23661025.7114                                   23661021.6334
                                                                        44.7504
        28.7504
 09 10 11 23 16  0.0000000  0  8G02G04G12G13G20G23G30G31
  -2044394.41848  -1528846.76646
                  20966398.8524                                   20966393.5664
                                                                        50.5004
        41.0004
   -943965.91848   -705643.99246
                  20539946.5704                                   20539942.9924
                                                                        52.0004
        41.5004
   -225016.58647   -167787.87545
                  23526971.8754                                   23526967.9454
                                                                        47.2504
        32.7504
  -2340728.13748  -1750663.10945
                  22175993.0084                                   22175988.8444
                                                                        48.7504
        31.7504
    169148.46546    125679.22343
                  23884423.9694                                   23884419.2504
                                                                        41.5004
        20.5004
  -1289943.86747   -963847.91845
                  21719820.2814                                   21719813.8834
                                                                        47.2504
        34.7504
   -880938.57447   -658156.80145
                  22551570.2194                                   22551567.7034
                                                                        45.0004
        30.2504
   -940784.92647   -705040.89144
                  23648622.2274                                   23648617.5744
                                                                        44.2504
        29.5004
 09 10 11 23 16 30.0000000  0  8G02G04G12G13G20G23G30G31
  -2192906.39848  -1644570.33646
                  20938138.0704                                   20938132.6684
                                                                        51.2504
        41.5004
  -1008461.88348   -755900.58246
                  20527673.0944                                   20527669.9964
                                                                        52.2504
        41.7504
   -236003.54347   -176349.08245
                  23524881.0554                                   23524876.8554
                                                                        47.7504
        32.0004
  -2511592.34848  -1883804.08645
                  22143478.8134                                   22143474.0124
                                                                        48.5004
        30.7504
    186504.11746    139203.06643
                  23887725.8364                                   23887721.9924
                                                                        39.2504
        20.7504
  -1380032.64848  -1034046.95345
                  21702677.0394                                   21702670.7624
                                                                        48.2504
        34.7504
   -939912.60547   -704110.61745
                  22540347.8364                                   22540345.2934
                                                                        45.0004
        30.5004
  -1004984.08247   -755066.19944
                  23636405.8984                                   23636400.8594
                                                                        44.5004
        28.2504
 09 10 11 23 17  0.0000000  0  8G02G04G12G13G20G23G30G31
  -2340568.24248  -1759631.44946
                  20910038.8524                                   20910033.4104
                                                                        50.7504
        41.7504
  -1072026.15248   -805431.21946
                  20515577.3754                                   20515574.1804
                                                                        52.0004
        41.5004
   -246209.07447   -184301.33645
                  23522938.2814                                   23522934.9694
                                                                        46.7504
        31.7504
  -2681587.78147  -2016268.08245
                  22111129.3674                                   22111125.3134
                                                                        47.7504
        31.5004
    204424.09446    153166.64843
                  23891136.0394                                   23891132.0124
                                                                        39.5004
        21.2504
  -1469103.60247  -1103452.88345
                  21685727.6644                                   21685721.6254
                                                                        47.0004
        35.5004
   -997857.70347   -749262.64544
                  22529321.3054                                   22529318.8674
                                                                        45.0004
        29.5004
  -1068223.25047   -804343.47344
                  23624371.2274                                   23624367.1454
                                                                        43.2504
        28.7504
 09 10 11 23 17 30.0000000  0  8G02G04G12G13G20G23G30G31
  -2487396.56248  -1874043.05947
                  20882098.1884                                   20882092.9184
                                                                        51.7504
        42.0004
  -1134676.81648   -854249.89146
                  20503655.3364                                   20503652.1094
                                                                        52.2504
        41.0004
   -255654.49247   -191661.36745
                  23521141.2664                                   23521137.5474
                                                                        45.5004
        31.0004
  -2850728.64547  -2148066.16445
                  22078943.1484                                   22078938.8834
                                                                        47.7504
        31.7504
    222889.03546    167554.89143
                  23894649.9144                                   23894645.6684
                                                                        40.0004
        22.0004
  -1557174.16048  -1172079.32445
                  21668967.9534                                   21668962.0314
                                                                        48.5004
        35.7504
  -1054794.00447   -793628.62945
                  22518486.3444                                   22518484.6484
                                                                        43.7504
        30.7504
  -1130521.68047   -852887.71944
                  23612516.4924                                   23612511.7814
                                                                        43.5004
        28.0004
 09 10 11 23 18  0.0000000  0  8G02G04G12G13G20G23G30G31
  -2633408.62948  -1987818.69547
                  20854313.0704                                   20854307.6764
                                                                        52.2504
        42.0004
  -1196434.15648   -902372.50446
                  20491903.2974                                   20491900.0274
                                                                        53.0004
        41.7504
   -264360.92647   -198445.63745
                  23519483.7664                                   23519481.1414
                                                                        45.2504
        30.7504
  -3019031.85247  -2279211.51245
                  22046916.0864                                   22046912.3594
                                                                        47.7504
        32.0004
    241876.93846    182350.64843
                  23898263.4694                                   23898259.8954
                                                                        40.0004
        22.2504
  -1644264.14148  -1239941.65645
                  21652395.5004                                   21652389.5744
                                                                        49.2504
        34.5004
  -1110741.93747   -837224.43045
                  22507840.2584                                   22507837.5634
                                                                        45.7504
        30.0004
  -1191899.81647   -900714.84444
                  23600836.7814                                   23600831.6024
                                                                        45.0004
        28.5004
 09 10 11 23 18 30.0000000  0  8G02G04G12G13G20G23G30G31
  -1203193.91048   -873365.68447
                  21126474.0164                                   21126468.7974
                                                                        51.7504
        42.2504
    318106.96148    277789.41446
                  20780110.9144                                   20780107.7734
                                                                        52.5004
        41.5004
   1303072.64847   1022931.16845
                  23817756.8204                                   23817753.7114
                                                                        45.5004
        30.0004
  -1611085.29748  -1182110.29345
                  22314839.8674                                   22314835.6334
                                                                        49.0004
        33.7504
   1836789.37946   1425139.49643
                  24201765.3054                                   24201761.5354
                                                                        38.5004
        21.0004
   -154966.32848    -79449.85245
                  21935799.3364                                   21935793.5744
                                                                        48.7504
        35.2504
    409702.97347    347537.79344
                  22797171.2814                                   22797168.6954
                                                                        45.0004
        29.7504
    323047.84447    279763.84844
                  23889122.2584                                   23889117.0044
                                                                        44.5004
        27.2504
 09 10 11 23 19  0.0000000  0  8G02G04G12G13G20G23G30G31
  -1347616.27348   -985902.59847
                  21098991.4694                                   21098986.0784
                                                                        51.7504
        42.0004
    258085.84048    231019.73047
                  20768689.0164                                   20768685.8094
                                                                        53.0004
        42.0004
   1295786.66447   1017253.73445
                  23816370.6414                                   23816367.3284
                                                                        45.2504
        30.2504
  -1777753.53948  -1311981.67645
                  22283123.4304                                   22283119.6094
                                                                        49.0004
        33.0004
   1856769.00046   1440708.05143
                  24205567.2274                                   24205562.7504
                                                                        40.5004
        19.7504
   -240142.78948   -145821.12145
                  21919590.8134                                   21919584.4414
                                                                        50.0004
        35.0004
    355679.60247    305441.66845
                  22786891.2584                                   22786888.1994
                                                                        46.2504
        30.0004
    263459.70347    233331.54744
                  23877782.5084                                   23877777.3524
                                                                        44.7504
        27.5004
 09 10 11 23 19 30.0000000  0  8G02G04G12G13G20G23G30G31
  -1491263.44948  -1097835.47747
                  21071656.5164                                   21071650.9614
                                                                        51.7504
        42.0004
    198909.59048    184908.41846
                  20757428.3674                                   20757425.1374
                                                                        53.0004
        41.7504
   1289184.85547   1012109.47345
                  23815113.9924                                   23815110.7544
                                                                        46.0004
        31.0004
  -1943621.75848  -1441229.61745
                  22251559.7344                                   22251555.9614
                                                                        48.7504
        32.5004
   1877219.23846   1456643.29743
                  24209458.9924                                   24209454.8484
                                                                        40.5004
        19.0004
   -324384.67248   -211464.15245
                  21903560.0634                                   21903553.9344
                                                                        49.0004
        35.0004
    302593.97747    264076.27745
                  22776789.2114                                   22776786.0634
                                                                        45.7504
        30.0004
    204742.91047    187578.19944
                  23866609.1334                                   23866603.8244
                                                                        43.2504
        27.2504
 09 10 11 23 20  0.0000000  0  8G02G04G12G13G20G23G30G31
  -1634147.10248  -1209173.34846
                  21044466.3914                                   21044461.1994
                                                                        52.2504
        41.2504
    140563.63748    139444.06347
                  20746325.4694                                   20746321.9184
                                                                        52.5004
        42.0004
   1283251.18447   1007485.83645
                  23813985.5234                                   23813981.2624
                                                                        46.0004
        30.2504
  -2108701.62148  -1569863.26245
                  22220146.4454                                   22220142.2154
                                                                        49.0004
        33.0004
   1898123.78946   1472932.56343
                  24213436.9614                                   24213432.6844
                                                                        40.5004
        18.2504
   -407706.28548   -276390.06646
                  21887704.5704                                   21887698.4384
                                                                        50.0004
        36.0004
    250430.87547    223429.68844
                  22766863.0864                                   22766859.7194
                                                                        46.0004
        29.0004
    146882.42647    142492.11344
                  23855598.6174                                   23855593.3834
                                                                        44.5004
        27.0004
 09 10 11 23 20 30.0000000  0  8G02G04G12G13G20G23G30G31
  -1776281.70348  -1319927.56246
                  21017419.0864                                   21017413.6134
                                                                        52.0004
        41.5004
     83030.90248     94613.39846
                  20735377.0234                                   20735374.0124
                                                                        52.5004
        41.7504
   1277966.61347   1003367.98044
                  23812979.8674                                   23812975.4694
                                                                        46.2504
        29.7504
  -2273006.64848  -1697893.17245
                  22188880.0394                                   22188875.9414
                                                                        49.2504
        31.7504
   1919464.92246   1489562.03943
                  24217498.1024                                   24217493.3754
                                                                        39.5004
        20.0004
   -490123.56248   -340611.33645
                  21872021.0164                                   21872014.9884
                                                                        50.2504
        35.0004
    199172.41047    183488.02344
                  22757108.7114                                   22757105.2504
                                                                        45.5004
        29.2504
     89860.96547     98059.79744
                  23844747.4224                                   23844741.8874
                                                                        44.0004
        26.0004
 09 10 11 23 21  0.0000000  0  8G02G04G12G13G20G23G30G31
  -1917675.84048  -1430104.78546
                  20990512.3834                                   20990507.0634
                                                                        52.2504
        41.5004
     26300.63748     50408.04346
                  20724581.9774                                   20724578.5394
                                                                        52.5004
        41.7504
   1273318.26647    999745.87944
                  23812095.5554                                   23812090.8014
                                                                        46.0004
        29.5004
  -2436544.17648  -1825325.02345
                  22157759.7734                                   22157755.9964
                                                                        48.2504
        32.5004
   1941230.22346   1506521.96943
                  24221639.3674                                   24221635.7304
                                                                        39.0004
        19.2504
   -571647.08248   -404136.16045
                  21856507.7734                                   21856501.7624
                                                                        49.5004
        35.0004
    148807.10547    144242.35944
                  22747524.5234                                   22747521.0434
                                                                        45.5004
        29.5004
     33667.37147     54272.58644
                  23834054.3444                                   23834048.9884
                                                                        43.7504
        26.0004
 09 10 11 23 21 30.0000000  0  8G02G04G12G13G20G23G30G31
  -2058335.11348  -1539709.47746
                  20963745.8054                                   20963740.4494
                                                                        52.2504
        41.5004
    -29635.55148      6821.43047
                  20713937.5554                                   20713934.1094
                                                                        53.0004
        42.0004
   1269296.44947    996611.99645
                  23811329.7974                                   23811326.0824
                                                                        46.2504
        30.0004
  -2599318.94948  -1952162.51245
                  22126784.6094                                   22126780.6844
                                                                        48.0004
        32.0004
   1963410.23046   1523805.02343
                  24225860.5864                                   24225855.8524
                                                                        39.7504
        21.2504
   -652283.93748   -466970.06645
                  21841163.1644                                   21841156.7894
                                                                        50.0004
        35.2504
     99326.57047    105686.10544
                  22738108.8204                                   22738104.9694
                                                                        45.5004
        29.5004
    -21706.44147     11124.14844
                  23823516.7894                                   23823512.1414
                                                                        43.7504
        27.5004
 09 10 11 23 22  0.0000000  0  8G02G04G12G13G20G23G30G31
  -2198275.06248  -1648753.61347
                  20937116.4534                                   20937110.9024
                                                                        52.0004
        42.0004
    -84795.96548    -36160.66847
                  20703440.9384                                   20703437.3364
                                                                        52.7504
        42.0004
   1265880.57447    993950.25845
                  23810679.5784                                   23810676.4384
                                                                        45.7504
        31.0004
  -2761346.12948  -2078417.46945
                  22095951.8364                                   22095947.7464
                                                                        48.2504
        32.5004
   1985984.72746   1541395.49243
                  24230156.1094                                   24230151.8984
                                                                        40.2504
        20.2504
   -732052.57848   -529127.43445
                  21825983.2734                                   21825977.3164
                                                                        50.0004
        35.2504
     50711.14147     67803.94944
                  22728857.6644                                   22728853.9344
                                                                        45.5004
        29.7504
    -76279.91447    -31400.63344
                  23813131.9384                                   23813126.9964
                                                                        44.0004
        27.0004
 09 10 11 23 22 30.0000000  0  8G02G04G12G13G20G23G30G31
  -2337501.19148  -1757241.53147
                  20910622.6644                                   20910617.3484
                                                                        53.0004
        42.5004
   -139188.52048    -78544.47346
                  20693090.1564                                   20693086.8324
                                                                        52.7504
        41.0004
   1263061.00847    991753.16845
                  23810143.0704                                   23810140.0234
                                                                        45.2504
        32.5004
  -2922630.01648  -2204093.22345
                  22065260.7894                                   22065256.4884
                                                                        48.7504
        32.5004
   2008944.92246   1559286.55543
                  24234525.0084                                   24234521.0124
                                                                        39.7504
        19.0004
   -810959.89148   -590613.63345
                  21810967.6414                                   21810961.6684
                                                                        49.5004
        35.0004
      2952.60947     30589.50845
                  22719768.6644                                   22719766.3204
                                                                        44.5004
        30.5004
   -130060.59847    -73307.66044
                  23802897.2814                                   23802893.0474
                                                                        44.0004
        27.2504
 09 10 11 23 23  0.0000000  0  8G02G04G12G13G20G23G30G31
  -2476023.78948  -1865181.19547
                  20884262.5004                                   20884257.0354
                                                                        52.7504
        42.0004
   -192826.17648   -120340.07046
                  20682883.1254                                   20682880.1764
                                                                        53.5004
        41.5004
   1260822.96947    990009.16845
                  23809716.8444                                   23809714.2464
                                                                        44.5004
        30.0004
  -3083179.80548  -2329196.92245
                  22034709.0944                                   22034704.9534
                                                                        49.0004
        32.5004
   2032277.13346   1577467.50043
                  24238965.5004                                   24238961.0864
                                                                        40.0004
        19.0004
   -889017.98848   -651438.11345
                  21796113.6174                                   21796107.8554
                                                                        49.7504
        34.7504
    -43962.84447     -5968.02745
                  22710841.5944                                   22710838.5864
                                                                        45.5004
        30.5004
   -183061.68447   -114607.19944
                  23792811.6094                                   23792807.4454
                                                                        43.5004
        27.5004
 09 10 11 23 23 30.0000000  0  8G02G04G12G13G20G23G30G31
  -2613848.43048  -1972577.05147
                  20858035.5474                                   20858030.2074
                                                                        52.5004
        42.2504
   -245717.10248   -161553.77346
                  20672818.5164                                   20672815.3094
                                                                        53.0004
        41.5004
   1259156.81347    988710.80944
                  23809400.1644                                   23809397.1174
                                                                        44.7504
        29.5004
  -3243000.66448  -2453732.61345
                  22004296.0634                                   22004292.1564
                                                                        49.0004
        32.5004
   2055971.48046   1595930.59043
                  24243474.1174                                   24243470.8204
                                                                        38.7504
        19.5004
   -966234.91448   -711607.14145
                  21781419.8834                                   21781413.7704
                                                                        49.0004
        35.2504
    -90044.11747    -41875.52345
                  22702072.4384                                   22702069.7504
                                                                        45.0004
        30.0004
   -235292.31647   -155306.40644
                  23782872.9614                                   23782868.4384
                                                                        42.7504
        27.0004
 09 10 11 23 24  0.0000000  0  8G02G04G12G13G20G23G30G31
  -2750984.53148  -2079436.34847
                  20831939.2194                                   20831933.9774
                                                                        52.5004
        42.0004
   -297872.89548   -202194.61746
                  20662893.7504                                   20662890.4144
                                                                        52.7504
        41.5004
   1258048.09447    987846.81344
                  23809189.4924                                   23809185.7274
                                                                        46.0004
        29.0004
  -3402100.60548  -2577706.57445
                  21974020.6414                                   21974016.9224
                                                                        49.2504
        33.2504
   2080014.88346   1614665.70343
                  24248049.6484                                   24248045.9494
                                                                        40.0004
        19.5004
  -1042621.69148   -771129.29745
                  21766883.9304                                   21766877.7464
                                                                        49.5004
        34.5004
   -135304.33247    -77143.22744
                  22693459.6804                                   22693457.3524
                                                                        45.0004
        29.2504
   -286764.38346   -195414.53144
                  23773078.0634                                   23773073.4734
                                                                        40.7504
        26.7504
 09 10 11 23 24 30.0000000  0  8G02G04G12G13G20G23G30G31
  -2887438.82848  -2185764.36747
                  20805972.9774                                   20805967.8094
                                                                        51.5004
        42.2504
   -349303.64848   -242270.52347
                  20653106.7034                                   20653103.4144
                                                                        53.0004
        42.0004
   1257486.49647    987409.28944
                  23809082.4774                                   23809078.1564
                                                                        45.7504
        29.0004
  -3560486.30548  -2701124.00845
                  21943880.7734                                   21943876.4884
                                                                        48.5004
        33.0004
   2104396.19946   1633664.12143
                  24252689.6254                                   24252685.4064
                                                                        40.0004
        20.7504
  -1118187.37148   -830011.64145
                  21752504.5314                                   21752498.2664
                                                                        50.0004
        34.7504
   -179753.44147   -111778.94545
                  22685001.5234                                   22684998.8914
                                                                        43.5004
        31.0004
   -337487.63347   -234939.14544
                  23763425.0864                                   23763421.0234
                                                                        42.5004
        27.5004
 09 10 11 23 25  0.0000000  0  8G02G04G12G13G20G23G30G31
  -3023214.18748  -2291563.34847
                  20780136.1174                                   20780130.6214
                                                                        51.5004
        42.7504
   -400013.98848   -281785.09446
                  20643456.5944                                   20643453.3014
                                                                        53.0004
        41.7504
   1257463.90247    987391.72745
                  23809078.1174                                   23809073.5514
                                                                        46.0004
        30.0004
  -3718158.73048  -2823985.63345
                  21913876.7814                                   21913872.6134
                                                                        49.5004
        33.2504
   2129110.25846   1652921.83643
                  24257391.9844                                   24257388.1374
                                                                        39.5004
        21.0004
  -1192935.98848   -888257.30945
                  21738280.1644                                   21738273.8594
                                                                        49.0004
        34.5004
   -223397.69147   -145787.45344
                  22676696.0084                                   22676693.7424
                                                                        43.5004
        29.7504
   -387467.57647   -273884.57444
                  23753914.7274                                   23753910.2034
                                                                        43.7504
        27.0004
 09 10 11 23 25 30.0000000  0  7G02G04G12G13G23G30G31
  -3158319.52748  -2396840.24247
                  20754425.9774                                   20754420.5904
                                                                        52.5004
        42.2504
   -450016.31648   -320747.96146
                  20633941.5474                                   20633938.7114
                                                                        53.2504
        41.5004
   1257967.65647    987784.35245
                  23809174.0084                                   23809170.2704
                                                                        46.0004
        30.7504
  -3875127.07048  -2946298.62545
                  21884006.5784                                   21884002.4614
                                                                        49.2504
        33.0004
  -1266880.12148   -945876.10245
                  21724208.8914                                   21724202.6684
                                                                        49.0004
        34.0004
   -266249.04747   -179178.07845
                  22668541.9384                                   22668539.5394
                                                                        45.5004
        30.2504
   -436716.49947   -312260.36544
                  23744543.0234                                   23744538.7734
                                                                        44.5004
        28.0004
 09 10 11 23 26  0.0000000  0  7G02G04G12G13G23G30G31
  -3292759.90248  -2501598.98047
                  20728843.0944                                   20728837.5944
                                                                        51.0004
        42.0004
   -499317.49248   -359164.49246
                  20624559.9064                                   20624556.6914
                                                                        52.5004
        41.5004
   1258987.64147    988579.11344
                  23809368.0554                                   23809364.4924
                                                                        43.7504
        29.7504
  -4031394.59048  -3068065.54745
                  21854270.0164                                   21854265.9574
                                                                        49.2504
        32.7504
  -1340025.35948  -1002872.37545
                  21710290.1724                                   21710283.3914
                                                                        48.5004
        35.0004
   -308316.35547   -211957.81645
                  22660536.9384                                   22660534.2384
                                                                        43.5004
        30.0004
   -485242.04747   -350072.45744
                  23735308.7584                                   23735304.6954
                                                                        44.5004
        27.5004
 09 10 11 23 26 30.0000000  0  7G02G04G12G13G23G30G31
  -3426537.71948  -2605841.42647
                  20703385.9064                                   20703380.2074
                                                                        51.5004
        42.5004
   -547922.95348   -397038.90246
                  20615310.8754                                   20615307.5944
                                                                        53.2504
        41.5004
   1260517.58247    989771.23844
                  23809658.7194                                   23809655.6844
                                                                        43.0004
        29.2504
  -4186963.49648  -3189288.04745
                  21824666.0394                                   21824662.2504
                                                                        49.5004
        33.0004
  -1412377.28548  -1059250.52045
                  21696522.0004                                   21696515.4414
                                                                        48.0004
        35.0004
   -349605.33247   -244131.03945
                  22652679.6564                                   22652677.0554
                                                                        44.2504
        31.0004
   -533050.02747   -387325.44144
                  23726211.3914                                   23726207.1914
                                                                        44.0004
        28.2504
 09 10 11 23 27  0.0000000  0  8G02G04G12G13G29G23G30G31
  -3559653.57848  -2709568.05147
