     2.11           OBSERVATION DATA    G (GPS)             RINEX VERSION / TYPE
teqc  2019Feb25                         20221121 12:28:42UTCPGM / RUN BY / DATE
OSX ker:10.11.6|Core i5|gcc 4.3 -m64|OSX ker:10.10+|=+      COMMENT
BIT 2 OF LLI FLAGS DATA COLLECTED UNDER A/S CONDITION       COMMENT
04712980                                                    MARKER NAME
2980                                                        MARKER NUMBER
-Unknown-           -Unknown-                               OBSERVER / AGENCY
0220400471          TRIMBLE R7          2.30                REC # / TYPE / VERS
-Unknown-           TRM39105.00     NONE                    ANT # / TYPE
  1449459.1010 -1709243.3672  5952442.9142                  APPROX POSITION XYZ
        0.0000        0.0000        0.0000                  ANTENNA: DELTA H/E/N
     1     1                                                WAVELENGTH FACT L1/2
    20    L1    L2    L5    L6    L7    L8    C1    P1    C2# / TYPES OF OBSERV
          P2    C5    C6    C7    C8    S1    S2    S5    S6# / TYPES OF OBSERV
          S7    S8                                          # / TYPES OF OBSERV
    30.0000                                                 INTERVAL
    15                                                      LEAP SECONDS
Forced Modulo Decimation to 30 seconds                      COMMENT
 SNR is mapped to RINEX snr flag value [0-9]                COMMENT
  L1 & L2: min(max(int(snr_dBHz/6), 0), 9)                  COMMENT
teqc edited: Beidou # 1 - 37 excluded                       COMMENT
  2009    10    25     0     0    0.0000000     GPS         TIME OF FIRST OBS
                                                            END OF HEADER
 09 10 25  0  0  0.0000000  0 10G02G04G05G10G13G23G25G29G16G07
  -6856965.33248  -5304427.89846
                  20779008.4224                                   20779002.6524
                                                                        51.0004
        41.7504
    190485.03547    154571.05145
                  23258002.9224                                   23258000.3444
                                                                        44.5004
        30.5004
 -18555656.27348 -14381790.79746
                  21643698.1884                                   21643694.3204
                                                                        50.5004
        39.7504
 -17425564.63348 -13508830.50046
                  20931322.3834                                   20931318.6484
                                                                        52.0004
        40.5004
  -8045182.27048  -6224301.78545
                  21394563.1804                                   21394558.9024
                                                                        48.0004
        34.5004
  -1059851.39546   -811804.22744
                  23750191.1724                                   23750186.0124
                                                                        41.5004
        25.5004
 -15887793.28947 -12315622.20345
                  22731009.4384                                   22731006.0704
                                                                        44.2504
        31.2504
 -14367311.48448 -11130794.08646
                  21993695.1644                                   21993692.0704
                                                                        49.7504
        38.0004
  -5528920.02046  -4271179.07843
                  23849799.5164                                   23849796.1214
                                                                        40.5004
        21.5004
  -4824152.89847  -3738821.73854
                  23883902.8594                                   23883899.9224
                                                                        43.0004
        27.5004
 09 10 25  0  0 30.0000000  0 10G02G04G05G10G13G23G25G29G16G07
  -6893244.23048  -5332697.18046
                  20772104.8754                                   20772099.1844
                                                                        52.2504
        41.0004
    210786.59447    170387.99255
                  23261867.5944                                   23261865.8714
                                                                        44.2504
        30.2504
 -18721727.41448 -14511196.88346
                  21612096.3134                                   21612091.8484
                                                                        49.5004
        40.2504
 -17574832.05548 -13625142.77746
                  20902917.7034                                   20902914.0434
                                                                        52.5004
        40.5004
  -8089434.90247  -6258784.34045
                  21386142.3284                                   21386138.1604
                                                                        47.0004
        35.0004
  -1047262.35247   -801994.51244
                  23752587.4224                                   23752581.6684
                                                                        43.0004
        24.7504
 -16020225.06647 -12418816.26645
                  22705808.8914                                   22705804.7464
                                                                        44.0004
        30.0004
 -14480042.83648 -11218636.68446
                  21972243.6094                                   21972239.9104
                                                                        50.0004
        37.5004
  -5666681.11346  -4378525.55144
                  23823584.3754                                   23823581.4344
                                                                        40.5004
        24.5004
  -5003335.96947  -3876581.03954
                  23849805.7814                                   23849804.1414
                                                                        43.2504
        27.7504
 09 10 25  0  1  0.0000000  0 10G02G04G05G10G13G23G25G29G16G07
  -6928945.86748  -5360516.66046
                  20765311.1414                                   20765305.2274
                                                                        51.7504
        41.5004
    231346.38347    186304.13755
                  23265778.3674                                   23265776.2854
                                                                        44.5004
        30.0004
 -18887368.60948 -14640267.94146
                  21580575.8754                                   21580571.8674
                                                                        49.7504
        40.0004
 -17723564.66048 -13741038.31646
                  20874614.9614                                   20874611.1804
                                                                        51.5004
        40.0004
  -8133040.73047  -6292762.92645
                  21377844.0784                                   21377839.8834
                                                                        47.5004
        34.5004
  -1034343.32847   -791927.68743
                  23755045.3524                                   23755039.7584
                                                                        43.2504
        23.5004
 -16152085.37947 -12521564.75445
                  22680716.1724                                   22680712.9224
                                                                        44.5004
        30.5004
 -14592136.81248 -11305982.62546
                  21950912.6884                                   21950908.7384
                                                                        50.0004
        37.5004
  -5803863.37946  -4485421.26644
                  23797480.4774                                   23797476.7544
                                                                        41.5004
        25.2504
  -5182153.78147  -4014992.19755
                  23815778.5004                                   23815770.4964
                                                                        44.0004
        34.0004
 09 10 25  0  1 30.0000000  0 10G02G04G05G10G13G23G25G29G16G07
  -6964073.94548  -5387889.22746
                  20758626.1644                                   20758620.7194
                                                                        52.5004
        41.5004
    252145.83247    202400.26855
                  23269736.9384                                   23269735.3244
                                                                        45.0004
        31.7504
 -19052580.40648 -14769004.41846
                  21549136.9454                                   21549133.3014
                                                                        49.7504
        40.0004
 -17871763.60548 -13856518.02046
                  20846413.5394                                   20846410.0634
                                                                        52.0004
        40.2504
  -8176003.48848  -6326240.44945
                  21369669.1094                                   21369664.8324
                                                                        48.0004
        35.0004
  -1021098.91847   -781607.29743
                  23757566.0704                                   23757559.8364
                                                                        43.0004
        22.5004
 -16283375.62547 -12623869.17244
                  22655732.6174                                   22655729.8014
                                                                        44.2504
        29.7504
 -14703594.28948 -11392832.60946
                  21929702.8914                                   21929699.4184
                                                                        50.0004
        37.5004
  -5940465.89147  -4591864.69944
                  23771485.8204                                   23771482.0864
                                                                        42.5004
        24.7504
  -5360599.88747  -4153112.34454
                  23781819.8524                                   23781816.4654
                                                                        44.5004
        28.2504
 09 10 25  0  2  0.0000000  0 10G02G04G05G10G13G23G25G29G16G07
  -5423207.76248  -4187214.52046
                  21051843.6024                                   21051838.1054
                                                                        52.7504
        41.5004
   1848613.88747   1446402.66844
                  23573533.6564                                   23573532.1764
                                                                        44.5004
        27.2504
 -17641934.38348 -13669799.68446
                  21817573.7274                                   21817569.8554
                                                                        50.2504
        40.2504
 -16444001.08248 -12743975.78546
                  21118107.5004                                   21118104.2274
                                                                        52.0004
        40.2504
  -6642902.46548  -5131616.27745
                  21661408.2114                                   21661404.1644
                                                                        48.5004
        35.5004
    567888.34047    456564.58643
                  24059940.0784                                   24059934.2504
                                                                        42.5004
        22.0004
 -14838669.42247 -11498124.86744
                  22930652.2344                                   22930649.1174
                                                                        44.0004
        29.2504
 -13238989.83648 -10251582.39146
                  22208407.8754                                   22208404.2854
                                                                        49.2504
        37.5004
  -4501062.83647  -3470252.13743
                  24045395.1414                                   24045391.0124
                                                                        42.0004
        22.5004
  -3963257.30547  -3063351.07054
                  24047727.0164                                   24047723.9344
                                                                        44.0004
        27.5004
 09 10 25  0  2 30.0000000  0 10G02G04G05G10G13G23G25G29G16G07
  -5457189.80148  -4213694.28146
                  21045377.2734                                   21045371.7274
                                                                        53.5004
        41.0004
   1869902.51247   1462660.33254
                  23577585.8054                                   23577583.8164
                                                                        44.7504
        28.0004
 -17806278.98448 -13797860.37946
                  21786300.1334                                   21786296.1054
                                                                        50.5004
        40.0004
 -16591124.76648 -12858617.62146
                  21090110.8444                                   21090107.4064
                                                                        51.2504
        40.2504
  -6684581.34448  -5164093.32845
                  21653477.0314                                   21653472.5864
                                                                        48.0004
        34.7504
    581778.16046    467387.82843
                  24062583.5394                                   24062577.4494
                                                                        40.5004
        21.5004
 -14968811.29347 -11599534.41845
                  22905886.7664                                   22905884.2934
                                                                        43.7504
        30.2504
 -13349169.03148 -10337436.31646
                  22187441.2894                                   22187438.0434
                                                                        50.2504
        37.2504
  -4636499.83646  -3575787.63743
                  24019622.2344                                   24019618.5904
                                                                        41.7504
        22.7504
  -4140960.94547  -3201821.16844
                  24013910.5554                                   24013907.9264
                                                                        43.7504
        25.7504
 09 10 25  0  3  0.0000000  0 10G02G04G05G10G13G23G25G29G16G07
  -5490604.03948  -4239731.18746
                  21039019.0164                                   21039012.8244
                                                                        53.5004
        41.5004
   1891428.36747   1479433.09844
                  23581682.5944                                   23581679.8484
                                                                        46.0004
        29.2504
 -17970191.36748 -13925584.30146
                  21755108.5784                                   21755104.5004
                                                                        50.0004
        39.7504
 -16737712.12548 -12972841.52746
                  21062216.3054                                   21062212.8794
                                                                        52.0004
        40.2504
  -6725625.40248  -5196076.08645
                  21645666.9924                                   21645662.8524
                                                                        48.0004
        34.5004
    595982.59446    478456.19543
                  24065286.3984                                   24065279.4924
                                                                        39.5004
        19.5004
 -15098380.20347 -11700497.35244
                  22881231.2274                                   22881228.4104
                                                                        44.7504
        29.7504
 -13458711.85248 -10422794.36346
                  22166596.2114                                   22166592.7194
                                                                        50.0004
        37.0004
  -4771355.25847  -3680869.96943
                  23993959.7584                                   23993956.0234
                                                                        42.2504
        22.2504
  -4318292.78147  -3338159.21554
                  23980166.0944                                   23980164.3674
                                                                        44.0004
        25.5004
 09 10 25  0  3 30.0000000  0 10G02G04G05G10G13G23G25G29G16G07
  -5523452.19148  -4265327.33246
                  21032768.2114                                   21032762.6884
                                                                        52.7504
        41.2504
   1913193.93847   1496394.66044
                  23585823.6254                                   23585821.0704
                                                                        46.0004
        29.5004
 -18133668.74248 -14052969.25446
                  21723999.5314                                   21723995.7734
                                                                        50.5004
        40.0004
 -16883761.07448 -13086645.89846
                  21034424.2894                                   21034420.5784
                                                                        52.0004
        40.7504
  -6766034.02747  -5227563.05145
                  21637976.8054                                   21637972.8794
                                                                        47.5004
        34.7504
    610500.00046    489768.34043
                  24068049.0084                                   24068043.2034
                                                                        40.7504
        22.0004
 -15227373.27747 -11801011.21945
                  22856684.3444                                   22856681.5474
                                                                        44.5004
        30.0004
 -13567616.49248 -10507655.10946
                  22145872.1414                                   22145868.5394
                                                                        49.7504
        37.5004
  -4905625.89147  -3785496.53543
                  23968409.7504                                   23968404.7114
                                                                        43.0004
        22.7504
  -4495242.53547  -3476039.95744
                  23946491.7894                                   23946489.0474
                                                                        44.0004
        26.7504
 09 10 25  0  4  0.0000000  0 10G02G04G05G10G13G23G25G29G16G07
  -5555737.53948  -4290485.62946
                  21026625.0704                                   21026619.5824
                                                                        52.5004
        41.2504
   1935190.55547   1513535.48844
                  23590008.9924                                   23590006.2854
                                                                        45.7504
        29.5004
 -18296710.86748 -14180015.03946
                  21692973.8524                                   21692970.1254
                                                                        50.5004
        40.2504
 -17029271.71948 -13200030.81246
                  21006734.6174                                   21006730.8954
                                                                        51.7504
        40.5004
  -6805811.68748  -5258558.62945
                  21630407.5004                                   21630404.0984
                                                                        48.5004
        34.2504
    625326.52346    501321.40643
                  24070870.3914                                   24070864.7544
                                                                        41.7504
        22.7504
 -15355791.19147 -11901076.87544
                  22832247.0004                                   22832243.7584
                                                                        45.5004
        28.7504
 -13675882.82848 -10592018.48846
                  22125269.7974                                   22125266.5044
                                                                        49.2504
        37.2504
  -5039311.39846  -3889667.02343
                  23942969.9694                                   23942965.1764
                                                                        41.0004
        21.2504
  -4671817.26247  -3613630.31644
                  23912890.4844                                   23912887.4264
                                                                        44.2504
        27.2504
 09 10 25  0  4 30.0000000  0 10G02G04G05G10G13G23G25G29G16G07
  -5587459.46948  -4315203.55546
                  21020588.3364                                   21020582.6684
                                                                        52.5004
        41.2504
   1957411.781 7
                  23594238.031
                                                                        46.000

 -18459317.83648 -14306721.74246
                  21662031.0314                                   21662027.2274
                                                                        50.5004
        41.0004
 -17174244.03148 -13312996.25846
                  20979147.4224                                   20979143.7074
                                                                        52.0004
        40.5004
  -6844961.53947  -5289064.98845
                  21622957.8594                                   21622953.9224
                                                                        47.7504
        34.0004
    640457.86747    513112.03144
                  24073749.8364                                   24073744.4694
                                                                        42.5004
        25.0004
 -15483634.21547 -12000694.69144
                  22807919.1094                                   22807916.3634
                                                                        45.5004
        29.5004
 -13783512.37148 -10675885.66046
                  22104788.6804                                   22104785.0004
                                                                        48.7504
        38.0004
  -5172412.38346  -3993382.18443
                  23917642.2894                                   23917637.3984
                                                                        41.5004
        20.7504
  -4848012.46147  -3750924.90244
                  23879361.5084                                   23879358.2344
                                                                        43.2504
        27.2504
 09 10 25  0  5  0.0000000  0 10G02G04G05G10G13G23G25G29G16G07
  -5618623.84448  -4339487.28546
                  21014657.5864                                   21014652.1604
                                                                        52.7504
        41.0004
   1979860.35247   1548227.68454
                  23598509.7274                                   23598508.2424
                                                                        45.5004
        29.0004
 -18621489.74648 -14433089.56246
                  21631170.6724                                   21631166.6334
                                                                        51.0004
        40.7504
 -17318678.48848 -13425542.74646
                  20951662.1644                                   20951658.7464
                                                                        51.7504
        40.2504
  -6883487.21948  -5319084.97745
                  21615626.3594                                   21615622.4104
                                                                        48.2504
        34.2504
    655889.45346    525136.57444
                  24076686.2114                                   24076680.8674
                                                                        41.0004
        24.0004
 -15610901.80947 -12099863.73445
                  22783700.7274                                   22783697.2424
                                                                        46.0004
        30.2504
 -13890506.02048 -10759257.34046
                  22084428.1724                                   22084425.0274
                                                                        49.7504
        37.5004
  -5304928.20746  -4096641.30543
                  23892424.7664                                   23892420.1054
                                                                        41.2504
        21.0004
  -5023827.79746  -3887924.01644
                  23845904.5234                                   23845901.9734
                                                                        41.0004
        27.0004
 09 10 25  0  5 30.0000000  0 10G02G04G05G10G13G23G25G29G16G07
  -5649232.28948  -4363337.87946
                  21008833.0004                                   21008827.3204
                                                                        53.0004
        41.0004
   2002530.47747   1565776.05554
                  23602824.4064                                   23602822.6644
                                                                        45.2504
        28.5004
 -18783224.44948 -14559116.69146
                  21600393.5784                                   21600389.3524
                                                                        51.5004
        40.5004
 -17462575.21148 -13537671.02346
                  20924280.2894                                   20924276.9494
                                                                        51.2504
        41.0004
  -6921391.55148  -5348621.29345
                  21608413.8524                                   21608410.2544
                                                                        49.5004
        34.5004
    671619.06646    537393.45743
                  24079679.2814                                   24079673.8714
                                                                        41.0004
        22.7504
 -15737594.50847 -12198585.48044
                  22759592.0704                                   22759588.5274
                                                                        46.2504
        29.5004
 -13996863.03548 -10842132.93746
                  22064189.5474                                   22064185.9884
                                                                        49.2504
        37.2504
  -5436857.46146  -4199443.26243
                  23867319.2274                                   23867314.6724
                                                                        41.0004
        21.2504
  -5199258.79747  -4024623.40244
                  23812521.0004                                   23812518.1334
                                                                        42.0004
        28.5004
 09 10 25  0  6  0.0000000  0 10G02G04G05G10G13G23G25G29G16G07
  -5679286.99248  -4386757.27346
                  21003113.9534                                   21003108.3954
                                                                        52.7504
        41.2504
   2025423.50047   1583615.84444
                  23607179.6564                                   23607177.9924
                                                                        44.5004
        28.5004
 -18944524.77348 -14684807.14846
                  21569700.3834                                   21569698.4654
                                                                        51.2504
        40.5004
 -17605930.89548 -13649377.11346
                  20897000.8134                                   20896997.5274
                                                                        50.7504
        40.5004
  -6958674.46548  -5377672.32045
                  21601318.7974                                   21601314.6724
                                                                        49.0004
        33.7504
    687642.18446    549878.82843
                  24082728.8054                                   24082723.7544
                                                                        40.7504
        22.2504
 -15863710.07447 -12296857.20745
                  22735593.2424                                   22735589.4614
                                                                        46.5004
        30.0004
 -14102583.60548 -10924512.61346
                  22044071.1644                                   22044067.6484
                                                                        49.2504
        38.0004
  -5568199.62546  -4301787.88743
                  23842326.2274                                   23842322.2154
                                                                        41.2504
        20.5004
  -5374309.62547  -4159211.27154
                  23779212.8914                                   23779209.2424
                                                                        43.2504
        28.0004
 09 10 25  0  6 30.0000000  0 10G02G04G05G10G13G23G25G29G16G07
  -5708789.52348  -4409746.27046
                  20997499.7814                                   20997493.8984
                                                                        52.5004
        40.5004
   2048532.56647   1601623.52744
                  23611577.0784                                   23611574.6294
                                                                        44.5004
        28.7504
 -19105383.96948 -14806808.40457
                  21539090.3914                                   21539080.0744
                                                                        50.5004
        43.7504
 -17748748.00848 -13760664.46146
                  20869824.7974                                   20869821.4614
                                                                        51.5004
        40.5004
  -6995341.35548  -5406243.88745
                  21594341.3284                                   21594337.0004
                                                                        49.0004
        34.7504
    703957.05946    562591.85543
                  24085832.7734                                   24085827.8404
                                                                        40.5004
        20.7504
 -15989248.73047 -12394679.90244
                  22711703.8364                                   22711700.5984
                                                                        46.2504
        29.5004
 -14207667.21548 -11006395.96546
                  22024074.4384                                   22024070.9574
                                                                        49.0004
        37.5004
  -5698953.11746  -4403673.64543
                  23817443.9304                                   23817440.5204
                                                                        40.7504
        21.5004
  -5548964.85247  -4294397.03954
                  23745976.7504                                   23745973.2074
                                                                        44.0004
        29.5004
 09 10 25  0  7  0.0000000  0 10G02G04G05G10G13G23G25G29G16G07
  -5737744.52048  -4432309.39846
                  20991990.3364                                   20991985.0514
                                                                        53.0004
        41.2504
   2071854.37947   1619796.70344
                  23616014.4924                                   23616012.2544
                                                                        44.0004
        27.0004
 -19265798.84448 -14931805.07056
                  21508562.8984                                   21508559.4224
                                                                        51.0004
        41.2504
 -17891019.18448 -13870042.11356
                  20842750.6884                                   20842747.6684
                                                                        51.5004
        41.0004
  -7031395.04348  -5434337.71945
                  21587480.6564                                   21587476.3914
                                                                        50.0004
        35.0004
    720558.08246    575527.58643
                  24088992.6094                                   24088986.5394
                                                                        40.5004
        19.7504
 -16114210.16847 -12491402.77354
                  22687925.0394                                   22687921.8324
                                                                        46.0004
        29.5004
 -14312115.03148 -11087783.87946
                  22004198.7734                                   22004195.1134
                                                                        49.2504
        37.0004
  -5829118.11347  -4505100.85243
                  23792674.1254                                   23792671.0354
                                                                        42.0004
        22.5004
  -5723231.71147  -4430188.59444
                  23712813.3984                                   23712809.7034
                                                                        44.0004
        29.2504
 09 10 25  0  7 30.0000000  0 10G02G04G05G10G13G23G25G29G16G07
  -5766151.86748  -4454445.62546
                  20986584.9384                                   20986579.9774
                                                                        51.7504
        40.5004
   2095386.60947   1638133.48844
                  23620492.7734                                   23620490.5474
                                                                        43.5004
        26.7504
 -19425777.95348 -15056464.64846
                  21478120.3134                                   21478116.7664
                                                                        51.5004
        40.5004
 -18032749.45748 -13980480.80946
                  20815779.8674                                   20815776.5664
                                                                        51.5004
        40.7504
  -7066837.10248  -5461954.92245
                  21580736.1724                                   21580732.2734
                                                                        49.0004
        35.0004
    737442.67646    588684.15243
                  24092205.2734                                   24092199.3404
                                                                        39.2504
        18.5004
 -16238591.91847 -12588323.60544
                  22664255.9614                                   22664252.4264
                                                                        46.2504
        29.5004
 -14415926.07848 -11168675.59846
                  21984444.3364                                   21984440.6884
                                                                        49.7504
        37.2504
  -5958693.31247  -4606068.60243
                  23768017.6724                                   23768013.7034
                                                                        42.0004
        22.5004
  -5897107.66447  -4565676.21944
                  23679725.8594                                   23679722.7034
                                                                        43.0004
        28.5004
 09 10 25  0  8  0.0000000  0 10G02G04G05G10G13G23G25G29G16G07
  -5794011.76248  -4476155.26246
                  20981283.9774                                   20981279.0864
                                                                        52.2504
        40.7504
   2119129.32047   1656634.30944
                  23625011.1414                                   23625008.6414
                                                                        44.2504
        27.5004
 -19585310.68048 -15180775.11746
                  21447761.7504                                   21447757.6524
                                                                        50.7504
        40.5004
 -18173936.37948 -14090496.71946
                  20788912.9224                                   20788909.6374
                                                                        52.0004
        40.5004
  -7101668.14548  -5489096.00445
                  21574108.0234                                   21574103.9024
                                                                        49.2504
        34.2504
    754611.06646    602062.26643
                  24095473.1644                                   24095466.9804
                                                                        40.2504
        19.2504
 -16362391.46547 -12684790.25844
                  22640697.1094                                   22640693.8674
                                                                        44.5004
        29.5004
 -14519098.47748 -11249069.68446
                  21964811.4144                                   21964808.0984
                                                                        48.0004
        38.0004
  -6087675.12146  -4706573.81243
                  23743472.7344                                   23743469.6684
                                                                        41.2504
        23.0004
  -6070586.21147  -4700853.64544
                  23646713.4694                                   23646710.2544
                                                                        42.7504
        28.5004
 09 10 25  0  8 30.0000000  0 10G02G04G05G10G13G23G25G29G16G07
  -5821325.87548  -4497437.94146
                  20976085.4384                                   20976079.9144
                                                                        52.2504
        41.2504
   2143077.50047   1675295.28144
                  23629568.6484                                   23629565.8244
                                                                        42.5004
        28.5004
 -19744402.75048 -15304743.18746
                  21417487.8914                                   21417483.5864
                                                                        51.0004
        41.0004
 -18314577.94948 -14200086.57046
                  20762149.3204                                   20762145.7734
                                                                        51.7504
        40.7504
  -7135893.69548  -5515765.54745
                  21567595.3054                                   21567591.1414
                                                                        48.5004
        34.0004
    772056.22747    615655.89843
                  24098792.1094                                   24098786.2664
                                                                        42.5004
        22.0004
 -16485613.25047 -12780807.87144
                  22617249.2584                                   22617246.3714
                                                                        45.2504
        29.2504
 -14621634.75848 -11328968.10246
                  21945299.1334                                   21945296.0274
                                                                        48.7504
        38.0004
  -6216065.20346  -4806617.89543
                  23719040.7814                                   23719037.6024
                                                                        41.0004
        23.5004
  -6243669.57846  -4835723.54344
                  23613776.8444                                   23613773.0944
                                                                        40.5004
        27.2504
 09 10 25  0  9  0.0000000  0  9G02G04G05G10G13G25G29G16G07
  -5848099.37948  -4518300.15246
                  20970990.5864                                   20970985.3954
                                                                        52.0004
        40.7504
   2167229.51647   1694114.89844
                  23634163.8134                                   23634161.6564
                                                                        42.7504
        27.5004
 -19903049.42248 -15428363.92246
                  21387298.3754                                   21387294.4024
                                                                        50.0004
        41.0004
 -18454677.11348 -14309255.11746
                  20735489.5394                                   20735486.0784
                                                                        51.0004
        40.7504
  -7169513.74648  -5541962.92245
                  21561197.6174                                   21561193.8634
                                                                        48.5004
        33.0004
 -16608250.17647 -12876368.19544
                  22593911.3284                                   22593908.0944
                                                                        45.2504
        29.7504
 -14723533.24248 -11408369.59046
                  21925908.8834                                   21925905.3834
                                                                        48.5004
        38.0004
  -6343861.30546  -4906199.15244
                  23694722.0784                                   23694718.6604
                                                                        41.2504
        24.5004
  -6416354.38746  -4970283.48044
                  23580915.4774                                   23580912.5044
                                                                        40.7504
        26.5004
 09 10 25  0  9 30.0000000  0  9G02G04G05G10G13G25G29G16G07
  -5874332.62948  -4538606.92257
                  20965998.6564                                   20965992.8014
                                                                        52.0004
        43.2504
   2191584.40247   1713092.64144
                  23638798.6414                                   23638796.4574
                                                                        42.7504
        26.0004
 -20061251.27048 -15551639.35946
                  21357194.4064                                   21357190.2894
                                                                        49.5004
        40.7504
 -18594230.16048 -14417998.80946
                  20708934.0474                                   20708930.8874
                                                                        51.5004
        40.7504
  -7202530.67248  -5567690.51245
                  21554914.5394                                   21554910.4774
                                                                        48.5004
        33.7504
 -16730304.22747 -12971475.00845
                  22570685.3754                                   22570682.0124
                                                                        46.0004
        30.0004
 -14824793.16048 -11487273.72746
                  21906639.8204                                   21906636.3954
                                                                        49.0004
        37.7504
  -6471061.07046  -5005315.76244
                  23670516.8054                                   23670513.0474
                                                                        41.0004
        25.0004
  -6588635.25447  -5104528.56244
                  23548132.2344                                   23548128.6604
                                                                        42.0004
        27.5004
 09 10 25  0 10  0.0000000  0  9G02G04G05G10G13G25G29G16G07
  -5900023.39848  -4558625.34046
                  20961109.7344                                   20961104.2154
                                                                        52.5004
        40.7504
   2216140.66447   1732226.99644
                  23643472.0084                                   23643469.6804
                                                                        42.7504
        28.7504
 -20219001.89148 -15674562.73046
                  21327175.8594                                   21327172.7114
                                                                        50.0004
        40.5004
 -18733231.41848 -14525589.61757
                  20682483.1804                                   20682479.7074
                                                                        52.0004
        43.0004
  -7234947.93748  -5592952.52745
                  21548746.9454                                   21548743.6454
                                                                        49.0004
        33.2504
 -16851772.91847 -13066126.31645
                  22547570.5944                                   22547566.8594
                                                                        45.7504
        30.0004
 -14925411.84848 -11565678.01246
                  21887493.2584                                   21887489.5164
                                                                        49.0004
        37.0004
  -6597661.81647  -5103965.55544
                  23646425.4774                                   23646422.0004
                                                                        42.5004
        25.2504
  -6760509.05147  -5238456.51644
                  23515426.1954                                   23515422.7934
                                                                        42.2504
        27.0004
 09 10 25  0 10 30.0000000  0  9G02G04G05G10G13G25G29G16G07
  -5925170.94148  -4578220.59846
                  20956323.6954                                   20956318.4304
                                                                        52.0004
        40.7504
   2240901.06647   1751520.63744
                  23648184.2194                                   23648181.8984
                                                                        44.2504
        28.5004
 -20376293.50848 -15797127.02046
                  21297243.8134                                   21297240.3754
                                                                        49.2504
        40.5004
 -18871677.17648 -14633469.44146
                  20656137.5474                                   20656134.6524
                                                                        50.7504
        40.5004
  -7266755.73448  -5617737.27745
                  21542694.1414                                   21542690.6294
                                                                        49.0004
        33.2504
 -16972651.20347 -13160318.29744
                  22524569.3364                                   22524566.1294
                                                                        45.7504
        29.7504
 -15025385.16047 -11643579.40646
                  21868468.9384                                   21868464.8984
                                                                        47.2504
        37.2504
  -6723658.09046  -5202144.45344
                  23622449.4064                                   23622445.8914
                                                                        41.5004
        26.0004
  -6931966.93746  -5372059.60544
                  23482798.3054                                   23482794.3324
                                                                        41.5004
        27.7504
 09 10 25  0 11  0.0000000  0  9G02G04G05G10G13G25G29G16G07
  -5949778.60948  -4597395.32446
                  20951641.0634                                   20951635.6914
                                                                        51.5004
        41.0004
   2265860.91047   1770969.39844
                  23652934.4534                                   23652931.6334
                                                                        45.0004
        27.5004
 -20533129.48048 -15919336.26646
                  21267398.6644                                   21267395.3714
                                                                        50.2504
        40.7504
 -19009568.70748 -14740917.66046
                  20629898.1484                                   20629894.9344
                                                                        52.0004
        41.0004
  -7297962.43048  -5642053.61745
                  21536755.4224                                   21536751.3244
                                                                        49.2504
        33.2504
 -17092936.24647 -13254046.98845
                  22501679.5634                                   22501677.1054
                                                                        46.2504
        31.2504
 -15124714.04748 -11720978.57446
                  21849567.1094                                   21849563.4614
                                                                        48.0004
        37.5004
  -6849049.94547  -5299852.28944
                  23598587.7274                                   23598584.2664
                                                                        42.0004
        26.0004
  -7103010.33647  -5505340.24244
                  23450249.8444                                   23450246.4494
                                                                        43.7504
        29.2504
 09 10 25  0 11 30.0000000  0  9G02G04G05G10G13G25G29G16G07
  -4398432.61348  -3388554.39546
                  21246852.5704                                   21246846.8134
                                                                        51.7504
        40.7504
   3866433.35547   3018168.52044
                  23957513.4534                                   23957510.0204
                                                                        44.2504
        26.2504
 -19114090.53548 -14812780.44057
                  21537433.0234                                   21537427.4614
                                                                        51.0004
        44.2504
 -17571485.46548 -13620334.15646
                  20903556.8204                                   20903554.6724
                                                                        52.0004
        40.5004
  -5753154.62548  -4438306.98845
                  21830721.6884                                   21830718.2624
                                                                        49.0004
        34.0004
 -15637209.29347 -12119714.25845
                  22778694.8914                                   22778692.8204
                                                                        46.7504
        30.7504
 -13647979.78948 -10570276.66446
                  22130580.2194                                   22130576.9024
                                                                        49.2504
        37.7504
  -5398417.00847  -4169488.91044
                  23874633.9064                                   23874630.6254
                                                                        42.0004
        24.0004
  -5698214.00447  -4410693.37944
                  23717574.0314                                   23717569.9494
                                                                        43.5004
        29.7504
 09 10 25  0 12  0.0000000  0  9G02G04G05G10G13G25G29G16G07
  -4421978.89548  -3406902.52746
                  21242372.1254                                   21242366.7774
                                                                        51.2504
        41.0004
   3891776.58247   3037917.42644
                  23962334.3054                                   23962332.2814
                                                                        43.0004
        25.0004
 -19270022.24248 -14934284.77746
                  21507759.6804                                   21507755.9844
                                                                        50.5004
        41.2504
 -17708276.39848 -13726924.78546
                  20877526.6884                                   20877523.6564
                                                                        52.0004
        41.5004
  -5783180.62948  -4461704.35245
                  21825008.8054                                   21825005.1994
                                                                        49.2504
        34.0004
 -15756320.78947 -12212528.34845
                  22756028.6644                                   22756026.0744
                                                                        46.0004
        30.5004
 -13746031.52748 -10646680.72746
                  22111921.8054                                   22111918.3674
                                                                        48.5004
        38.5004
  -5522609.03146  -4266261.85243
                  23851001.5634                                   23850997.1564
                                                                        41.5004
        23.0004
  -5868430.82447  -4543329.65244
                  23685181.9064                                   23685178.8094
                                                                        44.0004
        29.0004
 09 10 25  0 12 30.0000000  0  9G02G04G05G10G13G25G29G16G07
  -4444999.83648  -3424841.49246
                  21237992.0474                                   21237986.6684
                                                                        51.2504
        40.5004
   3917302.37947   3057807.70744
                  23967191.7894                                   23967189.7584
                                                                        42.5004
        26.0004
 -19425507.35548 -15055443.52746
                  21478173.1484                                   21478169.8594
                                                                        50.0004
        41.0004
 -17844514.93748 -13833083.32046
                  20851600.2344                                   20851597.0864
                                                                        52.0004
        41.0004
  -5812620.06648  -4484643.93445
                  21819406.5314                                   21819402.8834
                                                                        50.0004
        34.0004
 -15874849.07447 -12304889.18445
                  22733474.6484                                   22733472.6724
                                                                        46.0004
        31.5004
 -13843447.12948 -10722589.02346
                  22093384.2344                                   22093380.6484
                                                                        48.0004
        38.0004
  -5646202.08246  -4362568.05943
                  23827482.0314                                   23827477.8094
                                                                        41.7504
        22.5004
  -6038234.77047  -4675644.89844
                  23652869.5084                                   23652867.0984
                                                                        42.0004
        28.0004
 09 10 25  0 13  0.0000000  0  9G02G04G05G10G13G25G29G16G07
  -4467497.77048  -3442372.29346
                  21233710.5474                                   21233705.4454
                                                                        51.5004
        40.2504
   3943007.89147   3077838.06644
                  23972084.2274                                   23972081.6254
                                                                        43.5004
        28.0004
 -19580539.91448 -15176248.42646
                  21448671.4774                                   21448669.0204
                                                                        50.7504
        41.0004
 -17980209.19548 -13938819.64846
                  20825779.0864                                   20825776.2344
                                                                        52.5004
        40.7504
  -5841478.36748  -4507130.41845
                  21813914.6024                                   21813910.9184
                                                                        49.2504
        33.2504
 -15992788.33247 -12396788.48045
                  22711030.6884                                   22711028.3674
                                                                        46.5004
        31.0004
 -13940228.36748 -10798002.90246
                  22074967.0164                                   22074964.2544
                                                                        48.5004
        38.0004
  -5769197.02046  -4458408.17643
                  23804076.9224                                   23804071.8364
                                                                        40.7504
        22.0004
  -6207622.28146  -4807634.62944
                  23620635.7114                                   23620632.4884
                                                                        41.0004
        27.0004
 09 10 25  0 13 30.0000000  0  9G02G04G05G10G13G25G29G16G07
  -4489477.49248  -3459499.59446
                  21229528.4534                                   21229522.9734
                                                                        51.0004
        40.5004
   3968889.59047   3098005.60544
                  23977009.4064                                   23977006.9264
                                                                        45.7504
        29.0004
 -19735120.79748 -15296700.95746
                  21419255.5784                                   21419252.6454
                                                                        51.0004
        41.0004
 -18115353.82048 -14044126.80946
                  20800061.5944                                   20800058.3794
                                                                        52.5004
        41.2504
  -5869760.33648  -4529168.38345
                  21808532.5704                                   21808528.5824
                                                                        48.5004
        33.2504
 -16110146.21547 -12488236.09845
                  22688698.6484                                   22688695.4494
                                                                        47.0004
        31.5004
 -14036376.11348 -10872923.24646
                  22056671.1094                                   22056667.6914
                                                                        48.5004
        37.7504
  -5891593.47346  -4553781.96543
                  23780785.4384                                   23780779.9774
                                                                        40.7504
        21.7504
  -6376594.31246  -4939300.88344
                  23588481.0784                                   23588478.0084
                                                                        41.2504
        28.0004
 09 10 25  0 14  0.0000000  0  9G02G04G05G10G13G25G29G16G07
  -4510939.73448  -3476223.48046
                  21225443.9694                                   21225438.8364
