     2.11           OBSERVATION DATA    G (GPS)             RINEX VERSION / TYPE
teqc  2019Feb25                         20221121 12:28:05UTCPGM / RUN BY / DATE
OSX ker:10.11.6|Core i5|gcc 4.3 -m64|OSX ker:10.10+|=+      COMMENT
BIT 2 OF LLI FLAGS DATA COLLECTED UNDER A/S CONDITION       COMMENT
04712791                                                    MARKER NAME
2791                                                        MARKER NUMBER
-Unknown-           -Unknown-                               OBSERVER / AGENCY
0220400471          TRIMBLE R7          2.30                REC # / TYPE / VERS
-Unknown-           TRM39105.00     NONE                    ANT # / TYPE
  1449461.1956 -1709240.5290  5952443.4259                  APPROX POSITION XYZ
        0.0000        0.0000        0.0000                  ANTENNA: DELTA H/E/N
     1     1                                                WAVELENGTH FACT L1/2
    20    L1    L2    L5    L6    L7    L8    C1    P1    C2# / TYPES OF OBSERV
          P2    C5    C6    C7    C8    S1    S2    S5    S6# / TYPES OF OBSERV
          S7    S8                                          # / TYPES OF OBSERV
    30.0000                                                 INTERVAL
    15                                                      LEAP SECONDS
Forced Modulo Decimation to 30 seconds                      COMMENT
 SNR is mapped to RINEX snr flag value [0-9]                COMMENT
  L1 & L2: min(max(int(snr_dBHz/6), 0), 9)                  COMMENT
teqc edited: Beidou # 1 - 37 excluded                       COMMENT
  2009    10     6    23     9   30.0000000     GPS         TIME OF FIRST OBS
                                                            END OF HEADER
 09 10  6 23  9 30.0000000  0  8G04G12G13G17G20G23G30G31
   -112909.28158    -53776.62157
                  20556495.4064                                   20556491.9454
                                                                        51.2504
        42.0004
    -46836.25457    -22462.31655
                  22958304.3914                                   22958300.2194
                                                                        46.7504
        34.5004
   -216997.03557   -104173.24254
                  23251491.9924                                   23251488.2154
                                                                        45.5004
        29.5004
     18955.53557      6006.02055
                  23775232.9614                                   23775228.6844
                                                                        42.7504
        30.0004
       -91.58257      -620.58254
                  22982719.7734                                   22982715.4264
                                                                        45.2504
        27.7504
   -144190.84058    -71091.98055
                  22016343.4534                                   22016337.3324
                                                                        48.5004
        35.2504
   -113259.89857    -53619.97755
                  22542984.6884                                   22542981.7234
                                                                        43.0004
        30.5004
   -111905.37557    -54253.77355
                  23670561.3834                                   23670557.3634
                                                                        44.5004
        30.2504
 09 10  6 23 10  0.0000000  0  9G02G04G12G13G17G20G23G30G31
   -361483.20758   -209536.14856
                  21769140.5634                                   21769134.4844
                                                                        51.7504
        39.7504
   -215737.85248   -133902.76246
                  20536927.9534                                   20536924.3164
                                                                        50.7504
        41.5004
    -90748.71547    -56679.82045
                  22949948.0634                                   22949944.1024
                                                                        47.0004
        34.5004
   -417240.62947   -260207.36744
                  23213387.3984                                   23213382.8014
                                                                        45.7504
        28.0004
     32768.85947     16769.60945
                  23777861.7274                                   23777857.2424
                                                                        43.7504
        32.0004
     -2986.97747     -2876.71544
                  22982168.6564                                   22982164.3714
                                                                        45.0004
        27.7504
   -274762.92248   -172836.45745
                  21991496.3754                                   21991490.0044
                                                                        48.7504
        35.2504
   -215704.69547   -133447.03945
                  22523489.9384                                   22523486.8594
                                                                        43.2504
        31.0004
   -215595.19147   -135051.07044
                  23650829.9774                                   23650825.9494
                                                                        44.0004
        29.2504
 09 10  6 23 10 30.0000000  0  9G02G04G12G13G17G20G23G30G31
   -539707.61348   -348412.31646
                  21735225.6644                                   21735219.4964
                                                                        52.0004
        39.5004
   -318517.36348   -213990.68047
                  20517369.4534                                   20517366.0824
                                                                        50.0004
        42.2504
   -134651.76247    -90889.99645
                  22941593.4384                                   22941589.3054
                                                                        46.5004
        34.2504
   -617673.30547   -416388.60544
                  23175246.1884                                   23175241.9384
                                                                        46.2504
        29.2504
     46248.61747     27273.30545
                  23780426.5784                                   23780422.4304
                                                                        44.7504
        30.5004
     -6095.68047     -5299.12944
                  22981577.0784                                   22981572.3914
                                                                        45.0004
        26.5004
   -405250.01647   -274514.74246
                  21966665.5784                                   21966659.0554
                                                                        47.5004
        36.0004
   -317987.43047   -213147.77345
                  22504026.0234                                   22504023.2234
                                                                        43.2504
        30.7504
   -319204.93047   -215785.87944
                  23631113.6954                                   23631109.2704
                                                                        44.2504
        28.2504
 09 10  6 23 11  0.0000000  0  9G02G04G12G13G17G20G23G30G31
   -717640.44948   -487061.24246
                  21701366.1884                                   21701360.3244
                                                                        51.0004
        39.5004
   -420804.56248   -293694.99247
                  20497904.8834                                   20497901.2974
                                                                        52.5004
        42.0004
   -178103.84447   -124748.71945
                  22933325.0784                                   22933320.7504
                                                                        46.7504
        35.0004
   -817849.43047   -572370.06644
                  23137154.4384                                   23137150.4384
                                                                        46.0004
        27.7504
     59836.19947     37860.99645
                  23783011.7974                                   23783008.1724
                                                                        43.5004
        30.5004
     -8976.64547     -7544.04344
                  22981028.9774                                   22981024.6254
                                                                        44.2504
        26.5004
   -535207.26648   -375780.17246
                  21941935.6414                                   21941929.1844
                                                                        49.7504
        36.0004
   -419664.71947   -292376.80545
                  22484677.4454                                   22484674.6994
                                                                        44.0004
        30.7504
   -422291.43447   -296113.03944
                  23611496.9144                                   23611492.8204
                                                                        44.0004
        29.2504
 09 10  6 23 11 30.0000000  0  9G02G04G12G13G17G20G23G30G31
   -895125.60248   -625361.37146
                  21667591.5864                                   21667585.7034
                                                                        51.0004
        39.7504
   -522444.99648   -372895.36747
                  20478563.6094                                   20478559.9264
                                                                        50.7504
        42.0004
   -220952.97347   -158137.68045
                  22925171.0784                                   22925167.1374
                                                                        46.5004
        35.0004
  -1017611.49647   -728029.08244
                  23099140.8204                                   23099137.2074
                                                                        46.2504
        29.0004
     73683.65247     48651.16844
                  23785647.3834                                   23785643.5704
                                                                        44.5004
        29.7504
    -11477.98047     -9493.14144
                  22980552.9224                                   22980548.6094
                                                                        44.5004
        27.0004
   -664479.01247   -476511.44145
                  21917336.0704                                   21917330.2504
                                                                        47.0004
        35.7504
   -520582.05547   -371013.72745
                  22465474.1024                                   22465470.7974
                                                                        45.5004
        31.5004
   -524699.79746   -375911.79344
                  23592009.5864                                   23592004.7544
                                                                        41.5004
        28.5004
 09 10  6 23 12  0.0000000  0  9G02G04G12G13G17G20G23G30G31
  -1072087.22348   -763253.53146
                  21633916.9384                                   21633910.9774
                                                                        51.7504
        39.5004
   -623365.02348   -451534.39847
                  20459359.0944                                   20459355.4924
                                                                        52.2504
        42.2504
   -263127.44147   -191000.90245
                  22917145.5004                                   22917141.3094
                                                                        45.7504
        34.0004
  -1216882.96947   -883305.89544
                  23061221.0634                                   23061216.8984
                                                                        46.0004
        28.0004
     87861.91047     59699.08644
                  23788344.9304                                   23788341.4384
                                                                        43.0004
        28.0004
    -13528.58647    -11090.97744
                  22980162.5554                                   22980158.0434
                                                                        44.5004
        26.7504
   -792990.60948   -576650.32845
                  21892881.2974                                   21892874.6334
                                                                        49.0004
        35.5004
   -620665.92647   -449001.22745
                  22446428.5164                                   22446425.6484
                                                                        44.5004
        30.5004
   -626356.44147   -455124.78544
                  23572664.9144                                   23572659.9924
                                                                        43.2504
        28.0004
 09 10  6 23 12 30.0000000  0  9G02G04G12G13G17G20G23G30G31
  -1248482.54348   -900704.32846
                  21600349.6804                                   21600343.7664
                                                                        52.2504
        39.0004
   -723523.76648   -529580.14146
                  20440299.5234                                   20440295.8444
                                                                        50.7504
        41.7504
   -304588.60947   -223308.21945
                  22909255.8134                                   22909251.6294
                                                                        45.5004
        34.0004
  -1415619.04347  -1038165.09844
                  23023402.5314                                   23023398.8164
                                                                        46.0004
        28.7504
    102409.19547     71034.61744
                  23791113.5314                                   23791109.0824
                                                                        43.7504
        27.5004
    -15090.16847    -12307.75044
                  22979865.4144                                   22979861.0784
                                                                        45.2504
        26.0004
   -920700.35948   -676164.48045
                  21868578.4224                                   21868572.2074
                                                                        48.0004
        35.5004
   -719875.37947   -526307.24245
                  22427549.4144                                   22427546.3714
                                                                        44.2504
        31.7504
   -727220.51247   -533720.11744
                  23553471.1564                                   23553466.5204
                                                                        44.2504
        28.5004
 09 10  6 23 13  0.0000000  0  9G02G04G12G13G17G20G23G30G31
  -1424284.61348  -1037692.88746
                  21566895.9614                                   21566889.6564
                                                                        51.7504
        39.2504
   -822896.16048   -607013.17246
                  20421389.5474                                   20421386.0784
                                                                        50.2504
        41.7504
   -345313.17247   -255041.60245
                  22901505.9064                                   22901501.8674
                                                                        46.5004
        34.0004
  -1613792.84847  -1192586.39844
                  22985691.6804                                   22985687.5124
                                                                        46.2504
        28.2504
    117348.81647     82675.90244
                  23793956.1724                                   23793951.8284
                                                                        45.7504
        27.2504
    -16140.14547    -13125.96144
                  22979665.6484                                   22979661.4224
                                                                        45.2504
        27.7504
  -1047581.85248   -775033.19545
                  21844434.0314                                   21844427.5594
                                                                        48.0004
        35.5004
   -818185.49247   -602912.53545
                  22408841.3444                                   22408838.8834
                                                                        43.5004
        31.5004
   -827266.53546   -611678.06244
                  23534432.9384                                   23534428.5944
                                                                        41.7504
        26.7504
 09 10  6 23 13 30.0000000  0  9G02G04G12G13G17G20G23G30G31
  -1599479.80948  -1174208.56646
                  21533557.5084                                   21533551.3984
                                                                        52.0004
        40.2504
   -921470.43448   -683824.25847
                  20402631.4774                                   20402627.4024
                                                                        50.0004
        42.2504
   -385291.57447   -286193.59045
                  22893898.1484                                   22893894.1174
                                                                        45.0004
        34.2504
  -1811388.57047  -1346556.93744
                  22948090.2584                                   22948086.3524
                                                                        46.5004
        29.7504
    132689.81647     94629.88745
                  23796875.9384                                   23796871.9384
                                                                        45.2504
        31.0004
    -16668.68447    -13537.82844
                  22979564.8134                                   22979560.5554
                                                                        45.0004
        26.2504
  -1173622.40648   -873246.57045
                  21820449.7424                                   21820443.1094
                                                                        49.5004
        35.2504
   -915584.81647   -678808.16445
                  22390306.6334                                   22390304.6294
                                                                        43.5004
        30.7504
   -926483.32847   -688989.83644
                  23515552.2974                                   23515547.9614
                                                                        44.2504
        27.5004
 09 10  6 23 14  0.0000000  0  9G02G04G12G13G17G20G23G30G31
  -1774061.47748  -1310246.42246
                  21500335.6954                                   21500329.8484
                                                                        52.0004
        39.7504
  -1019241.65248   -760009.57446
                  20384026.0634                                   20384022.5824
                                                                        51.7504
        41.7504
   -424521.41847   -316762.35945
                  22886433.5084                                   22886429.3204
                                                                        47.7504
        34.0004
  -2008399.30147  -1500071.97744
                  22910600.3284                                   22910596.5354
                                                                        46.5004
        28.7504
    148434.80947    106898.64845
                  23799871.7274                                   23799868.0704
                                                                        44.5004
        31.0004
    -16673.36347    -13541.48844
                  22979563.8444                                   22979560.0004
                                                                        44.5004
        27.2504
  -1298815.89548   -970799.94545
                  21796625.6884                                   21796619.2464
                                                                        49.2504
        35.5004
  -1012068.30147   -753990.14845
                  22371947.2274                                   22371944.0664
                                                                        43.7504
        31.2504
  -1024865.39847   -765651.25844
                  23496831.1414                                   23496826.5124
                                                                        43.7504
        28.5004
 09 10  6 23 14 30.0000000  0  9G02G04G12G13G17G20G23G30G31
  -1948026.39148  -1445803.48846
                  21467231.5084                                   21467225.5004
                                                                        51.7504
        39.5004
  -1116209.33648   -835568.78146
                  20365573.8594                                   20365570.2974
                                                                        52.7504
        41.5004
   -463004.10547   -346748.87145
                  22879109.8984                                   22879106.0744
                                                                        46.5004
        35.0004
  -2204819.98847  -1653126.82444
                  22873222.7274                                   22873218.8324
                                                                        46.7504
        29.5004
    164581.90247    119480.77045
                  23802945.1254                                   23802941.2274
                                                                        45.2504
        30.7504
    -16156.22747    -13138.55544
                  22979662.3054                                   22979658.1024
                                                                        44.2504
        27.2504
  -1423160.96148  -1067692.20345
                  21772963.8594                                   21772957.3444
                                                                        48.7504
        35.5004
  -1107635.37147   -828458.02045
                  22353761.3594                                   22353758.3834
                                                                        44.5004
        31.5004
  -1122411.95747   -841661.55144
                  23478268.6254                                   23478263.9384
                                                                        43.7504
        28.2504
 09 10  6 23 15  0.0000000  0  9G02G04G12G13G17G20G23G30G31
  -2121380.13348  -1580884.30546
                  21434243.0634                                   21434237.4184
                                                                        52.2504
        40.0004
  -1212380.90648   -910507.71547
                  20347272.9454                                   20347269.0434
                                                                        51.2504
        42.0004
   -500749.10547   -376160.53545
                  22871927.5084                                   22871923.4264
                                                                        46.5004
        34.0004
  -2400655.96947  -1805726.07044
                  22835956.3674                                   22835951.5474
                                                                        45.7504
        29.0004
    181121.41047    132368.68444
                  23806091.9384                                   23806088.0204
                                                                        43.5004
        28.5004
    -15126.73847    -12336.34844
                  22979858.3364                                   22979854.6724
                                                                        43.7504
        25.0004
  -1546663.51648  -1163927.98845
                  21749462.0554                                   21749455.8874
                                                                        48.7504
        35.0004
  -1202293.77347   -902217.84045
                  22335748.3984                                   22335745.5864
                                                                        45.2504
        31.2504
  -1219130.62547   -917026.74644
                  23459863.6564                                   23459858.8484
                                                                        42.2504
        27.7504
 09 10  6 23 15 30.0000000  0  9G02G04G12G13G17G20G23G30G31
   -718696.05948   -487883.72746
                  21701164.8444                                   21701158.9534
                                                                        52.0004
        40.5004
    267665.99248    242775.59446
                  20628916.2974                                   20628912.6954
                                                                        49.5004
        41.7504
   1037662.02747    822601.39145
                  23164677.4304                                   23164673.1214
                                                                        46.0004
        34.0004
  -1020478.81247   -730263.36744
                  23098594.9454                                   23098591.1214
                                                                        45.7504
        29.5004
   1773469.78147   1373159.57444
                  24109105.6174                                   24109101.8134
                                                                        43.2504
        27.2504
   1561831.43447   1216462.13344
                  23279943.1724                                   23279939.3914
                                                                        44.0004
        25.7504
    -93899.85248    -31904.35945
                  22025913.8524                                   22025907.4494
                                                                        48.0004
        35.2504
    279378.64147    252332.12145
                  22617701.0864                                   22617697.9734
                                                                        43.2504
        31.5004
    260400.85547    235854.89144
                  23741408.6414                                   23741404.3444
                                                                        42.7504
        28.7504
 09 10  6 23 16  0.0000000  0  9G02G04G12G13G17G20G23G30G31
   -890821.81248   -622007.69946
                  21668410.4384                                   21668404.6454
                                                                        52.7504
        39.5004
    173086.33248    169077.13746
                  20610918.5394                                   20610914.6484
                                                                        49.7504
        41.2504
   1001386.09047    794334.45345
                  23157774.0704                                   23157769.9534
                                                                        46.2504
        33.0004
  -1215136.80147   -881945.01244
                  23061553.0164                                   23061548.6214
                                                                        46.0004
        29.2504
   1790786.83647   1386653.29744
                  24112402.0784                                   24112397.0664
                                                                        44.5004
        29.0004
   1563877.79347   1218056.67244
                  23280333.1564                                   23280329.0164
                                                                        43.5004
        26.2504
   -215715.38347   -126825.53945
                  22002733.0164                                   22002726.7854
                                                                        47.2504
        35.5004
    186536.79347    179987.70745
                  22600034.2344                                   22600031.3094
                                                                        43.5004
        31.0004
    165337.96946    161779.91844
                  23723318.8984                                   23723314.5984
                                                                        41.2504
        28.2504
 09 10  6 23 16 30.0000000  0  9G02G04G12G13G17G20G23G30G31
  -1062333.71548   -755653.33246
                  21635773.0474                                   21635767.2814
                                                                        52.0004
        39.0004
     79299.53948     95996.51647
                  20593071.3284                                   20593067.7664
                                                                        50.7504
        42.0004
    965838.62547    766635.15245
                  23151009.7274                                   23151005.7424
                                                                        45.2504
        33.7504
  -1409204.10247  -1033166.48444
                  23024623.2974                                   23024619.4614
                                                                        45.7504
        28.5004
   1808486.13747   1400444.95744
                  24115769.6174                                   24115765.2774
                                                                        45.5004
        29.5004
   1566426.14847   1220042.37544
                  23280818.5394                                   23280813.6994
                                                                        43.2504
        25.5004
   -336688.87147   -221090.55545
                  21979712.6804                                   21979706.1484
                                                                        47.7504
        35.7504
     94599.93447    108348.51645
                  22582539.0554                                   22582536.1334
                                                                        45.2504
        31.0004
     71099.98047     88347.71544
                  23705386.5084                                   23705381.7344
                                                                        43.7504
        28.7504
 09 10  6 23 17  0.0000000  0  9G02G04G12G13G17G20G23G30G31
  -1233236.09448   -888824.00446
                  21603251.4064                                   21603245.4924
                                                                        52.2504
        40.2504
    -13700.91848     23528.58246
                  20575373.8834                                   20575370.4144
                                                                        50.0004
        41.7504
    931010.54347    739496.34445
                  23144381.8834                                   23144377.8364
                                                                        45.2504
        33.7504
  -1602684.03947  -1183930.22744
                  22987805.8134                                   22987801.5394
                                                                        46.2504
        29.2504
   1826559.22347   1414527.92644
                  24119208.5554                                   24119204.2544
                                                                        43.7504
        28.0004
   1569467.57447   1222412.27344
                  23281396.8674                                   23281392.4924
                                                                        44.0004
        25.5004
   -456826.00448   -314703.89545
                  21956851.2344                                   21956844.6684
                                                                        49.0004
        35.5004
      3561.45347     37409.31645
                  22565215.0004                                   22565212.2544
                                                                        43.5004
        31.0004
    -22320.02047     15552.90644
                  23687609.0704                                   23687604.7274
                                                                        43.7504
        28.7504
 09 10  6 23 17 30.0000000  0  9G02G04G12G13G17G20G23G30G31
  -1403532.26248  -1021522.31646
                  21570844.9064                                   21570838.9064
                                                                        53.0004
        40.0004
   -105920.36748    -48330.76246
                  20557825.2034                                   20557821.9384
                                                                        52.0004
        41.7504
    896894.51647    712912.39545
                  23137890.1484                                   23137886.1764
                                                                        46.0004
        34.2504
  -1795577.96147  -1334236.85945
                  22951098.5784                                   22951094.7584
                                                                        47.0004
        30.0004
   1844997.96547   1428895.77044
                  24122717.5314                                   24122713.2234
                                                                        42.5004
        26.7504
   1572994.59047   1225160.53944
                  23282068.3524                                   23282063.9654
                                                                        42.7504
        25.7504
   -576130.81648   -407668.65645
                  21934148.3984                                   21934141.9184
                                                                        48.7504
        35.2504
    -86583.57847    -32833.55945
                  22548061.3284                                   22548058.2234
                                                                        46.5004
        30.7504
   -114926.76247    -56608.21144
                  23669986.7974                                   23669982.1024
                                                                        43.5004
        28.7504
 09 10  6 23 18  0.0000000  0  9G02G04G12G13G17G20G23G30G31
  -1573226.48448  -1153751.53946
                  21538553.2344                                   21538547.5944
                                                                        51.7504
        40.5004
   -197365.06648   -119586.39847
                  20540423.7034                                   20540420.4614
                                                                        53.0004
        42.0004
    863482.21947    686876.79345
                  23131532.1024                                   23131527.8444
                                                                        46.7504
        34.0004
  -1987890.35547  -1484090.59445
                  22914503.4924                                   22914498.7234
                                                                        47.2504
        31.2504
   1863794.16047   1443542.12144
                  24126294.2114                                   24126290.2274
                                                                        42.5004
        28.0004
   1576998.68047   1228280.55144
                  23282830.2664                                   23282825.9414
                                                                        42.5004
        24.5004
   -694608.70748   -499989.08245
                  21911602.5864                                   21911595.9964
                                                                        49.2504
        35.0004
   -175842.25447   -102385.71945
                  22531076.1564                                   22531072.8594
                                                                        47.0004
        31.2504
   -206726.86747   -128140.75044
                  23652517.7194                                   23652513.2344
                                                                        43.0004
        29.2504
 09 10  6 23 18 30.0000000  0  9G02G04G12G13G17G20G23G30G31
  -1742320.42648  -1285513.03146
                  21506375.5784                                   21506369.9694
                                                                        52.7504
        40.2504
   -288039.10248   -190241.48047
                  20523169.4694                                   20523165.6484
                                                                        51.0004
        42.0004
    830767.61747    661384.84445
                  23125307.0394                                   23125302.8594
                                                                        46.0004
        34.0004
  -2179621.23047  -1633491.05545
                  22878017.1644                                   22878014.0044
                                                                        46.2504
        30.5004
   1882941.67247   1458462.21944
                  24129938.3444                                   24129933.7934
                                                                        44.0004
        28.0004
   1581473.44146   1231767.38744
                  23283681.1884                                   23283677.4844
                                                                        41.7504
        25.0004
   -812262.68447   -591667.50045
                  21889213.8364                                   21889207.5514
                                                                        47.5004
        35.5004
   -264218.84447   -171250.55145
                  22514258.5394                                   22514255.2114
                                                                        47.2504
        31.5004
   -297724.09847   -199047.70744
                  23635201.5784                                   23635197.0904
                                                                        43.5004
        29.0004
 09 10  6 23 19  0.0000000  0  9G02G04G12G13G17G20G23G30G31
  -1910814.69148  -1416807.23046
                  21474312.4144                                   21474306.4574
                                                                        53.0004
        40.5004
   -377945.16448   -260298.15247
                  20506061.0554                                   20506057.5554
                                                                        52.0004
        42.0004
    798745.90247    636432.79745
                  23119213.3364                                   23119209.2584
                                                                        46.7504
        34.2504
  -2370770.99647  -1782438.92644
                  22841642.6334                                   22841638.9694
                                                                        46.0004
        29.7504
   1902435.50047   1473652.20344
                  24133647.2894                                   24133643.0744
                                                                        43.7504
        28.2504
   1586414.74246   1235617.83644
                  23284621.3444                                   23284618.3674
                                                                        41.7504
        25.5004
   -929094.44548   -682705.23045
                  21866981.1334                                   21866975.2114
                                                                        48.2504
        35.7504
   -351716.17247   -239430.27745
                  22497608.3594                                   22497605.0394
                                                                        47.5004
        31.2504
   -387921.37547   -269331.33244
                  23618037.6174                                   23618033.3714
                                                                        44.5004
        29.0004
 09 10  6 23 19 30.0000000  0  9G02G04G12G13G17G20G23G30G31
  -2078716.23848  -1547639.62146
                  21442361.7424                                   21442355.6844
                                                                        52.7504
        41.0004
   -467092.10248   -329763.25846
                  20489096.7734                                   20489092.9494
                                                                        51.5004
        41.7504
    767405.90247    612012.00045
                  23113249.4614                                   23113245.3984
                                                                        46.2504
        33.2504
  -2561344.61747  -1930937.75044
                  22805377.9224                                   22805373.5044
                                                                        46.2504
        28.7504
   1922264.14547   1489103.08244
                  24137421.2664                                   24137416.1254
                                                                        44.7504
        28.5004
   1591810.33247   1239822.23044
                  23285648.6484                                   23285644.6844
                                                                        43.0004
        26.5004
  -1045112.17648   -773108.64545
                  21844903.7734                                   21844897.5004
                                                                        48.7504
        35.2504
   -438343.53147   -306932.09045
                  22481123.7894                                   22481120.2584
                                                                        47.0004
        31.2504
   -477327.48447   -338998.44545
                  23601024.0784                                   23601019.8914
                                                                        44.7504
        30.2504
 09 10  6 23 20  0.0000000  0  9G02G04G12G13G17G20G23G30G31
  -2246026.48848  -1678011.23046
                  21410523.4774                                   21410517.7194
                                                                        52.0004
        40.5004
   -555483.50048   -398639.60946
                  20472276.2584                                   20472272.4384
                                                                        52.0004
        41.7504
    736742.16047    588118.20345
                  23107413.7974                                   23107409.8324
                                                                        46.0004
        33.5004
  -2751342.63748  -2078987.96545
                  22769222.6414                                   22769218.2344
                                                                        48.0004
        30.2504
   1942422.46547   1504810.85244
                  24141256.4534                                   24141252.1724
                                                                        43.7504
        29.0004
   1597654.95347   1244376.60244
                  23286761.0004                                   23286756.6804
                                                                        43.0004
        25.5004
  -1160318.37948   -862879.71145
                  21822980.6564                                   21822974.2624
                                                                        49.2504
        35.0004
   -524104.55147   -373758.81645
                  22464803.3444                                   22464800.5554
                                                                        46.5004
        31.0004
   -565946.15247   -408051.93044
                  23584160.0394                                   23584156.4144
                                                                        44.0004
        29.0004
 09 10  6 23 20 30.0000000  0  9G02G04G12G13G17G20G23G30G31
  -2412749.10948  -1807924.95346
                  21378797.3524                                   21378791.5514
                                                                        53.0004
        40.5004
   -643125.45348   -466932.04746
                  20455598.6334                                   20455594.8634
                                                                        52.5004
        41.5004
    706746.37947    564744.85245
                  23101705.7344                                   23101702.1414
                                                                        44.5004
        33.5004
  -2940767.91047  -2226591.93045
                  22733176.2194                                   22733171.5594
                                                                        47.7504
        30.2504
   1962902.34047   1520769.16044
                  24145153.8284                                   24145150.2344
                                                                        43.2504
        27.7504
   1603940.38747   1249274.37944
                  23287957.1094                                   23287952.2464
                                                                        42.2504
        24.2504
  -1274717.50848   -952021.89145
                  21801211.6334                                   21801204.8754
                                                                        49.7504
        35.5004
   -609005.28947   -439915.18445
                  22448647.5474                                   22448644.0514
                                                                        45.5004
        31.0004
   -653783.20747   -476496.34444
                  23567445.8984                                   23567441.5204
                                                                        42.7504
        28.2504
 09 10  6 23 21  0.0000000  0  9G02G04G12G13G17G20G23G30G31
  -2578887.15648  -1937383.18046
                  21347182.0944                                   21347176.7464
                                                                        52.7504
        40.5004
   -730023.02348   -534644.41447
                  20439062.5554                                   20439058.9344
                                                                        49.5004
        42.2504
    677411.73447    541886.69145
                  23096123.8364                                   23096119.7734
                                                                        44.7504
        33.0004
  -3129622.80947  -2373751.59045
                  22697237.6484                                   22697233.7704
                                                                        47.2504
        30.2504
   1983695.92247   1536971.90244
                  24149110.4064                                   24149107.1644
                                                                        42.7504
        27.5004
   1610659.44146   1254509.93044
                  23289234.5864                                   23289230.7894
                                                                        41.5004
        25.0004
  -1388314.48048  -1040539.03146
                  21779594.7894                                   21779588.2074
                                                                        50.5004
        36.0004
   -693051.33247   -505405.57845
                  22432654.2504                                   22432650.9924
                                                                        43.7504
        31.7504
   -740843.82047   -544335.75844
                  23550878.8134                                   23550873.9804
                                                                        42.0004
        28.7504
 09 10  6 23 21 30.0000000  0  9G02G04G12G13G17G20G23G30G31
  -2744441.44548  -2066386.52746
                  21315678.3754                                   21315672.4804
                                                                        52.5004
        40.5004
   -816179.23848   -601779.16447
                  20422667.6484                                   20422663.8834
                                                                        52.0004
        42.5004
    648733.03547    519539.64845
                  23090666.5474                                   23090663.1054
                                                                        43.7504
        33.0004
  -3317906.96147  -2520466.61345
                  22661408.4224                                   22661404.6174
                                                                        47.7504
        30.0004
   2004798.57847   1553415.48844
                  24153126.2734                                   24153122.3404
                                                                        42.5004
        26.0004
   1617807.32046   1260079.79743
                  23290595.4844                                   23290590.8324
                                                                        40.7504
        23.0004
  -1501110.90648  -1128432.32046
                  21758130.1484                                   21758123.9344
                                                                        49.5004
        36.5004
   -776246.10947   -570232.73845
                  22416822.7664                                   22416819.5124
                                                                        47.5004
        32.0004
   -827130.95747   -611572.43744
                  23534458.6954                                   23534454.3134
                                                                        43.2504
        29.2504
 09 10  6 23 22  0.0000000  0  9G02G04G12G13G17G20G23G30G31
  -2909417.28548  -2194939.13746
                  21284284.3914                                   21284278.4224
                                                                        53.0004
        40.5004
   -901601.66448   -668342.14847
                  20406412.2664                                   20406408.6294
                                                                        52.5004
        42.5004
    620700.51247    497696.14845
                  23085332.2814                                   23085328.1994
                                                                        46.0004
        33.5004
  -3505624.60947  -2666740.29745
                  22625687.5784                                   22625683.1684
                                                                        47.7504
        30.5004
   2026200.67247   1570092.45744
                  24157199.0474                                   24157194.7154
                                                                        44.0004
        27.0004
   1625374.09446   1265976.01244
                  23292035.4064                                   23292031.1254
                                                                        40.5004
        24.2504
  -1613113.32848  -1215706.89546
                  21736816.7894                                   21736810.5704
                                                                        50.0004
        36.0004
   -858597.14547   -634402.39845
                  22401151.5164                                   22401148.6844
                                                                        47.5004
        31.0004
   -912652.15247   -678212.29744
                  23518184.2194                                   23518180.0004
                                                                        44.2504
        29.0004
 09 10  6 23 22 30.0000000  0  8G02G04G12G13G20G23G30G31
  -3073814.60948  -2323040.97746
                  21253000.3984                                   21252995.1724
                                                                        53.0004
        40.5004
   -986292.23848   -734334.80147
                  20390296.1564                                   20390292.2154
                                                                        52.5004
        42.0004
    593310.11747    476353.00045
                  23080119.5784                                   23080115.9694
                                                                        46.0004
        33.2504
  -3692775.01647  -2812572.25845
                  22590073.8444                                   22590070.3284
                                                                        46.5004
        30.2504
   1633355.70346   1272195.39544
                  23293553.6094                                   23293550.0204
                                                                        41.5004
        24.5004
  -1724323.21148  -1302363.94545
                  21715654.1884                                   21715647.5514
                                                                        50.0004
        35.5004
   -940106.53947   -697916.21145
                  22385641.1644                                   22385637.6294
                                                                        47.0004
        30.0004
   -997409.68447   -744257.10544
                  23502055.3834                                   23502051.0824
                                                                        44.2504
        29.0004
 09 10  6 23 23  0.0000000  0  8G02G04G12G13G20G23G30G31
  -3237636.39548  -2450694.32046
                  21221826.5234                                   21221820.6524
                                                                        53.0004
        40.5004
  -1070255.98048   -799761.05146
                  20374318.3524                                   20374314.4734
                                                                        51.7504
        41.7504
    566554.81347    455504.75045
                  23075028.4454                                   23075024.5394
                                                                        46.2504
        33.5004
  -3879358.70347  -2957962.17245
                  22554568.1884                                   22554564.2734
                                                                        46.5004
        31.0004
   1641744.92646   1278732.43044
                  23295150.2504                                   23295146.9884
                                                                        39.7504
        26.2504
  -1834744.51248  -1388406.47345
                  21694641.7424                                   21694635.4884
                                                                        50.0004
        35.5004
  -1020780.03147   -760778.60245
                  22370289.0314                                   22370286.1134
                                                                        47.0004
        31.5004
  -1081408.87947   -809711.01644
                  23486071.0084                                   23486066.6134
                                                                        42.7504
        29.7504
 09 10  6 23 23 30.0000000  0  8G02G04G12G13G20G23G30G31
  -1825454.59848  -1350292.90646
                  21490555.7734                                   21490549.8634
                                                                        52.2504
        40.2504
    421929.45748    362980.78147
                  20658271.9304                                   20658268.1764
                                                                        52.0004
        42.2504
   2115853.13347   1662750.19145
                  23369850.2814                                   23369846.2074
                                                                        46.0004
        33.2504
  -2489946.53147  -1875303.10545
                  22818964.3204                                   22818960.7894
                                                                        47.0004
        30.2504
   3225959.38346   2513185.21144
                  23596616.9454                                   23596613.0004
                                                                        40.7504
        25.0004
   -368952.82848   -246231.25046
                  21973572.4844                                   21973566.4694
                                                                        49.5004
        36.2504
    474804.64147    404612.09445
                  22654889.5474                                   22654886.4264
                                                                        47.0004
        31.2504
    410773.08647    353028.19544
                  23770023.8364                                   23770018.8134
                                                                        42.0004
        28.7504
 09 10  6 23 24  0.0000000  0  8G02G04G12G13G20G23G30G31
  -1988115.39848  -1477041.50846
                  21459602.3204                                   21459596.4304
                                                                        52.5004
        40.5004
    339421.35548    298688.66447
                  20642571.1254                                   20642567.4574
                                                                        52.5004
        42.5004
   2090363.95347   1642888.55145
                  23364999.8914                                   23364995.8244
                                                                        46.5004
        33.5004
  -2675384.82447  -2019800.03545
                  22783676.6174                                   22783672.0004
                                                                        47.0004
        30.2504
   3235160.22746   2520354.65244
                  23598367.4384                                   23598363.8714
                                                                        41.2504
        26.2504
   -477791.66048   -331040.72745
                  21952861.1174                                   21952854.9964
                                                                        50.2504
        35.5004
    395804.62148    343053.64145
                  22639856.4384                                   22639853.2424
                                                                        48.0004
        31.0004
    328293.22347    288758.11344
                  23754328.1724                                   23754323.4304
                                                                        43.5004
        28.2504
 09 10  6 23 24 30.0000000  0  8G02G04G12G13G20G23G30G31
  -2150199.75448  -1603340.98846
                  21428758.7814                                   21428752.8554
                                                                        52.5004
        41.2504
    257634.65648    234958.83647
                  20627007.6724                                   20627003.8954
                                                                        51.2504
        42.2504
   2065497.93847   1623512.41445
                  23360267.8364                                   23360264.2734
                                                                        45.0004
        33.0004
  -2860253.71947  -2163853.55945
                  22748497.1334                                   22748493.1054
                                                                        47.5004
        31.2504
   3244757.00846   2527832.68044
                  23600194.0704                                   23600190.0824
                                                                        41.0004
        26.0004
