     2.11           OBSERVATION DATA    G (GPS)             RINEX VERSION / TYPE
teqc  2019Feb25                         20221121 12:28:19UTCPGM / RUN BY / DATE
OSX ker:10.11.6|Core i5|gcc 4.3 -m64|OSX ker:10.10+|=+      COMMENT
BIT 2 OF LLI FLAGS DATA COLLECTED UNDER A/S CONDITION       COMMENT
04712861                                                    MARKER NAME
2861                                                        MARKER NUMBER
-Unknown-           -Unknown-                               OBSERVER / AGENCY
0220400471          TRIMBLE R7          2.30                REC # / TYPE / VERS
-Unknown-           TRM39105.00     NONE                    ANT # / TYPE
  1449460.8979 -1709241.1995  5952442.2807                  APPROX POSITION XYZ
        0.0000        0.0000        0.0000                  ANTENNA: DELTA H/E/N
     1     1                                                WAVELENGTH FACT L1/2
    20    L1    L2    L5    L6    L7    L8    C1    P1    C2# / TYPES OF OBSERV
          P2    C5    C6    C7    C8    S1    S2    S5    S6# / TYPES OF OBSERV
          S7    S8                                          # / TYPES OF OBSERV
    30.0000                                                 INTERVAL
    15                                                      LEAP SECONDS
Forced Modulo Decimation to 30 seconds                      COMMENT
 SNR is mapped to RINEX snr flag value [0-9]                COMMENT
  L1 & L2: min(max(int(snr_dBHz/6), 0), 9)                  COMMENT
teqc edited: Beidou # 1 - 37 excluded                       COMMENT
  2009    10    13    23    10   30.0000000     GPS         TIME OF FIRST OBS
                                                            END OF HEADER
 09 10 13 23 10 30.0000000  0  6G02G04G12G13G23G30
   -289978.35558   -170584.93456
                  21028905.4534                                   21028900.1054
                                                                        51.2504
        41.5004
   -123130.91458    -72879.67257
                  20690445.7034                                   20690442.3524
                                                                        51.7504
        42.5004
    -19325.05157    -12132.13755
                  23732610.1414                                   23732606.4574
                                                                        46.0004
        30.0004
   -332462.03158   -196240.94955
                  22213705.6484                                   22213701.2624
                                                                        49.0004
        33.7504
   -173586.70758   -104489.75455
                  21839869.1094                                   21839862.7154
                                                                        48.5004
        35.2504
   -111758.63757    -66223.87154
                  22704534.8134                                   22704531.1884
                                                                        44.5004
        29.2504
 09 10 13 23 11  0.0000000  0  8G02G04G12G13G20G23G30G31
   -437398.74248   -285457.95746
                  21000852.5554                                   21000847.0634
                                                                        51.5004
        41.7504
   -185764.79748   -121685.24646
                  20678526.8204                                   20678523.4024
                                                                        52.7504
        41.5004
    -29431.33247    -20007.19544
                  23730687.5704                                   23730683.6024
                                                                        46.2504
        29.7504
   -502021.54348   -328365.26245
                  22181439.3134                                   22181434.8634
                                                                        49.7504
        33.2504
     27840.87557     17772.76253
                  24111571.1954                                   24111567.6994
                                                                        42.0004
        20.2504
   -261841.07848   -173259.38745
                  21823074.4694                                   21823068.5554
                                                                        49.2504
        35.0004
   -168633.16047   -110541.78144
                  22693712.2894                                   22693708.6724
                                                                        45.0004
        28.5004
   -104292.05557    -75356.46954
                  23786972.4774                                   23786967.7544
                                                                        43.0004
        27.0004
 09 10 13 23 11 30.0000000  0  8G02G04G12G13G20G23G30G31
   -583722.13748   -399476.17246
                  20973007.9304                                   20973002.2304
                                                                        52.0004
        41.5004
   -247233.19548   -169582.74646
                  20666829.6484                                   20666826.0554
                                                                        52.7504
        41.7504
    -38533.71947    -27099.98044
                  23728955.1094                                   23728951.1254
                                                                        46.2504
        29.5004
   -670458.67648   -459614.99645
                  22149386.6024                                   22149382.7504
                                                                        50.0004
        33.0004
     45517.30547     31546.59843
                  24114935.4534                                   24114931.4574
                                                                        42.0004
        19.2504
   -348839.67648   -241050.62945
                  21806519.5554                                   21806513.5044
                                                                        49.0004
        35.5004
   -224248.90647   -153878.80544
                  22683128.7034                                   22683125.6844
                                                                        45.0004
        29.0004
   -165364.55947   -122945.49244
                  23775350.6954                                   23775345.8984
                                                                        43.2504
        27.5004
 09 10 13 23 12  0.0000000  0  8G02G04G12G13G20G23G30G31
   -728874.84848   -512582.18446
                  20945386.2894                                   20945380.6174
                                                                        52.5004
        41.7504
   -307465.28948   -216516.91846
                  20655367.8524                                   20655364.5234
                                                                        52.5004
        41.7504
    -46563.19147    -33356.75045
                  23727427.1884                                   23727423.2664
                                                                        45.5004
        30.2504
   -837699.21548   -589932.29745
                  22117561.7974                                   22117557.4064
                                                                        49.2504
        33.2504
     64054.89846     45991.48843
                  24118463.0314                                   24118458.4184
                                                                        41.0004
        19.0004
   -434511.00048   -307807.67645
                  21790217.0474                                   21790210.8794
                                                                        49.7504
        34.7504
   -278535.63347   -196180.19944
                  22672798.6954                                   22672795.0904
                                                                        44.2504
        29.2504
   -225174.81647   -169550.91844
                  23763968.8834                                   23763964.4924
                                                                        43.5004
        27.2504
 09 10 13 23 12 30.0000000  0  8G02G04G12G13G20G23G30G31
   -872851.23848   -624771.59847
                  20917988.5084                                   20917983.0704
                                                                        52.0004
        42.0004
   -366457.98448   -262485.30546
                  20644141.9534                                   20644138.3054
                                                                        52.2504
        41.5004
    -53518.93047    -38776.86344
                  23726103.6484                                   23726099.8324
                                                                        46.5004
        29.5004
  -1003737.02348   -719312.41045
                  22085966.0084                                   22085961.4924
                                                                        49.0004
        32.5004
     83455.40646     61108.80143
                  24122154.7344                                   24122150.9734
                                                                        39.7504
        21.5004
   -518851.11748   -373527.26245
                  21774167.6414                                   21774161.3794
                                                                        49.5004
        35.0004
   -331491.30547   -237444.41444
                  22662721.5004                                   22662718.7194
                                                                        45.0004
        29.5004
   -283720.09047   -215170.64844
                  23752828.5314                                   23752823.3554
                                                                        43.2504
        26.0004
 09 10 13 23 13  0.0000000  0  8G02G04G12G13G20G23G30G31
  -1015668.67648   -736057.91046
                  20890811.1334                                   20890805.2934
                                                                        52.0004
        41.2504
   -424231.24248   -307503.44946
                  20633148.3134                                   20633144.9384
                                                                        52.2504
        41.5004
    -59422.02747    -43376.72345
                  23724980.1414                                   23724976.4454
                                                                        45.7504
        30.0004
  -1168588.26248   -847767.92645
                  22054595.9224                                   22054591.9964
                                                                        49.0004
        33.0004
    103697.72346     76881.99643
                  24126006.3444                                   24126002.5044
                                                                        39.7504
        19.2504
   -601879.26648   -438224.51245
                  21758368.0474                                   21758361.8284
                                                                        49.7504
        35.0004
   -383136.14547   -277687.15644
                  22652893.8444                                   22652890.9804
                                                                        44.2504
        28.5004
   -341020.70747   -259820.60544
                  23741924.5864                                   23741919.4494
                                                                        44.0004
        26.5004
 09 10 13 23 13 30.0000000  0  8G02G04G12G13G20G23G30G31
  -1157353.60548   -846461.75846
                  20863849.4384                                   20863843.9574
                                                                        52.5004
        41.5004
   -480813.78948   -351593.74647
                  20622380.8594                                   20622377.4494
                                                                        52.0004
        42.0004
    -64303.85947    -47180.75444
                  23724051.0084                                   23724047.2384
                                                                        45.7504
        29.5004
  -1332278.34848   -975318.64545
                  22023446.2504                                   22023442.2384
                                                                        49.2504
        32.2504
    124751.81646     93287.80543
                  24130013.0314                                   24130009.1414
                                                                        39.7504
        20.2504
   -683624.22748   -501921.89145
                  21742812.1414                                   21742806.2624
                                                                        50.2504
        35.7504
   -433499.83647   -316931.54344
                  22643309.6804                                   22643306.8984
                                                                        44.5004
        29.0004
   -397105.36747   -303522.99244
                  23731252.1484                                   23731247.4454
                                                                        44.0004
        26.7504
 09 10 13 23 14  0.0000000  0  8G02G04G12G13G20G23G30G31
  -1297945.99648   -956014.27347
                  20837095.7814                                   20837089.6094
                                                                        52.2504
        42.0004
   -536248.35948   -394789.52346
                  20611832.0704                                   20611828.7424
                                                                        52.7504
        41.5004
    -68208.78547    -50223.61745
                  23723307.6954                                   23723304.5984
                                                                        44.5004
        30.2504
  -1494846.61348  -1101995.21145
                  21992510.4924                                   21992506.3244
                                                                        49.2504
        32.5004
    146573.53946    110291.79343
                  24134165.8444                                   24134161.5864
                                                                        40.5004
        21.5004
   -764127.71548   -564651.92645
                  21727493.2734                                   21727487.3284
                                                                        49.5004
        35.5004
   -482626.10947   -355211.81244
                  22633961.3364                                   22633957.8524
                                                                        45.0004
        28.5004
   -452017.25447   -346311.59044
                  23720802.3914                                   23720798.0274
                                                                        44.2504
        27.5004
 09 10 13 23 14 30.0000000  0  8G02G04G12G13G20G23G30G31
  -1437477.14148  -1064739.93446
                  20810543.6644                                   20810538.2504
                                                                        52.0004
        41.2504
   -590568.44148   -437116.82446
                  20601495.2814                                   20601492.0514
                                                                        53.2504
        41.7504
    -71172.04347    -52532.69145
                  23722743.9694                                   23722741.5004
                                                                        44.5004
        30.7504
  -1656322.92248  -1227820.90645
                  21961782.8444                                   21961778.6994
                                                                        48.5004
        33.0004
    169127.89846    127866.52043
                  24138457.6954                                   24138453.5434
                                                                        39.5004
        20.5004
   -843422.43748   -626440.01245
                  21712403.6884                                   21712397.6454
                                                                        50.0004
        35.5004
   -530548.73047   -392554.15244
                  22624841.9454                                   22624838.9844
                                                                        45.0004
        29.5004
   -505790.10247   -388212.57044
                  23710570.6414                                   23710565.7814
                                                                        44.5004
        27.2504
 09 10 13 23 15  0.0000000  0  8G02G04G12G13G20G23G30G31
  -1575979.58248  -1172663.91046
                  20784187.8134                                   20784182.3094
                                                                        51.7504
        41.7504
   -643809.87148   -478603.63746
                  20591363.8284                                   20591360.5274
                                                                        53.5004
        41.7504
    -73230.91847    -54137.03145
                  23722352.8834                                   23722349.1024
                                                                        44.5004
        30.2504
  -1816739.94148  -1352821.17245
                  21931256.4304                                   21931252.5984
                                                                        49.5004
        33.0004
    192378.31346    145983.76243
                  24142881.8204                                   24142878.3444
                                                                        39.0004
        19.7504
   -921543.48848   -687313.50045
                  21697537.9844                                   21697531.5204
                                                                        49.5004
        35.5004
   -577304.14147   -428986.97344
                  22615944.8914                                   22615941.9024
                                                                        44.0004
        28.7504
   -558459.78947   -429253.81644
                  23700547.5234                                   23700542.9844
                                                                        44.5004
        27.0004
 09 10 13 23 15 30.0000000  0  8G02G04G12G13G20G23G30G31
  -1713481.98448  -1279808.64146
                  20758021.6564                                   20758015.7114
                                                                        51.5004
        41.7504
   -696003.95748   -519274.35246
                  20581431.5634                                   20581428.0984
                                                                        53.0004
        41.5004
    -74418.89847    -55062.74644
                  23722126.6024                                   23722122.5124
                                                                        45.5004
        29.0004
  -1976125.37548  -1477017.62545
                  21900926.9224                                   21900922.8634
                                                                        49.0004
        33.7504
    216292.12946    164617.84843
                  24147432.7584                                   24147429.2274
                                                                        39.7504
        19.0004
   -998521.64148   -747296.41445
                  21682889.0864                                   21682883.4344
                                                                        49.2504
        35.5004
   -622924.69147   -464535.43744
                  22607263.4144                                   22607260.0354
                                                                        44.5004
        29.0004
   -610058.37947   -469460.48844
                  23690728.1804                                   23690724.3524
                                                                        43.7504
        26.7504
 09 10 13 23 16  0.0000000  0  8G02G04G12G13G20G23G30G31
  -1850011.36748  -1386195.14846
                  20732041.2974                                   20732035.4804
                                                                        51.5004
        41.7504
   -747179.98048   -559151.80146
                  20571693.2344                                   20571689.6524
                                                                        52.5004
        40.7504
    -74767.03147    -55334.05144
                  23722060.3134                                   23722056.2704
                                                                        45.5004
        29.5004
  -2134505.03548  -1600430.34445
                  21870787.8364                                   21870783.9454
                                                                        49.0004
        32.7504
    240838.84846    183745.17643
                  24152103.6884                                   24152099.7734
                                                                        40.2504
        19.0004
  -1074386.14848   -806411.65245
                  21668452.8364                                   21668446.8014
                                                                        50.0004
        35.0004
   -667440.73047   -499223.21145
                  22598792.4304                                   22598789.1134
                                                                        44.2504
        30.0004
   -660615.34847   -508855.51244
                  23681107.3444                                   23681103.8054
                                                                        43.2504
        27.2504
 09 10 13 23 16 30.0000000  0  8G02G04G12G13G20G23G30G31
   -410166.11748   -264237.81246
                  21006034.6094                                   21006029.0314
                                                                        52.0004
        41.7504
    778058.44948    629345.68846
                  20861936.4614                                   20861932.8984
                                                                        52.5004
        41.5004
   1501117.35947   1172627.78544
                  24021941.4614                                   24021936.8674
                                                                        45.5004
        29.2504
   -716475.43048   -495472.23045
                  22140629.9774                                   22140625.9924
                                                                        49.0004
        33.5004
   1841410.99646   1430944.23443
                  24456682.4144                                   24456679.0314
                                                                        40.0004
        20.7504
    426261.23448    362923.97345
                  21954016.4694                                   21954010.4884
                                                                        49.5004
        35.0004
    864542.94147    694530.28944
                  22890319.1254                                   22890315.6604
                                                                        44.0004
        28.7504
    865265.33247    680142.50444
                  23971472.9614                                   23971469.1724
                                                                        43.0004
        27.0004
 09 10 13 23 17  0.0000000  0  8G02G04G12G13G20G23G30G31
   -544813.73448   -369158.02347
                  20980411.7664                                   20980406.3404
                                                                        51.2504
        42.0004
    728846.54748    590998.76646
                  20852571.3524                                   20852568.2504
                                                                        53.5004
        41.0004
   1502371.22747   1173604.78544
                  24022179.5944                                   24022176.0474
                                                                        44.7504
        29.7504
   -872904.95348   -617365.34445
                  22110862.3054                                   22110858.2114
                                                                        49.2504
        34.5004
   1867147.62946   1450998.75043
                  24461580.1644                                   24461576.0274
                                                                        40.0004
        20.2504
    352554.58648    305490.21545
                  21939990.5864                                   21939984.4264
                                                                        49.0004
        35.0004
    822161.51247    661505.69944
                  22882254.1884                                   22882251.0124
                                                                        44.2504
        29.2504
    816718.60247    642314.00044
                  23962234.7424                                   23962230.9304
                                                                        43.2504
        27.5004
 09 10 13 23 17 30.0000000  0  7G02G04G12G13G23G30G31
   -678556.95348   -473373.48047
                  20954961.4454                                   20954955.6484
                                                                        51.5004
        42.0004
    680576.24648    553385.56346
                  20843386.0704                                   20843382.5164
                                                                        53.2504
        41.0004
   1504383.18847   1175172.53144
                  24022562.6954                                   24022559.1994
                                                                        45.5004
        28.7504
  -1028394.73448   -738526.18745
                  22081273.5314                                   22081269.3594
                                                                        49.5004
        33.2504
    279887.21148    248866.25845
                  21926162.3364                                   21926156.1914
                                                                        49.7504
        34.2504
    780806.33647    629280.85544
                  22874385.0864                                   22874382.0124
                                                                        43.7504
        29.2504
    769136.01647    605236.77044
                  23953180.3364                                   23953176.0044
                                                                        43.2504
        28.0004
 09 10 13 23 18  0.0000000  0  7G02G04G12G13G23G30G31
   -811419.43048   -576902.66447
                  20929678.5314                                   20929672.8134
                                                                        51.0004
        42.0004
    633221.15648    516485.48846
                  20834374.5704                                   20834371.3714
                                                                        52.5004
        40.7504
   1507125.06647   1177309.01644
                  24023084.0084                                   24023081.0554
                                                                        44.0004
        29.7504
  -1182967.50448   -858972.47345
                  22051859.2504                                   22051855.0704
                                                                        49.5004
        32.5004
    208233.52348    193032.23445
                  21912527.1954                                   21912520.9694
                                                                        48.5004
        34.5004
    740449.96147    597834.34444
                  22866704.8594                                   22866702.3674
                                                                        44.5004
        29.2504
    722491.08247    568890.21144
                  23944303.1804                                   23944299.8984
                                                                        43.0004
        26.5004
 09 10 13 23 18 30.0000000  0  7G02G04G12G13G23G30G31
   -943413.18048   -679754.90646
                  20904560.9454                                   20904555.7194
                                                                        51.5004
        41.7504
    586766.49648    480286.99647
                  20825534.4224                                   20825531.1604
                                                                        53.5004
        42.0004
   1510580.66447   1180001.61744
                  24023741.9384                                   24023738.5204
                                                                        43.7504
        28.7504
  -1336634.86748   -978713.30945
                  22022617.4384                                   22022613.2384
                                                                        49.5004
        33.5004
    137579.25848    137977.03545
                  21899082.0164                                   21899076.0124
                                                                        49.5004
        34.5004
    701077.01647    567154.12145
                  22859212.4534                                   22859209.6954
                                                                        45.5004
        30.0004
    676768.71947    533262.52744
                  23935602.3204                                   23935598.7544
                                                                        42.2504
        26.5004
 09 10 13 23 19  0.0000000  0  8G02G04G12G13G29G23G30G31
  -1074553.32848   -781942.05547
                  20879605.6024                                   20879600.0514
                                                                        51.0004
        42.2504
    541195.01248    444776.73846
                  20816862.6954                                   20816859.1914
                                                                        52.2504
        41.5004
   1514730.19147   1183234.94944
                  24024531.3134                                   24024527.8484
                                                                        43.5004
        28.5004
  -1489410.61348  -1097759.36745
                  21993545.1334                                   21993541.1484
                                                                        49.2504
        34.0004
   1263685.06656   1021710.55553
                  24450354.3364                                   24450350.8984
                                                                        41.5004
        22.5004
     67907.52048     83687.43845
                  21885823.8834                                   21885817.7274
                                                                        48.7504
        35.0004
    662668.82847    537225.64545
                  22851903.8984                                   22851901.0664
                                                                        46.0004
        30.0004
    631950.35246    498339.20344
                  23927073.7814                                   23927070.1094
                                                                        40.7504
        27.5004
 09 10 13 23 19 30.0000000  0  8G02G04G12G13G29G23G30G31
  -1204865.02048   -883483.60247
                  20854808.1174                                   20854802.8484
                                                                        51.5004
        42.5004
    496478.55148    409932.74646
                  20808353.5004                                   20808350.1214
                                                                        52.5004
        41.0004
   1519544.22347   1186986.08644
                  24025447.4774                                   24025444.4384
                                                                        43.7504
        29.5004
  -1641319.17648  -1216129.62545
                  21964637.8834                                   21964633.6414
                                                                        49.5004
        33.0004
   1077286.09447    876464.62944
                  24414884.5234                                   24414880.4924
                                                                        42.5004
        24.5004
      -809.30948     30141.91445
                  21872747.4534                                   21872741.5124
                                                                        48.5004
        34.7504
    625196.77347    508026.66045
                  22844773.3674                                   22844770.0904
                                                                        45.0004
        30.0004
    588008.28547    464098.68044
                  23918712.2894                                   23918708.2704
                                                                        43.5004
        27.0004
 09 10 13 23 20  0.0000000  0  8G02G04G12G13G29G23G30G31
  -1334367.48848   -984394.58247
                  20830164.8594                                   20830159.3134
                                                                        51.0004
        42.0004
    452595.44548    375738.12946
                  20800002.5784                                   20799999.2544
                                                                        53.0004
        41.2504
   1524999.47347   1191236.85945
                  24026485.8054                                   24026482.8134
                                                                        44.2504
        30.5004
  -1792378.86748  -1333838.46545
                  21935892.2664                                   21935887.9494
                                                                        49.7504
        34.5004
    891425.34046    731638.08644
                  24379515.6724                                   24379512.5664
                                                                        40.2504
        27.2504
    -68592.15248    -22675.82045
                  21859848.6174                                   21859842.5904
                                                                        48.0004
        35.0004
    588638.64547    479539.78544
                  22837816.7504                                   22837813.2464
                                                                        44.5004
        29.2504
    544920.49647    430523.88744
                  23910512.5864                                   23910508.8324
                                                                        42.7504
        27.5004
 09 10 13 23 20 30.0000000  0  8G02G04G12G13G29G23G30G31
  -1463072.87148  -1084684.45746
                  20805672.8284                                   20805667.3444
                                                                        49.7504
        41.7504
    409530.89148    342181.31646
                  20791807.9144                                   20791804.9614
                                                                        53.0004
        41.5004
   1531078.96947   1195974.09045
                  24027643.3284                                   24027639.2304
                                                                        45.0004
        30.5004
  -1942601.19948  -1450894.79345
                  21907305.7974                                   21907301.9344
                                                                        50.0004
        34.2504
    706091.62146    587222.19144
                  24344248.1024                                   24344244.9384
                                                                        39.7504
        27.0004
   -135455.48047    -74777.01245
                  21847124.7734                                   21847118.8404
                                                                        47.7504
        34.5004
    552978.67247    451752.76244
                  22831030.1414                                   22831028.0084
                                                                        45.2504
        29.2504
    502671.39547    397602.49644
                  23902472.4224                                   23902468.9384
                                                                        42.5004
        27.7504
 09 10 13 23 21  0.0000000  0  8G02G04G12G13G29G23G30G31
  -1590995.61748  -1184364.50846
                  20781330.1334                                   20781324.3204
                                                                        50.2504
        41.5004
    367267.44148    309248.74246
                  20783765.1804                                   20783761.8914
                                                                        52.5004
        41.2504
   1537763.85547   1201183.10244
                  24028914.8754                                   24028912.0044
                                                                        44.7504
        29.7504
  -2092000.17248  -1567309.57445
                  21878876.5084                                   21878872.2584
                                                                        50.0004
        34.0004
    521271.17646    443206.31644
                  24309076.9694                                   24309074.7854
                                                                        38.0004
        25.7504
   -201416.19147   -126174.85245
                  21834572.9844                                   21834567.2934
                                                                        47.5004
        35.0004
    518198.39847    424651.29345
                  22824411.6334                                   22824409.0664
                                                                        44.5004
        30.0004
    461243.33647    365320.88744
                  23894589.2344                                   23894585.6214
                                                                        43.7504
        26.7504
 09 10 13 23 21 30.0000000  0  8G02G04G12G13G29G23G30G31
  -1718143.39148  -1283440.67246
                  20757134.5394                                   20757129.2274
                                                                        51.0004
        41.5004
    325795.24248    276932.76246
                  20775873.3594                                   20775870.0084
                                                                        53.5004
        41.5004
   1545042.25047   1206854.50844
                  24030300.0394                                   24030296.1294
                                                                        44.7504
        28.7504
  -2240582.47748  -1683087.98845
                  21850601.6884                                   21850597.6724
                                                                        48.7504
        33.7504
    336957.57046    299585.40644
                  24274003.2974                                   24274000.9844
                                                                        39.0004
        26.5004
   -266483.91848   -176876.94545
                  21822190.7974                                   21822185.0274
                                                                        49.0004
        34.2504
    484286.89147    398226.75044
                  22817958.6024                                   22817956.0824
                                                                        44.0004
        29.0004
    420626.02747    333671.05544
                  23886860.2274                                   23886856.3284
                                                                        43.2504
        28.0004
 09 10 13 23 22  0.0000000  0  8G02G04G12G13G29G23G30G31
  -1844521.75448  -1381917.18446
                  20733085.5784                                   20733079.3404
                                                                        50.5004
        41.7504
    285105.71148    245226.62146
                  20768130.4384                                   20768126.9384
                                                                        52.5004
        41.0004
   1552904.89147   1212981.28944
                  24031795.8914                                   24031792.2114
                                                                        44.5004
        27.7504
  -2388352.65248  -1798233.59845
                  21822482.3834                                   21822478.0274
                                                                        49.2504
        34.5004
    153146.17946    156355.77144
                  24239025.2664                                   24239022.3244
                                                                        40.0004
        26.5004
   -330666.79748   -226889.59045
                  21809977.2274                                   21809971.1134
                                                                        49.0004
        34.5004
    451234.78947    372471.82844
                  22811669.6254                                   22811666.5474
                                                                        44.5004
        28.5004
    380810.79747    302646.23444
                  23879283.9224                                   23879279.6524
                                                                        43.0004
        27.7504
 09 10 13 23 22 30.0000000  0  8G02G04G12G13G29G23G30G31
  -1970144.34448  -1479805.01647
                  20709180.3834                                   20709174.5394
                                                                        50.0004
        42.0004
    245183.23048    214118.21546
                  20760533.6174                                   20760529.8634
                                                                        52.2504
        41.0004
   1561333.34447   1219548.96144
                  24033400.0634                                   24033395.9964
                                                                        44.5004
        27.5004
  -2535323.33248  -1912756.19945
                  21794514.2664                                   21794510.2544
                                                                        49.5004
        34.0004
    -30175.08646     13508.05944
                  24204140.7344                                   24204137.1764
                                                                        41.7504
        25.2504
   -393979.87147   -276224.52345
                  21797929.3524                                   21797923.0664
                                                                        47.7504
        35.0004
    419025.92647    347373.99644
                  22805540.4224                                   22805536.9694
                                                                        45.0004
        29.2504
    341781.25446    272233.60944
                  23871856.9534                                   23871852.6024
                                                                        40.7504
        26.7504
 09 10 13 23 23  0.0000000  0  9G02G04G12G13G29G23G30G31G10
  -2095020.25848  -1577110.87947
                  20685417.2274                                   20685411.3324
                                                                        50.5004
        42.0004
    206015.62548    183598.03146
                  20753080.0394                                   20753076.7854
                                                                        52.2504
        41.7504
   1570313.90647   1226546.89144
                  24035108.6094                                   24035104.8164
                                                                        43.5004
        24.7504
  -2681503.19148  -2026662.56645
                  21766697.3204                                   21766693.4844
                                                                        48.7504
        34.2504
   -213014.77747   -128964.44144
                  24169347.5944                                   24169343.8754
                                                                        42.5004
        25.5004
   -456434.81647   -324890.79345
                  21786044.6254                                   21786038.5314
                                                                        47.5004
        34.7504
    387646.97747    322922.92244
                  22799569.1564                                   22799565.9304
                                                                        44.7504
        28.2504
    303524.93047    242423.50844
                  23864577.0234                                   23864572.7544
                                                                        42.0004
        27.0004
   1240251.75456   1013505.26653
                  24051244.3054                                   24051241.4494
                                                                        41.7504
        22.7504
 09 10 13 23 23 30.0000000  0  9G02G04G12G13G29G23G30G31G10
  -2219157.75448  -1673841.37947
                  20661794.5234                                   20661789.0044
                                                                        50.5004
        42.2504
    167591.62548    153657.25446
                  20745768.4454                                   20745764.8874
                                                                        53.0004
        41.7504
   1579834.08247   1233965.23044
                  24036920.0474                                   24036916.9024
                                                                        44.0004
        26.2504
  -2826899.52048  -2139958.37545
                  21739029.0234                                   21739025.4804
                                                                        49.5004
        34.7504
   -395380.09046   -271067.25843
                  24134643.9694                                   24134641.1134
                                                                        40.7504
        23.7504
   -518041.99248   -372896.33645
                  21774321.2344                                   21774315.2344
                                                                        48.2504
        34.5004
    357086.28147    299109.43044
                  22793753.4774                                   22793750.2894
                                                                        44.7504
        29.2504
    266030.50447    213207.07044
                  23857441.9384                                   23857437.5984
                                                                        42.7504
        26.2504
   1039641.73047    857185.91044
                  24013069.2274                                   24013065.7854
                                                                        42.7504
        25.5004
 09 10 13 23 24  0.0000000  0  9G02G04G12G13G29G23G30G31G10
  -2342569.61748  -1770006.47747
                  20638310.0864                                   20638304.3954
                                                                        50.2504
        42.0004
    129896.36748    124284.30546
                  20738595.0234                                   20738591.8674
                                                                        52.0004
        41.5004
   1589876.68847   1241790.58244
                  24038831.3204                                   24038828.0314
                                                                        44.5004
        27.0004
  -2971524.15648  -2252652.88745
                  21711508.2894                                   21711504.2194
                                                                        49.7504
        34.2504
   -577282.44546   -412809.34844
                  24100029.3364                                   24100026.4184
                                                                        39.5004
        24.2504
   -578816.27748   -420252.90645
                  21762756.3524                                   21762750.1094
                                                                        48.0004
        34.5004
    327327.82047    275921.02344
                  22788090.7734                                   22788087.6564
                                                                        44.2504
        29.0004
    229282.16047    184571.97344
                  23850449.3594                                   23850444.7274
                                                                        43.5004
        26.5004
    839384.43447    701141.33644
                  23974961.9304                                   23974958.1724
                                                                        45.0004
        26.0004
 09 10 13 23 24 30.0000000  0  9G02G04G12G13G29G23G30G31G10
  -2465259.53948  -1865608.94147
                  20614962.8134                                   20614957.2384
                                                                        51.0004
        42.5004
     92922.96148     95473.82846
                  20731559.3594                                   20731555.8634
                                                                        52.5004
        41.2504
   1600433.66847   1250016.80944
                  24040840.5864                                   24040837.2934
                                                                        45.2504
        29.7504
  -3115380.77748  -2364748.90645
                  21684133.1414                                   21684129.1724
                                                                        50.2504
        34.5004
   -758725.16446   -554193.29744
                  24065501.9774                                   24065499.0554
                                                                        39.0004
        24.5004
   -638764.29348   -466965.69545
                  21751348.5944                                   21751342.7304
                                                                        48.0004
        35.0004
    298363.63347    253351.49244
                  22782579.3444                                   22782575.8984
                                                                        45.5004
        29.5004
    193272.70347    156512.67244
                  23843596.3674                                   23843591.9494
                                                                        42.5004
        26.5004
    639476.27047    545368.64144
                  23936920.5554                                   23936916.8134
                                                                        44.0004
        24.7504
 09 10 13 23 25  0.0000000  0  9G02G04G12G13G29G23G30G31G10
  -2587231.40248  -1960651.92646
                  20591752.3524                                   20591747.0784
                                                                        51.0004
        41.7504
     56665.36748     67221.16446
                  20724659.9224                                   20724656.3364
                                                                        52.7504
        41.0004
   1611497.33647   1258637.84444
                  24042946.5864                                   24042942.7194
                                                                        45.7504
        29.7504
  -3258471.93748  -2476248.45745
                  21656903.8984                                   21656899.6684
                                                                        49.5004
        34.2504
   -939709.99246   -695220.35543
                  24031061.3524                                   24031058.7544
                                                                        39.5004
        22.7504
   -697891.25848   -513038.63345
                  21740097.1414                                   21740090.9884
                                                                        48.5004
        34.7504
    270187.00047    231395.71144
                  22777216.9064                                   22777214.2154
                                                                        45.5004
        28.2504
    157995.77747    129024.16044
                  23836883.1094                                   23836878.8444
                                                                        42.0004
        25.5004
    439915.16446    389866.41444
                  23898945.2034                                   23898942.1174
                                                                        41.7504
        24.5004
 09 10 13 23 25 30.0000000  0  9G02G04G12G13G29G23G30G31G10
  -2708489.29748  -2055138.58646
                  20568677.9064                                   20568672.2384
                                                                        51.2504
        41.7504
     21116.56348     39520.82046
                  20717894.7034                                   20717891.6684
                                                                        51.7504
        41.0004
   1623058.86347   1267646.85244
                  24045145.9924                                   24045142.6024
                                                                        46.2504
        29.5004
  -3400801.28148  -2587154.43045
                  21629819.3914                                   21629815.0824
                                                                        49.5004
        35.0004
  -1120240.45346   -835893.39844
                  23996708.1644                                   23996705.1484
                                                                        40.7504
        27.7504
   -756203.97348   -558477.14845
                  21729000.3674                                   21728994.4024
                                                                        48.5004
        34.5004
    242789.39147    210046.97744
                  22772003.3594                                   22772000.3164
                                                                        44.5004
        28.5004
    123444.12246    102100.80344
                  23830308.3834                                   23830303.7424
                                                                        40.2504
        24.5004
    240697.48446    234631.99244
                  23861034.9774                                   23861032.8554
                                                                        41.2504
        24.5004
 09 10 13 23 26  0.0000000  0  9G02G04G12G13G29G23G30G31G10
  -1253616.80948   -921471.69147
                  20845530.8754                                   20845525.2854
                                                                        50.5004
        42.2504
   1561687.81348   1239966.01246
                  21011055.9924                                   21011052.8794
                                                                        52.2504
        40.7504
   3210526.00447   2504634.23844
                  24347230.8594                                   24347227.9804
                                                                        44.0004
        28.2504
  -1966950.49248  -1469868.08245
                  21902672.1564                                   21902667.9264
                                                                        49.7504
        35.5004
    275103.28547    251387.46944
                  24262233.3444                                   24262230.0704
                                                                        42.2504
        27.5004
    761709.89847    624312.77745
                  22017850.1174                                   22017844.1524
                                                                        47.5004
        34.7504
   1791580.64547   1416897.33244
                  23066728.6804                                   23066725.4104
                                                                        43.7504
        28.5004
   1665028.02746   1303334.99644
                  24123661.3674                                   24123657.2544
                                                                        39.2504
        25.2504
   1617242.96546   1307264.87144
                  24122983.2114                                   24122980.0824
                                                                        41.5004
        26.2504
 09 10 13 23 26 30.0000000  0  9G02G04G12G13G29G23G30G31G10
  -1373464.45348  -1014859.46147
                  20822724.6174                                   20822719.0554
                                                                        51.2504
        42.7504
   1527531.34048   1213350.61746
                  21004556.3674                                   21004553.2504
                                                                        52.5004
        41.2504
   3223053.10946   2514395.59844
                  24349614.3364                                   24349611.6914
                                                                        41.7504
        26.5004
  -2107771.10948  -1579598.41045
                  21875875.0554                                   21875870.6564
                                                                        49.5004
        35.2504
     95467.73047    111411.77744
                  24228050.0164                                   24228046.2624
                                                                        42.5004
        28.2504
    705001.59048    580124.49245
                  22007058.5314                                   22007052.5084
                                                                        48.7504
        34.7504
   1765713.50047   1396741.09844
                  23061806.1564                                   23061802.7894
                                                                        44.7504
        28.7504
   1631899.71146   1277520.73044
                  24117357.6174                                   24117353.2934
                                                                        41.0004
        25.2504
   1418696.53547   1152553.33644
                  24085201.5864                                   24085198.3554
                                                                        43.0004
        26.5004
 09 10 13 23 27  0.0000000  0  9G02G04G12G13G29G23G30G31G10
  -1492613.18448  -1107702.60547
                  20800051.2504                                   20800045.6914
                                                                        51.0004
        42.2504
   1494060.36348   1187269.33646
                  20998186.8594                                   20998183.6524
                                                                        52.7504
        41.0004
   3236050.19546   2524523.20743
