     2.11           OBSERVATION DATA    G (GPS)             RINEX VERSION / TYPE
teqc  2019Feb25                         20221121 12:28:17UTCPGM / RUN BY / DATE
OSX ker:10.11.6|Core i5|gcc 4.3 -m64|OSX ker:10.10+|=+      COMMENT
BIT 2 OF LLI FLAGS DATA COLLECTED UNDER A/S CONDITION       COMMENT
04712860                                                    MARKER NAME
2860                                                        MARKER NUMBER
-Unknown-           -Unknown-                               OBSERVER / AGENCY
0220400471          TRIMBLE R7          2.30                REC # / TYPE / VERS
-Unknown-           TRM39105.00     NONE                    ANT # / TYPE
  1449460.8540 -1709240.7420  5952443.1516                  APPROX POSITION XYZ
        0.0000        0.0000        0.0000                  ANTENNA: DELTA H/E/N
     1     1                                                WAVELENGTH FACT L1/2
    20    L1    L2    L5    L6    L7    L8    C1    P1    C2# / TYPES OF OBSERV
          P2    C5    C6    C7    C8    S1    S2    S5    S6# / TYPES OF OBSERV
          S7    S8                                          # / TYPES OF OBSERV
    30.0000                                                 INTERVAL
    15                                                      LEAP SECONDS
Forced Modulo Decimation to 30 seconds                      COMMENT
 SNR is mapped to RINEX snr flag value [0-9]                COMMENT
  L1 & L2: min(max(int(snr_dBHz/6), 0), 9)                  COMMENT
teqc edited: Beidou # 1 - 37 excluded                       COMMENT
  2009    10    13     0     0    0.0000000     GPS         TIME OF FIRST OBS
                                                            END OF HEADER
 09 10 13  0  0  0.0000000  0  9G02G04G05G13G29G23G30G10G25
 -11435692.92648  -8875541.89147
                  20435127.3914                                   20435121.5944
                                                                        52.5004
        42.5004
  -2933783.93748  -2270592.75846
                  21550915.7424                                   21550912.0554
                                                                        50.0004
        38.7504
  -6896857.17647  -5328354.98045
                  23556371.9224                                   23556368.0354
                                                                        43.2504
        30.0004
 -13483196.14848 -10465595.26246
                  21274434.7504                                   21274430.0274
                                                                        50.5004
        36.2504
 -12793173.16847  -9924615.14545
                  23096775.7584                                   23096771.6804
                                                                        45.5004
        30.7504
  -5078580.74248  -3935543.61345
                  22344320.0554                                   22344313.6724
                                                                        48.5004
        32.0004
  -2069732.88747  -1598449.68744
                  23720628.4384                                   23720624.7854
                                                                        42.0004
        26.0004
 -12820193.89847  -9942186.89845
                  22711743.5784                                   22711739.8244
                                                                        46.0004
        32.5004
  -1096366.23047   -814880.37543
                  24099938.5944                                   24099934.3204
                                                                        42.2504
        22.7504
 09 10 13  0  0 30.0000000  0  9G02G04G05G13G29G23G30G10G25
 -11515898.09048  -8938039.41047
                  20419864.9454                                   20419858.8094
                                                                        53.0004
        43.0004
  -2933789.71948  -2270597.27746
                  21550914.4064                                   21550910.7854
                                                                        50.0004
        38.5004
  -7080737.20347  -5471638.08645
                  23521380.7274                                   23521376.9694
                                                                        43.0004
        31.7504
 -13580389.75848 -10541330.53145
                  21255939.7664                                   21255934.6334
                                                                        50.7504
        35.7504
 -12946034.40247 -10043727.80945
                  23067686.9384                                   23067682.6844
                                                                        44.5004
        30.5004
  -5094246.63347  -3947750.76245
                  22341339.0004                                   22341332.5354
                                                                        47.0004
        31.2504
  -2059170.32047  -1590219.15244
                  23722638.7424                                   23722634.7194
                                                                        44.0004
        26.2504
 -12999326.31247 -10081770.58245
                  22677655.6884                                   22677651.9774
                                                                        45.5004
        32.5004
  -1259051.79346   -941648.34843
                  24068979.8914                                   24068976.5944
                                                                        41.7504
        21.5004
 09 10 13  0  1  0.0000000  0  9G02G04G05G13G29G23G30G10G25
 -11595480.77048  -9000051.87547
                  20404720.9064                                   20404714.4804
                                                                        53.0004
        43.5004
  -2933336.64548  -2270244.23046
                  21551000.9614                                   21550997.3754
                                                                        51.0004
        38.5004
  -7264379.48447  -5614735.91845
                  23486435.2814                                   23486430.9774
                                                                        45.0004
        32.5004
 -13676879.75448 -10616517.56246
                  21237578.4534                                   21237573.3404
                                                                        50.7504
        36.0004
 -13098435.05547 -10162481.57445
                  23038686.2974                                   23038681.9694
                                                                        44.7504
        31.2504
  -5109342.53948  -3959513.75845
                  22338466.4064                                   22338459.5004
                                                                        48.0004
        31.0004
  -2048147.89847  -1581630.23444
                  23724736.2974                                   23724732.3714
                                                                        45.0004
        26.7504
 -13178128.27347 -10221096.75845
                  22643630.7344                                   22643626.9184
                                                                        46.0004
        32.5004
  -1421391.85246  -1068147.02343
                  24038088.0234                                   24038083.9534
                                                                        39.7504
        20.2504
 09 10 13  0  1 30.0000000  0  9G02G04G05G13G29G23G30G10G25
 -11674440.82848  -9061579.18747
                  20389695.2974                                   20389689.0984
                                                                        52.7504
        43.2504
  -2932427.07848  -2269535.47746
                  21551174.1954                                   21551170.1054
                                                                        50.7504
        38.0004
  -7447782.86747  -5757647.66045
                  23451534.5784                                   23451530.9494
                                                                        45.0004
        32.7504
 -13772665.71548 -10691155.98846
                  21219350.6484                                   21219346.0124
                                                                        50.7504
        36.7504
 -13250373.29347 -10280875.01645
                  23009772.8594                                   23009769.0394
                                                                        44.5004
        31.5004
  -5123871.30947  -3970834.85245
                  22335701.6094                                   22335695.2774
                                                                        47.7504
        31.7504
  -2036669.78147  -1572686.23044
                  23726920.1094                                   23726916.4534
                                                                        45.0004
        26.7504
 -13356598.29347 -10360164.28545
                  22609669.4384                                   22609664.9964
                                                                        47.0004
        32.5004
  -1583384.38346  -1194374.95343
                  24007261.6484                                   24007258.2194
                                                                        39.5004
        21.0004
 09 10 13  0  2  0.0000000  0  9G02G04G05G13G29G23G30G10G25
 -11752779.01648  -9122621.91847
                  20374787.8444                                   20374781.8014
                                                                        52.7504
        42.7504
  -2931064.13348  -2268473.45746
                  21551433.4384                                   21551429.4804
                                                                        50.0004
        38.7504
  -7630946.32847  -5900372.41845
                  23416679.5084                                   23416675.7664
                                                                        45.2504
        32.5004
 -13867748.21148 -10765246.23846
                  21201257.3914                                   21201252.8134
                                                                        50.5004
        37.0004
 -13401847.98847 -10398907.21545
                  22980947.9064                                   22980944.4964
                                                                        43.7504
        31.0004
  -5137836.11747  -3981716.48445
                  22333044.1804                                   22333037.6054
                                                                        47.5004
        30.5004
  -2024739.83647  -1563390.18744
                  23729190.9144                                   23729187.4774
                                                                        45.0004
        26.5004
 -13534734.66447 -10498971.83245
                  22575770.6024                                   22575767.0434
                                                                        47.0004
        32.2504
  -1745027.68046  -1320330.70343
                  23976501.7814                                   23976498.0474
                                                                        41.2504
        20.7504
 09 10 13  0  2 30.0000000  0  9G02G04G05G13G29G23G30G10G25
 -11830495.68748  -9183180.35947
                  20359998.8834                                   20359992.3094
                                                                        53.5004
        42.5004
  -2929250.34448  -2267060.11746
                  21551778.5314                                   21551774.9104
                                                                        51.2504
        38.7504
  -7813868.65647  -6042909.27345
                  23381870.8754                                   23381866.6954
                                                                        45.0004
        31.7504
 -13962127.30548 -10838788.37946
                  21183297.2894                                   21183292.7114
                                                                        50.0004
        37.0004
 -13552857.69147 -10516577.07845
                  22952211.7814                                   22952208.5944
                                                                        44.5004
        32.0004
  -5151239.96547  -3992161.00445
                  22330493.7194                                   22330486.8754
                                                                        47.2504
        31.0004
  -2012361.88747  -1553745.05144
                  23731546.8524                                   23731543.3524
                                                                        43.2504
        26.5004
 -13712536.16847 -10637518.42245
                  22541936.4844                                   22541932.1134
                                                                        46.7504
        32.7504
  -1906319.41447  -1446012.52043
                  23945809.4454                                   23945804.8594
                                                                        42.7504
        21.7504
 09 10 13  0  3  0.0000000  0  9G02G04G05G13G29G23G30G10G25
 -11907591.64548  -9243255.12147
                  20345327.9844                                   20345321.8404
                                                                        53.0004
        43.0004
  -2926988.77048  -2265297.85546
                  21552209.0634                                   21552205.1564
                                                                        51.2504
        38.2504
  -7996548.97747  -6185257.53145
                  23347107.1334                                   23347103.6994
                                                                        45.0004
        31.7504
 -14055803.36748 -10911782.70746
                  21165471.2504                                   21165466.5944
                                                                        50.5004
        36.5004
 -13703400.89847 -10633883.45745
                  22923564.6564                                   22923561.6024
                                                                        43.2504
        32.0004
  -5164085.86747  -4002170.77345
                  22328049.0164                                   22328042.4534
                                                                        47.0004
        31.5004
  -1999540.07447  -1543754.03144
                  23733985.6334                                   23733982.2424
                                                                        44.5004
        25.0004
 -13890002.10547 -10775803.55945
                  22508165.4224                                   22508161.4804
                                                                        46.2504
        33.2504
  -2067258.35947  -1571419.43743
                  23915183.8204                                   23915179.8284
                                                                        43.5004
        22.7504
 09 10 13  0  3 30.0000000  0  9G02G04G05G13G29G23G30G10G25
 -11984066.62948  -9302846.02347
                  20330775.3524                                   20330769.0784
                                                                        53.0004
        42.7504
  -2924281.36348  -2263188.18446
                  21552724.2664                                   21552720.1214
                                                                        50.0004
        38.0004
  -8178985.50047  -6327415.84045
                  23312390.8364                                   23312386.6994
                                                                        45.2504
        30.5004
 -14148776.21548 -10984229.09846
                  21147779.1334                                   21147774.5514
                                                                        49.7504
        36.7504
 -13853475.62547 -10750824.78545
                  22895006.6724                                   22895002.8244
                                                                        44.0004
        33.0004
  -5176376.08247  -4011747.53945
                  22325710.3914                                   22325703.7464
                                                                        47.7504
        31.7504
  -1986277.71947  -1533419.73444
                  23736509.2504                                   23736505.9264
                                                                        44.0004
        25.2504
 -14067130.21547 -10913825.43745
                  22474459.1334                                   22474455.1094
                                                                        46.0004
        33.0004
  -2227841.85247  -1696549.41043
                  23884625.4454                                   23884621.8714
                                                                        42.0004
        23.0004
 09 10 13  0  4  0.0000000  0  9G02G04G05G13G29G23G30G10G25
 -12059920.76648  -9361953.14147
                  20316340.5474                                   20316334.7154
                                                                        52.5004
        42.5004
  -2921130.41448  -2260732.89546
                  21553323.8914                                   21553319.8054
                                                                        50.7504
        38.2504
  -8361176.75047  -6469383.03145
                  23277721.3204                                   23277716.6564
                                                                        45.5004
        30.5004
 -14241045.59848 -11056127.30946
                  21130220.8364                                   21130216.6214
                                                                        49.5004
        36.5004
 -14003079.70747 -10867399.36345
                  22866538.0784                                   22866534.0784
                                                                        43.7504
        32.5004
  -5188113.11347  -4020893.28945
                  22323476.5394                                   22323470.7114
                                                                        47.5004
        32.2504
  -1972578.50847  -1522745.09443
                  23739116.7584                                   23739112.8554
                                                                        42.7504
        21.7504
 -14243918.87947 -11051582.83645
                  22440817.9064                                   22440813.9344
                                                                        47.5004
        33.5004
  -2388067.57846  -1821400.57844
                  23854135.3754                                   23854131.5944
                                                                        41.5004
        24.7504
 09 10 13  0  4 30.0000000  0  9G02G04G05G13G29G23G30G10G25
 -12135153.54748  -9420576.09447
                  20302024.2344                                   20302018.2234
                                                                        52.7504
        42.7504
  -2917537.82048  -2257933.48446
                  21554007.4614                                   21554003.6254
                                                                        51.0004
        38.2504
  -8543120.53947  -6611157.37145
                  23243098.5314                                   23243094.4384
                                                                        46.2504
        32.5004
 -14332611.10248 -11127477.04746
                  21112796.5004                                   21112792.2344
                                                                        49.5004
        37.0004
 -14152210.98047 -10983605.53545
                  22838158.8674                                   22838155.2154
                                                                        44.2504
        31.5004
  -5199299.01247  -4029609.57045
                  22321348.5554                                   22321341.8754
                                                                        47.7504
        32.0004
  -1958445.46947  -1511732.35943
                  23741805.4064                                   23741801.8794
                                                                        42.2504
        21.2504
 -14420365.91447 -11189074.02345
                  22407240.2504                                   22407236.6294
                                                                        47.0004
        33.0004
  -2547932.56646  -1945970.64543
                  23823713.6174                                   23823710.4264
                                                                        40.2504
        22.7504
 09 10 13  0  5  0.0000000  0  9G02G04G05G13G29G23G30G10G25
 -10634340.22748  -8251111.16447
                  20587619.7894                                   20587613.4304
                                                                        52.5004
        42.5004
  -1338083.70348  -1027190.05546
                  21854567.5704                                   21854563.8634
                                                                        51.2504
        37.5004
  -7149386.68047  -5525130.97745
                  23508317.7034                                   23508313.3404
                                                                        46.5004
        33.2504
 -12848046.92648  -9970673.78946
                  21395299.9064                                   21395294.9574
                                                                        50.2504
        36.5004
 -12725440.09047  -9871836.00445
                  23109664.5784                                   23109660.5084
                                                                        44.5004
        32.2504
  -3634513.69547  -2810296.33245
                  22619116.5944                                   22619110.3244
                                                                        47.0004
        31.2504
   -368459.53147   -272782.25843
                  24044370.2114                                   24044366.6214
                                                                        43.2504
        22.5004
 -13021040.75847 -10098690.75845
                  22673523.7034                                   22673519.6804
                                                                        47.7504
        34.5004
  -1132007.06647   -842652.02343
                  24093155.6254                                   24093151.9534
                                                                        42.0004
        22.0004
 09 10 13  0  5 30.0000000  0  9G02G04G05G13G29G23G30G10G25
 -10708330.90248  -8308766.23047
                  20573539.7584                                   20573533.5904
                                                                        52.5004
        42.7504
  -1333615.07448  -1023708.03946
                  21855418.2274                                   21855413.7504
                                                                        49.5004
        38.0004
  -7330830.78147  -5666515.97345
                  23473789.3134                                   23473785.4344
                                                                        45.5004
        33.7504
 -12938203.96148 -10040926.01246
                  21378143.3914                                   21378138.7584
                                                                        49.7504
        37.5004
 -12873619.85947  -9987300.76245
                  23081466.9694                                   23081462.4224
                                                                        43.5004
        31.7504
  -3644605.41447  -2818159.98445
                  22617196.2974                                   22617189.8244
                                                                        47.2504
        30.5004
   -353468.93447   -261101.25044
                  24047222.9454                                   24047218.9654
                                                                        43.5004
        25.5004
 -13196798.91447 -10235645.15645
                  22640077.7894                                   22640073.9574
                                                                        47.5004
        33.5004
  -1291144.15246   -966654.93743
                  24062872.6024                                   24062868.6844
                                                                        41.7504
        22.5004
 09 10 13  0  6  0.0000000  0  9G02G04G05G13G29G23G30G10G25
 -10781704.68448  -8365940.60247
                  20559577.3524                                   20559570.9224
                                                                        52.0004
        43.0004
  -1328715.68048  -1019890.35546
                  21856350.2114                                   21856346.5434
                                                                        50.0004
        38.0004
  -7512026.84047  -5807707.67645
                  23439308.9694                                   23439305.2934
                                                                        44.5004
        32.7504
 -13027660.54748 -10110632.39546
                  21361120.6094                                   21361115.9144
                                                                        49.5004
        36.7504
 -13021325.01247 -10102395.66845
                  23053359.3524                                   23053354.8714
                                                                        44.2504
        31.5004
  -3654157.59047  -2825603.20745
                  22615378.2974                                   22615372.0594
                                                                        47.0004
        31.0004
   -338059.17247   -249093.63744
                  24050155.1254                                   24050151.5784
                                                                        43.5004
        26.2504
 -13372214.05147 -10372332.25445
                  22606696.8754                                   22606693.8524
                                                                        46.0004
        34.0004
  -1449917.56646  -1090374.43443
                  24032659.1644                                   24032654.8524
                                                                        41.7504
        22.5004
 09 10 13  0  6 30.0000000  0  9G02G04G05G13G29G23G30G10G25
 -10854459.05148  -8422632.30947
                  20545732.4844                                   20545726.1374
                                                                        52.0004
        43.0004
  -1323385.43048  -1015736.93746
                  21857364.5314                                   21857360.7194
                                                                        49.7504
        37.5004
  -7692970.72347  -5948702.89145
                  23404876.0164                                   23404872.2194
                                                                        44.0004
        32.5004
 -13116414.16048 -10179790.99246
                  21344231.2814                                   21344226.6024
                                                                        49.5004
        36.2504
 -13168551.15247 -10217117.32845
                  23025343.2424                                   23025339.7544
                                                                        43.0004
        31.7504
  -3663170.41847  -2832626.19945
                  22613663.3914                                   22613656.6294
                                                                        46.0004
        30.0004
   -322231.37147   -236760.36344
                  24053167.0084                                   24053163.9264
                                                                        43.0004
        25.2504
 -13547281.68747 -10508748.56245
                  22573383.0164                                   22573379.3484
                                                                        45.7504
        34.0004
  -1608322.55146  -1213806.81643
                  24002515.9384                                   24002511.6684
                                                                        41.5004
        22.0004
 09 10 13  0  7  0.0000000  0  9G02G04G05G13G29G23G30G10G25
 -10926591.96548  -8478839.76647
                  20532006.0394                                   20531999.8754
                                                                        52.2504
        42.7504
  -1317624.07448  -1011247.57446
                  21858461.0944                                   21858456.8594
                                                                        49.7504
        38.2504
  -7873658.02347  -6089498.16445
                  23370492.3284                                   23370488.7814
                                                                        45.5004
        31.7504
 -13204462.29748 -10248399.88346
                  21327475.9224                                   21327471.4184
                                                                        48.5004
        37.0004
 -13315293.77047 -10331462.19945
                  22997418.8364                                   22997415.0944
                                                                        43.7504
        32.0004
  -3671643.87947  -2839228.89544
                  22612050.8204                                   22612044.2234
                                                                        45.0004
        29.7504
   -305986.21147   -224101.81644
                  24056257.9534                                   24056254.9064
                                                                        42.0004
        26.0004
 -13721997.94947 -10644891.07045
                  22540135.7194                                   22540131.7774
                                                                        47.2504
        33.7504
  -1766354.22347  -1336948.38743
                  23972442.8594                                   23972439.0554
                                                                        42.0004
        22.7504
 09 10 13  0  7 30.0000000  0  9G02G04G05G13G29G23G30G10G25
 -10998106.30948  -8534565.21147
                  20518397.3594                                   20518391.5274
                                                                        51.7504
        43.0004
  -1311436.99648  -1006426.46546
                  21859638.2664                                   21859634.3874
                                                                        50.5004
        38.0004
  -8054090.39147  -6230094.80545
                  23336158.1094                                   23336153.4344
                                                                        46.2504
        33.2504
 -13291808.27048 -10316461.61346
                  21310854.5084                                   21310850.0984
                                                                        49.2504
        36.7504
 -13461554.06647 -10445431.23045
                  22969586.2034                                   22969583.2704
                                                                        43.7504
        33.0004
  -3679583.71947  -2845415.76645
                  22610540.3984                                   22610533.7934
                                                                        46.5004
        30.5004
   -289330.32446   -211123.27743
                  24059427.7034                                   24059424.4844
                                                                        41.2504
        22.5004
 -13896363.45747 -10780760.29345
                  22506955.8524                                   22506951.1524
                                                                        47.0004
        35.0004
  -1924013.53547  -1459799.79743
                  23942441.9384                                   23942437.6254
                                                                        42.2504
        22.2504
 09 10 13  0  8  0.0000000  0  9G02G04G05G13G29G23G30G10G25
 -11069001.38748  -8589808.12947
                  20504906.5554                                   20504900.2034
                                                                        51.5004
        42.7504
  -1304825.34048  -1001274.54346
                  21860896.5864                                   21860893.1294
                                                                        48.7504
        37.7504
  -8234264.86747  -6370490.53145
                  23301872.0164                                   23301867.2734
                                                                        47.7504
        33.5004
 -13378450.62148 -10383975.15646
                  21294367.1094                                   21294362.3954
                                                                        48.2504
        36.5004
 -13607329.10247 -10559022.13745
                  22941846.2814                                   22941842.6094
                                                                        43.7504
        33.2504
  -3686991.31647  -2851187.90245
                  22609130.7274                                   22609124.7304
                                                                        46.0004
        30.5004
   -272266.02346   -197826.31243
                  24062675.2664                                   24062671.6724
                                                                        40.7504
        22.7504
 -14070375.48847 -10916354.09445
                  22473841.3674                                   22473837.5274
                                                                        46.2504
        34.2504
  -2081296.86746  -1582358.22343
                  23912511.5554                                   23912508.0044
                                                                        40.5004
        22.5004
 09 10 13  0  8 30.0000000  0  9G02G04G05G13G29G23G30G10G25
 -11139277.21148  -8644568.52347
                  20491533.3674                                   20491527.5434
                                                                        51.5004
        42.5004
  -1297791.56648   -995793.69146
                  21862234.7114                                   21862231.0084
                                                                        50.0004
        37.2504
  -8414179.62947  -6510683.84845
                  23267635.3524                                   23267630.9574
                                                                        46.7504
        33.5004
 -13464389.46548 -10450940.45746
                  21278013.3284                                   21278008.7194
                                                                        49.2504
        36.5004
 -13752616.63747 -10672233.18745
                  22914199.0234                                   22914195.5234
                                                                        45.0004
        33.0004
  -3693869.35947  -2856547.39545
                  22607822.0314                                   22607815.5784
                                                                        46.2504
        31.0004
   -254797.01246   -184214.08243
                  24065999.4774                                   24065995.8914
                                                                        40.7504
        22.5004
 -14244032.17647 -11051670.98845
                  22440795.6954                                   22440791.6884
                                                                        46.5004
        33.5004
  -2238201.91446  -1704621.80143
                  23882653.1884                                   23882649.3594
                                                                        40.2504
        22.5004
 09 10 13  0  9  0.0000000  0  9G02G04G05G13G29G23G30G10G25
 -11208934.66048  -8698847.04347
                  20478278.1174                                   20478271.4884
                                                                        51.2504
        43.0004
  -1290338.21547   -989985.88346
                  21863653.0004                                   21863649.4344
                                                                        47.0004
        37.0004
  -8593834.45747  -6650674.62545
                  23233447.9384                                   23233443.2274
                                                                        46.7504
        33.5004
 -13549625.44148 -10517358.07046
                  21261793.3674                                   21261788.6454
                                                                        48.2504
        36.5004
 -13897415.69547 -10785063.62945
                  22886644.8444                                   22886641.0474
                                                                        45.5004
        33.7504
  -3700220.87947  -2861496.58645
                  22606612.9144                                   22606606.8204
                                                                        46.5004
        31.7504
   -236927.75047   -170290.04744
                  24069400.4224                                   24069396.8714
                                                                        42.5004
        24.0004
 -14417332.60547 -11186710.27745
                  22407817.8754                                   22407814.2114
                                                                        45.7504
        34.2504
  -2394726.94546  -1826589.29744
                  23852868.0394                                   23852864.2424
                                                                        40.7504
        24.5004
 09 10 13  0  9 30.0000000  0  9G02G04G05G13G29G23G30G10G25
 -11277973.88748  -8752643.82847
                  20465140.2504                                   20465134.0664
                                                                        52.0004
        43.0004
  -1282467.99248   -983853.23446
                  21865150.7814                                   21865147.1604
                                                                        49.5004
        37.2504
  -8773227.14847  -6790461.12545
                  23199310.2274                                   23199306.4774
                                                                        46.2504
        33.2504
 -13634158.72748 -10583228.12946
                  21245707.4064                                   21245702.9654
                                                                        49.0004
        37.0004
 -14041724.33647 -10897511.92245
                  22859184.1724                                   22859180.2274
                                                                        45.2504
        33.5004
  -3706048.53547  -2866037.60545
                  22605504.2114                                   22605497.5594
                                                                        47.2504
        30.7504
   -218660.96947   -156056.18443
                  24072875.9144                                   24072872.3754
                                                                        42.7504
        23.5004
 -14590275.12147 -11321470.66845
                  22374908.0704                                   22374903.9104
                                                                        46.7504
        34.2504
  -2550869.63746  -1948258.84043
                  23823155.2584                                   23823151.2034
                                                                        41.0004
        22.2504
 09 10 13  0 10  0.0000000  0  9G02G04G05G13G29G23G30G10G25
 -11346395.56248  -8805959.41047
                  20452119.8674                                   20452113.5984
                                                                        51.7504
        42.0004
  -1274183.38348   -977397.71146
                  21866727.4774                                   21866723.7424
                                                                        49.5004
        37.0004
  -8952356.32447  -6930042.25445
                  23165223.3674                                   23165219.3674
                                                                        47.0004
        33.5004
 -13717989.68748 -10648550.92646
                  21229755.0084                                   21229750.4734
                                                                        49.5004
        36.7504
 -14185541.13747 -11009576.92645
                  22831816.4384                                   22831812.2194
                                                                        47.0004
        34.0004
  -3711355.50047  -2870172.87145
                  22604494.3284                                   22604487.1844
                                                                        46.0004
        30.0004
   -200001.09447   -141516.03543
                  24076426.7814                                   24076423.0664
                                                                        42.5004
        23.0004
 -14762857.90647 -11455950.76245
                  22342066.1724                                   22342062.7344
                                                                        47.2504
        34.5004
  -2706628.00846  -2069628.93043
                  23793514.8594                                   23793510.8404
                                                                        39.7504
        23.5004
 09 10 13  0 10 30.0000000  0  9G02G04G05G13G29G23G30G10G25
 -11414199.63348  -8858793.74647
                  20439217.4774                                   20439211.1414
                                                                        51.7504
        42.2504
  -1265486.13748   -970620.62546
                  21868382.4304                                   21868378.8754
                                                                        49.5004
        37.5004
  -9131220.06247  -7069416.57445
                  23131186.8674                                   23131182.6414
                                                                        47.2504
        33.2504
 -13801118.00448 -10713326.20346
                  21213936.0394                                   21213931.2464
                                                                        49.5004
        36.7504
 -14328863.42647 -11121256.61745
                  22804542.8134                                   22804539.1844
                                                                        45.2504
        33.2504
  -3716143.63347  -2873903.88744
                  22603582.9144                                   22603575.9774
                                                                        46.0004
        29.2504
   -180950.91847   -126671.72743
                  24080051.9144                                   24080048.5204
                                                                        42.0004
        22.2504
 -14935078.51647 -11590148.63745
                  22309294.2584                                   22309290.5004
                                                                        46.7504
        35.2504
  -2861999.39847  -2190697.51644
                  23763948.4304                                   23763944.2704
                                                                        43.0004
        24.0004
 09 10 13  0 11  0.0000000  0  9G02G04G05G13G29G23G30G10G25
 -11481385.51248  -8911146.38347
                  20426432.1414                                   20426425.8634
                                                                        51.5004
        42.2504
  -1256378.20348   -963523.52746
                  21870115.7664                                   21870111.9654
                                                                        49.2504
        36.7504
  -9309816.19547  -7208582.38345
                  23097201.3284                                   23097196.9534
                                                                        47.0004
        33.7504
 -13883543.00048 -10777553.45746
                  21198251.1024                                   21198246.3984
                                                                        49.0004
        36.5004
 -14471688.91847 -11232549.19945
                  22777364.1094                                   22777360.4064
                                                                        44.7504
        32.5004
  -3720415.05547  -2877232.23445
                  22602769.5554                                   22602763.4844
                                                                        45.7504
        30.0004
   -161513.81647   -111525.96543
                  24083750.6804                                   24083746.8164
                                                                        42.7504
        22.5004
 -15106934.77047 -11724062.60545
                  22276590.9534                                   22276587.0784
                                                                        46.7504
        34.7504
  -3016980.77746  -2311462.25044
                  23734456.8914                                   23734452.4654
                                                                        41.2504
        24.0004
 09 10 13  0 11 30.0000000  0  9G02G04G05G13G29G23G30G10G25
 -11547953.85948  -8963017.80947
                  20413764.9534                                   20413758.7114
                                                                        51.2504
        42.2504
  -1246862.03148   -956108.34046
                  21871926.2344                                   21871923.1294
                                                                        49.5004
        36.5004
  -9488143.30547  -7347538.55945
                  23063266.5084                                   23063262.1604
                                                                        47.7504
        33.5004
 -13965265.56648 -10841233.38346
                  21182699.5704                                   21182695.1644
                                                                        49.5004
        36.7504
 -14614015.77747 -11343453.21145
                  22750280.0944                                   22750276.0744
                                                                        44.5004
        31.7504
  -3724172.78947  -2880160.34844
                  22602054.7734                                   22602049.0044
                                                                        45.0004
        29.5004
   -141693.46947    -96081.50843
                  24087522.1804                                   24087518.8204
                                                                        42.0004
        22.5004
 -15278425.27347 -11857691.58245
                  22243957.5164                                   22243953.5784
                                                                        47.7504
        34.5004
  -3171570.36346  -2431921.69943
                  23705039.3834                                   23705034.8204
                                                                        41.0004
        23.0004
 09 10 13  0 12  0.0000000  0  9G02G04G05G13G29G23G30G10G25
 -11613903.62548  -9014407.22347
                  20401215.1254                                   20401208.7544
                                                                        51.2504
        42.2504
  -1236938.78548   -948375.93746
                  21873815.0084                                   21873811.0864
                                                                        49.5004
        37.0004
  -9666198.30547  -7486282.67645
                  23029383.7424                                   23029379.3594
                                                                        47.5004
        33.5004
 -14046284.32448 -10904364.85946
                  21167282.2424                                   21167278.0944
                                                                        49.5004
        37.0004
 -14755841.34447 -11453966.63345
                  22723292.0474                                   22723287.3164
                                                                        45.2504
        32.0004
  -3727418.14847  -2882689.18444
                  22601437.2194                                   22601430.9614
                                                                        45.7504
        29.0004
   -121492.09846    -80340.20743
                  24091365.9694                                   24091363.3954
                                                                        41.0004
        22.5004
 -15449546.80947 -11991033.05145
                  22211394.2194                                   22211390.1524
                                                                        47.0004
        34.7504
  -3325764.34446  -2552072.81644
                  23675697.3984                                   23675693.6134
                                                                        41.0004
        24.5004
 09 10 13  0 12 30.0000000  0  9G02G04G05G13G29G23G30G10G25
 -11679234.92648  -9065314.71947
                  20388782.9384                                   20388776.7704
                                                                        51.5004
        42.7504
  -1226610.34048   -940327.80546
                  21875780.2504                                   21875776.6844
                                                                        49.5004
        37.5004
  -9843979.40647  -7624813.35945
                  22995552.9454                                   22995549.1094
                                                                        47.2504
        34.5004
 -14126599.29748 -10966947.93046
                  21151998.7894                                   21151993.9774
                                                                        49.7504
        36.5004
 -14897163.05947 -11564087.44545
                  22696399.0234                                   22696394.9534
                                                                        45.7504
        32.0004
  -3730153.55147  -2884820.64544
                  22600916.9844                                   22600910.3714
                                                                        47.2504
        29.7504
   -100912.80546    -64304.44143
                  24095282.5554                                   24095279.2624
                                                                        41.2504
        22.7504
 -15620297.49247 -12124085.53545
                  22178901.1644                                   22178896.6844
                                                                        47.2504
        34.7504
  -3479560.12546  -2671913.62943
                  23646430.4844                                   23646426.7034
                                                                        39.2504
        22.5004
 09 10 13  0 13  0.0000000  0  9G02G04G05G13G29G23G30G10G25
 -11743947.45348  -9115740.06247
                  20376468.5784                                   20376462.4384
                                                                        51.5004
        42.7504
  -1215878.64548   -931965.44946
                  21877822.2734                                   21877818.5394
                                                                        49.7504
        36.2504
 -10021484.38747  -7763128.90245
                  22961775.2274                                   22961770.7424
                                                                        46.5004
        33.5004
 -14206210.16448 -11028982.33646
                  21136849.7424                                   21136845.0904
                                                                        50.0004
        36.7504
 -15037978.60947 -11673813.82445
                  22669602.8674                                   22669598.9064
                                                                        46.5004
        33.0004
  -3732380.98847  -2886556.30145
                  22600493.1644                                   22600486.9494
                                                                        45.5004
        30.2504
    -79958.67246    -47976.60543
                  24099270.2114                                   24099266.7774
                                                                        41.2504
        22.7504
 -15790674.52747 -12256846.85545
                  22146479.5864                                   22146475.2304
                                                                        47.0004
        34.0004
  -3632955.03946  -2791442.06643
                  23617240.1414                                   23617236.7814
                                                                        40.7504
        22.7504
 09 10 13  0 13 30.0000000  0  9G02G04G05G13G29G23G30G10G25
 -11808041.95348  -9165683.83647
                  20364271.6334                                   20364265.7154
                                                                        52.0004
        43.0004
  -1204746.14148   -923290.77046
                  21879941.1094                                   21879937.3054
                                                                        49.5004
        36.2504
 -10198711.85547  -7901228.22745
                  22928049.8984                                   22928045.4264
                                                                        47.2504
        34.0004
 -14285117.41448 -11090468.52346
                  21121833.8054                                   21121829.1454
                                                                        50.5004
        36.2504
 -15178286.59847 -11783144.74245
                  22642903.0634                                   22642899.5124
                                                                        45.7504
        34.0004
  -3734103.53147  -2887898.54345
                  22600165.6024                                   22600158.3674
                                                                        46.5004
        30.0004
    -58633.27747    -31359.45744
                  24103328.1254                                   24103325.0354
                                                                        43.0004
        25.5004
 -15960676.71947 -12389316.06245
                  22114129.5164                                   22114125.0784
                                                                        47.0004
        34.2504
  -3785946.97746  -2910656.50044
                  23588126.4614                                   23588123.6374
                                                                        41.0004
        24.5004
 09 10 13  0 14  0.0000000  0  8G02G04G05G13G29G23G10G25
 -11871518.35248  -9215145.94947
                  20352192.5234                                   20352186.3014
                                                                        51.2504
        42.7504
  -1193214.71148   -914305.25046
                  21882135.0634                                   21882131.4884
                                                                        48.0004
        37.0004
 -10375659.80547  -8039109.73445
                  22894377.5164                                   22894373.3094
                                                                        47.2504
        34.5004
 -14363320.93448 -11151406.32846
                  21106952.3524                                   21106947.7974
                                                                        49.2504
        36.0004
 -15318084.78947 -11892078.38345
                  22616300.7504                                   22616296.8954
                                                                        45.7504
        33.7504
  -3735323.49247  -2888849.15644
                  22599933.1094                                   22599926.5204
                                                                        45.5004
        29.5004
 -16130301.56247 -12521491.25045
                  22081850.6644                                   22081846.6844
                                                                        47.5004
        34.5004
  -3938533.04747  -3029554.67244
                  23559090.9614                                   23559087.1094
                                                                        42.2504
        24.2504
 09 10 13  0 14 30.0000000  0  8G02G04G05G13G29G23G10G25
 -11934377.39848  -9264127.02347
                  20340231.0164                                   20340224.6134
                                                                        51.7504
        42.5004
  -1181287.35548   -905011.22746
                  21884404.9694                                   21884401.0704
                                                                        48.5004
        36.2504
 -10552326.84048  -8176772.34845
                  22860759.0314                                   22860754.5824
                                                                        48.5004
        34.7504
 -14440821.36348 -11211796.27346
                  21092204.0864                                   21092199.6414
                                                                        48.7504
        36.7504
 -15457371.59847 -12000613.53545
                  22589795.0234                                   22589791.5394
                                                                        45.7504
        34.2504
  -3736043.37947  -2889410.08245
                  22599796.0314                                   22599789.3984
                                                                        45.5004
        30.0004
 -16299547.76647 -12653371.38745
                  22049643.8444                                   22049640.1994
                                                                        47.0004
        35.2504
  -4090711.81647  -3148135.47344
                  23530132.0004                                   23530128.6094
                                                                        42.7504
        26.0004
 09 10 13  0 15  0.0000000  0  8G02G04G05G13G29G23G10G25
 -11996615.21148  -9312624.00447
                  20328387.5314                                   20328381.2034
                                                                        52.0004
        42.2504
  -1168961.86348   -895406.94146
                  21886750.5864                                   21886746.7234
                                                                        49.7504
