     2.11           OBSERVATION DATA    G (GPS)             RINEX VERSION / TYPE
teqc  2019Feb25                         20221121 12:28:36UTCPGM / RUN BY / DATE
OSX ker:10.11.6|Core i5|gcc 4.3 -m64|OSX ker:10.10+|=+      COMMENT
BIT 2 OF LLI FLAGS DATA COLLECTED UNDER A/S CONDITION       COMMENT
04712950                                                    MARKER NAME
2950                                                        MARKER NUMBER
-Unknown-           -Unknown-                               OBSERVER / AGENCY
0220400471          TRIMBLE R7          2.30                REC # / TYPE / VERS
-Unknown-           TRM39105.00     NONE                    ANT # / TYPE
  1449459.9603 -1709242.7503  5952443.4656                  APPROX POSITION XYZ
        0.0000        0.0000        0.0000                  ANTENNA: DELTA H/E/N
     1     1                                                WAVELENGTH FACT L1/2
    20    L1    L2    L5    L6    L7    L8    C1    P1    C2# / TYPES OF OBSERV
          P2    C5    C6    C7    C8    S1    S2    S5    S6# / TYPES OF OBSERV
          S7    S8                                          # / TYPES OF OBSERV
    30.0000                                                 INTERVAL
    15                                                      LEAP SECONDS
Forced Modulo Decimation to 30 seconds                      COMMENT
 SNR is mapped to RINEX snr flag value [0-9]                COMMENT
  L1 & L2: min(max(int(snr_dBHz/6), 0), 9)                  COMMENT
teqc edited: Beidou # 1 - 37 excluded                       COMMENT
  2009    10    22     0     0    0.0000000     GPS         TIME OF FIRST OBS
                                                            END OF HEADER
 09 10 22  0  0  0.0000000  0 10G02G04G05G10G13G23G29G16G07G25
  -8841144.23848  -6855910.30147
                  20758008.8204                                   20758002.3324
                                                                        52.2504
        42.0004
  -1219647.05547   -942992.19145
                  22937251.9534                                   22937248.2814
                                                                        46.2504
        31.0004
 -19865672.50848 -15424996.92246
                  22226307.7274                                   22226303.8364
                                                                        50.0004
        38.5004
 -19036687.70748 -14775763.95746
                  21455657.7734                                   21455653.4144
                                                                        51.0004
        39.7504
 -10263626.36348  -7959513.43745
                  21411775.0164                                   21411770.4534
                                                                        50.7504
        35.2504
  -2692248.68047  -2084524.26243
                  23494173.5704                                   23494167.2304
                                                                        44.0004
        23.7504
 -16221653.30948 -12587823.89146
                  22335808.2734                                   22335804.7344
                                                                        49.2504
        37.5004
  -2050236.28146  -1563315.68043
                  24300926.5704                                   24300922.3444
                                                                        41.7504
        21.5004
   -323494.58656   -237890.98053
                  24514737.7194                                   24514733.6954
                                                                        40.2504
        20.5004
 -13842085.32847 -10772412.48844
                  23156981.3054                                   23156977.0634
                                                                        44.5004
        29.0004
 09 10 22  0  0 30.0000000  0 10G02G04G05G10G13G23G29G16G07G25
  -8898947.82448  -6900952.03147
                  20747009.1024                                   20747003.2154
                                                                        52.0004
        42.0004
  -1213486.25047   -938191.58645
                  22938423.8914                                   22938420.5084
                                                                        46.5004
        32.0004
 -20049047.47348 -15567886.55146
                  22191412.7974                                   22191408.7664
                                                                        50.0004
        39.0004
 -19206443.66848 -14908041.34446
                  21423354.1254                                   21423350.2034
                                                                        51.0004
        39.0004
 -10331474.88748  -8012382.50445
                  21398863.8364                                   21398858.6134
                                                                        50.2504
        35.5004
  -2695559.00847  -2087103.74244
                  23493544.4224                                   23493536.9344
                                                                        44.0004
        26.5004
 -16357077.95748 -12693349.58246
                  22310037.7274                                   22310034.7774
                                                                        49.2504
        37.0004
  -2208769.79346  -1686848.28943
                  24270758.7114                                   24270754.6644
                                                                        41.5004
        20.7504
   -517916.31246   -389388.38243
                  24477740.1094                                   24477736.4884
                                                                        39.7504
        20.2504
 -13995180.55547 -10891707.51644
                  23127847.8914                                   23127843.9924
                                                                        44.5004
        27.0004
 09 10 22  0  1  0.0000000  0 10G02G04G05G10G13G23G29G16G07G25
  -8956172.11748  -6945542.40246
                  20736119.3834                                   20736113.5864
                                                                        52.5004
        41.7504
  -1207045.93447   -933173.17245
                  22939649.9774                                   22939646.2194
                                                                        46.7504
        32.2504
 -20232063.89548 -15710496.73446
                  22156585.9454                                   22156581.5084
                                                                        50.0004
        38.5004
 -19375734.64548 -15039956.39146
                  21391139.0314                                   21391135.3524
                                                                        51.7504
        39.2504
 -10398664.80948  -8064738.43445
                  21386077.6804                                   21386073.5864
                                                                        49.0004
        35.7504
  -2698500.19547  -2089395.62144
                  23492984.1414                                   23492978.0634
                                                                        44.2504
        26.5004
 -16491921.09048 -12798422.14146
                  22284378.2734                                   22284374.5434
                                                                        49.0004
        38.0004
  -2366800.22346  -1809988.90643
                  24240686.4694                                   24240682.3364
                                                                        39.0004
        19.0004
   -712068.66046   -540675.86743
                  24440795.5474                                   24440790.5274
                                                                        40.7504
        20.7504
 -14147774.16847 -11010611.65244
                  23098810.5634                                   23098806.4184
                                                                        44.5004
        27.7504
 09 10 22  0  1 30.0000000  0 10G02G04G05G10G13G23G29G16G07G25
  -9012817.29348  -6989681.49247
                  20725340.2664                                   20725334.2894
                                                                        52.5004
        42.0004
  -1200328.31647   -927938.71145
                  22940928.4774                                   22940924.7584
                                                                        46.5004
        32.2504
 -20414717.61348 -15852824.27046
                  22121827.9774                                   22121823.7734
                                                                        50.0004
        39.2504
 -19544556.98448 -15171506.29346
                  21359013.3284                                   21359009.1414
                                                                        51.2504
        39.0004
 -10465196.50448  -8116581.42245
                  21373417.3984                                   21373412.9184
                                                                        49.5004
        35.7504
  -2701073.87947  -2091401.10544
                  23492494.5004                                   23492488.4574
                                                                        44.5004
        27.0004
 -16626178.35548 -12903038.21546
                  22258829.9064                                   22258825.8674
                                                                        49.5004
        37.5004
  -2524323.76246  -1932734.55543
                  24210710.1414                                   24210706.0984
                                                                        39.5004
        19.2504
   -905948.42246   -691750.94943
                  24403900.0944                                   24403896.2384
                                                                        40.5004
        22.5004
 -14299863.88347 -11129123.10544
                  23069868.6414                                   23069864.6254
                                                                        44.5004
        28.0004
 09 10 22  0  2  0.0000000  0 10G02G04G05G10G13G23G29G16G07G25
  -9068879.95748  -7033366.68446
                  20714671.7584                                   20714665.5514
                                                                        52.0004
        41.7504
  -1193330.71147   -922486.02745
                  22942259.8914                                   22942256.8524
                                                                        46.2504
        31.2504
 -20597003.70348 -15994865.36746
                  22087140.5864                                   22087136.0744
                                                                        50.0004
        39.0004
 -19712905.05148 -15302686.59046
                  21326977.5314                                   21326973.6484
                                                                        51.0004
        39.0004
 -10531067.17648  -8167909.29345
                  21360882.8444                                   21360878.4924
                                                                        49.5004
        35.0004
  -2703278.63747  -2093119.14144
                  23492074.7114                                   23492068.4694
                                                                        42.7504
        26.0004
 -16759845.71548 -13007194.62146
                  22233394.0394                                   22233390.6294
                                                                        49.5004
        37.5004
  -2681334.00846  -2055080.21143
                  24180832.7424                                   24180828.0314
                                                                        41.2504
        19.5004
  -1099548.18447   -842607.80544
                  24367060.3594                                   24367055.9414
                                                                        43.0004
        25.5004
 -14451443.24247 -11247236.90644
                  23041023.7034                                   23041019.6134
                                                                        43.7504
        25.5004
 09 10 22  0  2 30.0000000  0 10G02G04G05G10G13G23G29G16G07G25
  -9124359.15248  -7076597.20347
                  20704114.6024                                   20704108.2704
                                                                        51.7504
        42.5004
  -1186053.52747   -916815.50445
                  22943644.2114                                   22943641.1914
                                                                        44.5004
        31.0004
 -20778917.84848 -16136616.74246
                  22052523.5234                                   22052519.0474
                                                                        50.5004
        39.7504
 -19880774.24248 -15433493.68746
                  21295033.0164                                   21295028.8674
                                                                        51.2504
        40.0004
 -10596276.19948  -8218721.57846
                  21348474.3054                                   21348469.8674
                                                                        49.0004
        36.0004
  -2705114.84447  -2094549.98444
                  23491725.4454                                   23491719.3204
                                                                        44.0004
        26.2504
 -16892918.45348 -13110887.64846
                  22208070.8284                                   22208066.7154
                                                                        49.7504
        37.0004
  -2837827.09046  -2177022.90243
                  24151052.6804                                   24151048.7274
                                                                        41.0004
        19.0004
  -1292863.33247   -993242.95744
                  24330273.9774                                   24330269.1174
                                                                        44.2504
        27.7504
 -14602508.39847 -11364950.02044
                  23012277.8134                                   23012273.0824
                                                                        44.2504
        26.5004
 09 10 22  0  3  0.0000000  0 10G02G04G05G10G13G23G29G16G07G25
  -9179250.79348  -7119369.92246
                  20693669.0554                                   20693662.6994
                                                                        52.2504
        41.5004
  -1178493.56647   -910924.62145
                  22945082.8674                                   22945079.4264
                                                                        45.0004
        31.5004
 -20960452.70348 -16278072.45746
                  22017978.3204                                   22017974.2424
                                                                        50.0004
        40.5004
 -20048158.73448 -15563923.16446
                  21263180.9774                                   21263176.6024
                                                                        51.2504
        39.2504
 -10660819.36748  -8269014.98445
                  21336191.8204                                   21336187.4264
                                                                        49.2504
        35.7504
  -2706580.16047  -2095691.80944
                  23491446.7194                                   23491440.5084
                                                                        42.2504
        25.7504
 -17025391.12948 -13214113.11346
                  22182861.9224                                   22182858.2154
                                                                        49.0004
        37.0004
  -2993795.51246  -2298556.71943
                  24121373.1564                                   24121368.8094
                                                                        41.0004
        20.7504
  -1485885.39547  -1143649.73044
                  24293542.6334                                   24293538.3364
                                                                        42.5004
        27.0004
 -14753052.22747 -11482256.92244
                  22983630.6804                                   22983625.1644
                                                                        44.5004
        27.0004
 09 10 22  0  3 30.0000000  0 10G02G04G05G10G13G23G29G16G07G25
  -9233556.94148  -7161686.36747
                  20683334.9064                                   20683328.5004
                                                                        52.2504
        42.0004
  -1170654.21147   -904816.03145
                  22946574.9614                                   22946570.8914
                                                                        45.5004
        30.7504
 -21141607.90248 -16419232.32446
                  21983505.7194                                   21983501.3754
                                                                        50.0004
        39.7504
 -20215057.52748 -15693974.21546
                  21231420.9224                                   21231416.9064
                                                                        51.5004
        40.0004
 -10724699.34848  -8318791.59445
                  21324036.0474                                   21324031.4734
                                                                        48.5004
        35.2504
  -2707678.23047  -2096547.48044
                  23491237.6094                                   23491231.2114
                                                                        42.7504
        26.5004
 -17157263.14548 -13316870.53146
                  22157767.6334                                   22157763.6914
                                                                        49.7504
        36.7504
  -3149237.95346  -2419680.69143
                  24091793.7894                                   24091789.3324
                                                                        40.5004
        20.5004
  -1678612.74647  -1293826.85244
                  24256867.0944                                   24256863.7034
                                                                        42.5004
        26.5004
 -14903073.95747 -11599157.02344
                  22955081.8134                                   22955077.4304
                                                                        44.7504
        27.7504
 09 10 22  0  4  0.0000000  0 10G02G04G05G10G13G23G29G16G07G25
  -9287279.04348  -7203547.71547
                  20673112.2504                                   20673105.6804
                                                                        52.0004
        42.0004
  -1162538.08647   -898491.75845
                  22948119.3984                                   22948115.4534
                                                                        45.5004
        31.0004
 -21322382.49648 -16560095.60246
                  21949105.3204                                   21949101.0124
                                                                        48.7504
        40.0004
 -20381469.48448 -15823645.89846
                  21199754.4144                                   21199749.8914
                                                                        51.5004
        40.2504
 -10787918.16048  -8368053.01245
                  21312005.8754                                   21312001.4024
                                                                        48.5004
        35.0004
  -2708412.50047  -2097119.66443
                  23491097.4774                                   23491091.5354
                                                                        42.7504
        22.7504
 -17288533.98448 -13419159.49646
                  22132787.5864                                   22132783.7934
                                                                        49.5004
        37.0004
  -3304153.16846  -2540393.82043
                  24062314.6724                                   24062309.9414
                                                                        40.7504
        23.0004
  -1871042.83246  -1443772.29744
                  24220248.8524                                   24220244.6684
                                                                        40.5004
        24.7504
 -15052571.95747 -11715648.96144
                  22926633.7504                                   22926629.2704
                                                                        43.0004
        27.0004
 09 10 22  0  4 30.0000000  0 10G02G04G05G10G13G23G29G16G07G25
  -9340418.60248  -7244955.15646
                  20662999.8364                                   20662993.3984
                                                                        51.7504
        41.7504
  -1154148.33247   -891954.28945
                  22949716.1094                                   22949711.8914
                                                                        46.5004
        30.2504
 -21502774.91448 -16700661.22746
                  21914777.8834                                   21914773.5594
                                                                        48.5004
        39.0004
 -20547393.14148 -15952937.06646
                  21168179.7194                                   21168175.7814
                                                                        51.2504
        40.0004
 -10850478.02048  -8416800.99645
                  21300101.1644                                   21300096.2854
                                                                        48.5004
        35.7504
  -2708786.39147  -2097410.96143
                  23491026.6094                                   23491020.2934
                                                                        42.0004
        22.7504
 -17419202.19148 -13520978.84846
                  22107922.2974                                   22107918.0554
                                                                        49.5004
        37.0004
  -3458539.60946  -2660694.91443
                  24032935.0634                                   24032931.3834
                                                                        40.5004
        22.0004
  -2063174.09846  -1593484.87543
                  24183687.4924                                   24183683.3444
                                                                        37.5004
        22.0004
 -15201545.48447 -11831732.19944
                  22898284.6884                                   22898280.3364
                                                                        44.5004
        29.2504
 09 10 22  0  5  0.0000000  0 10G02G04G05G10G13G23G29G16G07G25
  -9392975.89848  -7285908.86747
                  20652998.6024                                   20652992.4304
                                                                        52.0004
        42.0004
  -1145485.07047   -885203.62545
                  22951364.2974                                   22951359.9884
                                                                        46.7504
        31.5004
 -21682782.34848 -16840926.80546
                  21880523.7974                                   21880519.2114
                                                                        49.7504
        39.2504
 -20712826.19148 -16081845.92246
                  21136698.7344                                   21136694.9734
                                                                        51.2504
        40.0004
 -10912378.31648  -8465035.00045
                  21288321.8754                                   21288317.0434
                                                                        49.5004
        35.2504
  -2708800.77747  -2097422.24244
                  23491023.6804                                   23491017.8094
                                                                        42.5004
        24.5004
 -17549266.18448 -13622327.38746
                  22083171.8364                                   22083168.1374
                                                                        49.5004
        37.2504
  -3612393.94146  -2780581.52343
                  24003658.1414                                   24003653.9844
                                                                        40.5004
        22.0004
  -2255001.16846  -1742960.41843
                  24147183.7424                                   24147179.5664
                                                                        37.5004
        22.5004
 -15349990.64847 -11947403.73044
                  22870036.3204                                   22870032.0634
                                                                        45.0004
        29.2504
 09 10 22  0  5 30.0000000  0 10G02G04G05G10G13G23G29G16G07G25
  -9444950.75448  -7326408.73047
                  20643108.1484                                   20643101.1884
                                                                        52.5004
        42.0004
  -1136550.27047   -878241.44145
                  22953064.4144                                   22953060.9224
                                                                        45.7504
        30.7504
 -21862401.62948 -16980889.92646
                  21846342.7734                                   21846338.7894
                                                                        49.2504
        39.0004
 -20877765.61348 -16210370.17246
                  21105312.0704                                   21105308.2974
                                                                        51.0004
        39.7504
 -10973620.10248  -8512755.78945
                  21276668.0234                                   21276663.4574
                                                                        48.5004
        35.5004
  -2708458.01647  -2097155.15244
                  23491089.4304                                   23491083.0554
                                                                        43.0004
        24.7504
 -17678723.18048 -13723202.94946
                  22058536.7584                                   22058533.0634
                                                                        49.5004
        36.5004
  -3765713.25446  -2900051.07843
                  23974482.7194                                   23974478.1954
                                                                        39.0004
        22.0004
  -2446521.00046  -1892196.57843
                  24110738.9304                                   24110734.6604
                                                                        39.5004
        22.2504
 -15497905.31247 -12062661.90644
                  22841889.1804                                   22841885.2934
                                                                        44.2504
        29.2504
 09 10 22  0  6  0.0000000  0 10G02G04G05G10G13G23G29G16G07G25
  -9496346.54348  -7366457.36346
                  20633327.7274                                   20633320.9774
                                                                        53.0004
        41.5004
  -1127347.97347   -871070.85945
                  22954815.3984                                   22954812.8164
                                                                        46.2504
        31.2504
 -22041633.38348 -17120551.05546
                  21812236.6484                                   21812232.3554
                                                                        51.0004
        40.0004
 -21042211.99248 -16338510.18446
                  21074018.6724                                   21074014.8134
                                                                        51.2504
        39.7504
 -11034206.86748  -8559966.28945
                  21265139.0234                                   21265134.1524
                                                                        49.0004
        35.2504
  -2707762.50847  -2096613.12944
                  23491221.8914                                   23491215.0634
                                                                        43.0004
        24.2504
 -17807574.59848 -13823606.70346
                  22034017.3834                                   22034014.1254
                                                                        49.0004
        37.7504
  -3918497.26646  -3019103.45743
                  23945408.2114                                   23945404.1954
                                                                        39.2504
        22.2504
  -2637732.55147  -2041192.67243
                  24074353.2274                                   24074347.5904
                                                                        43.0004
        22.5004
 -15645289.42647 -12177506.64844
                  22813843.0234                                   22813838.9264
                                                                        43.5004
        29.2504
 09 10 22  0  6 30.0000000  0 10G02G04G05G10G13G23G29G16G07G25
  -9547164.09448  -7406055.44546
                  20623657.3984                                   20623650.9884
                                                                        52.5004
        41.2504
  -1117879.88347   -863693.14845
                  22956617.6024                                   22956613.8524
                                                                        46.7504
        30.5004
 -22220475.21548 -17259908.27346
                  21778204.5234                                   21778199.5434
                                                                        50.0004
        39.7504
 -21206163.47348 -16466264.60946
                  21042820.0474                                   21042816.1954
                                                                        51.2504
        39.7504
 -11094139.54348  -8606667.12945
                  21253734.0784                                   21253729.1644
                                                                        48.5004
        35.5004
  -2706716.94547  -2095798.42643
                  23491420.4844                                   23491414.0824
                                                                        42.2504
        22.7504
 -17935818.63748 -13923537.16846
                  22009613.6804                                   22009610.3874
                                                                        48.7504
        38.0004
  -4070744.01646  -3137737.28943
                  23916436.3444                                   23916432.5514
                                                                        38.0004
        21.7504
  -2828632.49247  -2189945.88344
                  24038026.0474                                   24038021.2384
                                                                        42.5004
        26.7504
 -15792141.02747 -12291936.44544
                  22785897.5084                                   22785894.0944
                                                                        43.5004
        29.7504
 09 10 22  0  7  0.0000000  0 10G02G04G05G10G13G23G29G16G07G25
  -8021983.00448  -6217602.64146
                  20913889.7114                                   20913883.3834
                                                                        52.5004
        41.0004
    467271.16047    371489.50845
                  23258261.6254                                   23258258.5704
                                                                        47.0004
        30.0004
 -20823499.71548 -16171355.93446
                  22044039.5634                                   22044035.3834
                                                                        49.7504
        40.0004
 -19794192.69548 -15366027.62946
                  21311509.0474                                   21311504.7894
                                                                        51.2504
        40.0004
  -9577997.93448  -7425258.05945
                  21542245.8364                                   21542241.5204
                                                                        50.0004
        35.2504
  -1129904.01646   -867112.96543
                  23791478.1884                                   23791471.9384
                                                                        41.5004
        22.5004
 -16488029.44548 -12795389.73046
                  22285118.8834                                   22285115.2464
                                                                        49.5004
        38.0004
  -2647025.98046  -2028346.59843
                  24187361.2424                                   24187356.7344
                                                                        39.0004
        21.5004
  -1443791.90647  -1110849.28944
                  24301552.0784                                   24301548.2344
                                                                        42.0004
        27.2504
 -14363033.68747 -11178346.30144
                  23057847.7734                                   23057843.7814
                                                                        43.0004
        29.5004
 09 10 22  0  7 30.0000000  0 10G02G04G05G10G13G23G29G16G07G25
  -8071651.12148  -6256305.09446
                  20904438.1564                                   20904431.7734
                                                                        52.2504
        41.7504
    477260.29747    379273.25045
                  23260162.6954                                   23260158.9414
                                                                        47.2504
        30.7504
 -21001560.24648 -16310104.38746
                  22010155.9694                                   22010151.3714
                                                                        50.0004
        40.0004
 -19957152.61748 -15493009.30946
                  21280498.6254                                   21280494.5824
                                                                        50.2504
        39.5004
  -9636631.00048  -7470946.12945
                  21531088.3674                                   21531083.7234
                                                                        50.5004
        34.7504
  -1128170.01647   -865761.89143
                  23791808.1884                                   23791801.8324
                                                                        42.7504
        23.2504
 -16615058.52348 -12894373.37946
                  22260945.6724                                   22260941.9494
                                                                        49.2504
        38.0004
  -2798194.90646  -2146140.53143
                  24158594.3204                                   24158590.0314
                                                                        39.2504
        21.7504
  -1634063.87546  -1259113.11344
                  24265344.5084                                   24265340.6254
                                                                        40.0004
        24.7504
 -14508818.51247 -11291944.83644
                  23030105.7974                                   23030101.7664
                                                                        42.7504
        28.2504
 09 10 22  0  8  0.0000000  0 10G02G04G05G10G13G23G29G16G07G25
  -8120746.81248  -6294561.48847
                  20895095.6804                                   20895089.4344
                                                                        52.5004
        42.0004
    487506.35247    387257.18445
                  23262112.2584                                   23262108.6994
                                                                        46.7504
        30.2504
 -21179228.66448 -16448547.28546
                  21976346.8834                                   21976342.2234
                                                                        51.0004
        40.0004
 -20119615.27348 -15619603.59446
                  21249583.1564                                   21249579.2344
                                                                        51.0004
        40.0004
  -9694616.97348  -7516129.97345
                  21520053.8674                                   21520049.4144
                                                                        49.2504
        35.5004
  -1126095.98847   -864145.86743
                  23792202.2734                                   23792196.5314
                                                                        42.5004
        23.5004
 -16741479.50448 -12992883.19546
                  22236888.7894                                   22236884.7424
                                                                        49.5004
        38.7504
  -2948823.14146  -2263513.19943
                  24129931.2814                                   24129926.6764
                                                                        39.5004
        22.0004
  -1824017.76246  -1407129.02344
                  24229197.8984                                   24229193.5124
                                                                        38.7504
        26.2504
 -14654067.57847 -11405125.93444
                  23002465.7504                                   23002461.5904
                                                                        43.2504
        29.2504
 09 10 22  0  8 30.0000000  0 10G02G04G05G10G13G23G29G16G07G25
  -8169272.28148  -6332373.52347
                  20885861.4144                                   20885855.1524
                                                                        52.0004
        42.0004
    498005.73047    395438.53144
                  23264110.1954                                   23264106.5434
                                                                        44.7504
        29.7504
 -21356503.42248 -16586683.46146
                  21942612.4454                                   21942608.3284
                                                                        49.7504
        40.2504
 -20281579.49248 -15745809.39146
                  21218762.3984                                   21218757.9844
                                                                        51.0004
        40.2504
  -9751959.03948  -7560812.12145
                  21509142.5554                                   21509137.8134
                                                                        50.2504
        34.5004
  -1123686.25047   -862268.08643
                  23792661.2814                                   23792655.0904
                                                                        42.0004
        22.5004
 -16867291.57448 -13090918.64146
                  22212947.5554                                   22212943.6254
                                                                        49.5004
        38.0004
  -3098909.37946  -2380463.53143
                  24101370.8984                                   24101366.1024
                                                                        41.0004
        22.5004
  -2013652.44946  -1554896.25844
                  24193110.5944                                   24193107.5594
                                                                        41.2504
        25.7504
 -14798780.89547 -11517889.53944
                  22974928.1174                                   22974923.2584
                                                                        43.0004
        27.7504
 09 10 22  0  9  0.0000000  0 10G02G04G05G10G13G23G29G16G07G25
  -8217229.75048  -6369742.94146
                  20876735.3834                                   20876729.1214
                                                                        52.0004
        41.7504
    508755.76647    403815.15644
                  23266155.9694                                   23266152.0434
                                                                        45.0004
        28.7504
 -21533384.33648 -16724512.73046
                  21908953.0944                                   21908948.9104
                                                                        50.0004
        40.5004
 -20443045.77748 -15871627.23446
                  21188036.1954                                   21188031.8284
                                                                        51.5004
        40.0004
  -9808658.91448  -7604993.88345
                  21498352.7344                                   21498348.1644
                                                                        49.0004
        34.0004
  -1120944.13347   -860131.37143
                  23793183.0084                                   23793176.8364
                                                                        42.7504
        22.7504
 -16992495.19548 -13188479.86746
                  22189121.9224                                   22189118.6804
                                                                        49.7504
        37.7504
  -3248452.68446  -2496990.77343
                  24072914.1094                                   24072909.2424
                                                                        41.7504
        22.0004
  -2202965.19546  -1702412.64543
                  24157086.1564                                   24157081.7584
                                                                        39.7504
        23.2504
 -14942956.92647 -11630234.47344
                  22947492.1724                                   22947487.7154
                                                                        42.0004
        28.2504
 09 10 22  0  9 30.0000000  0 10G02G04G05G10G13G23G29G16G07G25
  -8264619.73448  -6406670.18746
                  20867717.6024                                   20867711.2464
                                                                        52.0004
        41.5004
    519754.32047    412385.41845
                  23268248.8674                                   23268245.2274
                                                                        46.0004
        30.7504
 -21709868.11348 -16862032.53946
                  21875369.6484                                   21875365.0704
                                                                        50.0004
        40.2504
 -20604010.57048 -15997054.24646
                  21157405.7034                                   21157401.8204
                                                                        50.5004
        40.5004
  -9864718.16848  -7648676.44945
                  21487685.0554                                   21487679.9144
                                                                        48.7504
        34.5004
  -1117871.95747   -857737.44943
                  23793767.6174                                   23793761.9344
                                                                        42.0004
        22.5004
 -17117088.08248 -13285565.25446
                  22165413.0234                                   22165408.9304
                                                                        50.0004
        38.0004
  -3397450.59446  -2613093.07443
                  24044560.5474                                   24044554.9414
                                                                        40.7504
        22.0004
  -2391953.07846  -1849675.89543
                  24121123.0164                                   24121118.7734
                                                                        39.2504
        22.7504
 -15086593.95347 -11742159.42644
                  22920159.2344                                   22920154.4384
                                                                        42.2504
        27.0004
 09 10 22  0 10  0.0000000  0 10G02G04G05G10G13G23G29G16G07G25
  -8311444.50848  -6443157.03146
                  20858807.0234                                   20858800.4924
                                                                        52.5004
        41.7504
    530998.91847    421147.41044
                  23270389.0164                                   23270384.7624
                                                                        46.7504
        29.7504
 -21885954.58648 -16999242.74646
                  21841861.1484                                   21841857.2034
                                                                        50.5004
        39.5004
 -20764473.80548 -16122090.53146
                  21126870.7114                                   21126866.3794
                                                                        51.5004
        40.2504
  -9920138.77048  -7691861.32045
                  21477139.1254                                   21477134.2424
                                                                        48.5004
        34.7504
  -1114472.73446   -855088.65243
                  23794414.6174                                   23794408.1804
                                                                        41.7504
        22.0004
 -17241070.46548 -13382174.97746
                  22141819.5944                                   22141815.8014
                                                                        49.7504
        38.2504
  -3545901.30947  -2728769.01643
                  24016311.5394                                   24016305.7194
                                                                        42.0004
        21.7504
  -2580613.82446  -1996684.24643
                  24085221.7274                                   24085216.8714
                                                                        39.7504
        23.5004
 -15229690.69147 -11853663.40244
                  22892928.1564                                   22892923.7234
                                                                        44.5004
        28.2504
 09 10 22  0 10 30.0000000  0 10G02G04G05G10G13G23G29G16G07G25
  -8357704.36348  -6479203.68746
                  20850003.8984                                   20849997.7664
                                                                        51.5004
        41.2504
    542487.73447    430099.67245
                  23272574.8524                                   23272571.8364
                                                                        45.0004
        30.5004
 -22061640.82448 -17136141.04746
                  21808429.6414                                   21808425.1024
                                                                        50.5004
        40.5004
 -20924432.84048 -16246733.92646
                  21096431.4924                                   21096427.0864
                                                                        51.5004
        40.2504
  -9974922.12948  -7734549.60945
                  21466713.8674                                   21466709.2734
                                                                        49.0004
        34.7504
  -1110749.34446   -852187.23443
                  23795123.1644                                   23795116.2504
                                                                        41.5004
        21.5004
 -17364440.17248 -13478307.30146
                  22118343.5554                                   22118339.6174
                                                                        49.5004
        38.2504
  -3693802.71146  -2844016.93743
                  23988167.2814                                   23988161.6254
                                                                        41.2504
        21.5004
  -2768944.54347  -2143435.45744
                  24049384.1804                                   24049378.7274
                                                                        42.5004
        24.0004
 -15372245.13747 -11964744.77044
                  22865801.0394                                   22865796.4344
                                                                        44.2504
        29.2504
 09 10 22  0 11  0.0000000  0 10G02G04G05G10G13G23G29G16G07G25
  -8403402.23448  -6514812.42646
                  20841307.9384                                   20841301.5744
                                                                        53.0004
        41.7504
    554217.74247    439239.88745
                  23274807.3284                                   23274803.6684
                                                                        44.5004
        30.7504
 -22236927.53148 -17272728.03546
                  21775073.3524                                   21775068.7344
                                                                        49.5004
        40.5004
 -21083888.67648 -16370985.25046
                  21066087.8284                                   21066083.4804
                                                                        50.7504
        40.2504
 -10029070.87948  -7776743.41445
                  21456409.9064                                   21456405.3404
                                                                        49.0004
        35.2504
  -1106705.04346   -849035.82443
                  23795892.5784                                   23795886.5234
                                                                        41.7504
        22.5004
 -17487198.77748 -13573963.36746
                  22094983.3524                                   22094979.4804
                                                                        50.0004
        37.5004
  -3841154.29746  -2958836.30543
                  23960126.5084                                   23960121.1564
                                                                        40.0004
        22.0004
  -2956941.78947  -2289926.80944
                  24013609.7344                                   24013604.4384
                                                                        44.0004
        26.5004
 -15514256.09447 -12075402.59844
                  22838777.5164                                   22838773.1214
                                                                        43.5004
        28.5004
 09 10 22  0 11 30.0000000  0 10G02G04G05G10G13G23G29G16G07G25
  -8448540.80548  -6549985.31246
                  20832718.2734                                   20832711.9414
                                                                        52.2504
        41.0004
    566184.59447    448564.69544
                  23277084.5554                                   23277080.8134
                                                                        44.2504
        28.7504
 -22411813.87948 -17409003.17246
                  21741793.7114                                   21741789.2154
                                                                        50.5004
        40.5004
 -21242840.25848 -16494843.59846
                  21035840.1804                                   21035835.9654
                                                                        51.2504
        40.5004
 -10082588.78548  -7818445.64145
                  21446225.5234                                   21446220.9384
                                                                        48.5004
        34.2504
  -1102344.86346   -845638.29343
                  23796722.0314                                   23796716.1724
                                                                        40.7504
        22.2504
 -17609345.62948 -13669142.69946
                  22071739.4774                                   22071735.2584
                                                                        49.7504
        37.7504
  -3987955.99246  -3073227.15243
                  23932190.7344                                   23932186.8914
                                                                        40.0004
        22.5004
  -3144605.78947  -2436158.46944
                  23977898.3054                                   23977893.5554
                                                                        43.5004
        26.7504
 -15655724.56247 -12185637.65644
                  22811856.6484                                   22811852.6954
                                                                        43.0004
        28.5004
 09 10 22  0 12  0.0000000  0 10G02G04G05G10G13G23G29G16G07G25
  -8493122.90648  -6584724.64146
                  20824234.9064                                   20824228.1414
                                                                        52.2504
        41.0004
    578385.00847    458071.50044
                  23279405.9384                                   23279402.1604
                                                                        44.0004
        29.2504
 -22586299.19948 -17544965.84046
                  21708590.0944                                   21708585.7894
                                                                        50.0004
        39.7504
 -21401287.39548 -16618308.85246
                  21005688.2584                                   21005684.8794
                                                                        52.5004
        41.0004
 -10135478.60248  -7859658.46545
                  21436161.1484                                   21436156.1094
                                                                        48.0004
        35.0004
  -1097672.36346   -841997.36744
                  23797611.6094                                   23797605.5234
                                                                        41.5004
        25.2504
 -17730881.17248 -13763845.77046
                  22048612.0394                                   22048607.8714
                                                                        50.5004
        38.0004
  -4134207.12946  -3187189.06643
                  23904359.2504                                   23904356.4064
                                                                        39.5004
        21.0004
  -3331934.92247  -2582129.18744
                  23942250.1484                                   23942245.6724
                                                                        43.7504
        26.2504
 -15796649.94147 -12295449.53944
                  22785040.0864                                   22785035.8284
                                                                        44.0004
        28.5004
 09 10 22  0 12 30.0000000  0 10G02G04G05G10G13G23G29G16G07G25
  -8537148.84448  -6619030.66046
                  20815857.3204                                   20815850.6884
                                                                        52.0004
        41.0004
    590817.78147    467759.35544
                  23281771.8984                                   23281768.2114
                                                                        44.2504
        29.0004
 -22760381.23448 -17680614.16446
                  21675463.5004                                   21675459.2034
                                                                        49.7504
        40.0004
 -21559227.73448 -16741379.28546
                  20975633.8364                                   20975629.6094
                                                                        51.7504
        40.5004
 -10187741.00848  -7900382.36745
                  21426215.5314                                   21426210.6174
                                                                        48.2504
        34.7504
  -1092689.52047   -838114.64144
                  23798559.3754                                   23798553.7624
                                                                        42.5004
        24.2504
 -17851803.84448 -13858071.23046
                  22025601.2974                                   22025597.1214
                                                                        50.0004
        37.0004
  -4279904.76646  -3300719.65243
                  23876633.8834                                   23876630.9614
                                                                        37.2504
        22.7504
  -3518924.94546  -2727835.66044
                  23906666.7274                                   23906662.5904
                                                                        41.5004
        25.5004
 -15937029.62147 -12404836.26245
                  22758326.1484                                   22758321.8714
                                                                        43.5004
        30.0004
 09 10 22  0 13  0.0000000  0 10G02G04G05G10G13G23G29G16G07G25
  -8580619.31248  -6652903.81646
                  20807584.8834                                   20807578.5864
                                                                        52.5004
        41.0004
    603481.34847    477627.06344
                  23284181.9224                                   23284178.0124
                                                                        45.5004
        29.2504
 -22934056.93048 -17815945.80146
                  21642413.9384                                   21642409.5744
                                                                        49.2504
        40.0004
 -21716659.24248 -16864053.18046
                  20945675.4844                                   20945671.4414
                                                                        52.2504
        40.0004
 -10239377.12547  -7940618.32045
                  21416390.2344                                   21416385.3594
                                                                        46.7504
        34.5004
  -1087398.20747   -833991.65643
                  23799566.9304                                   23799560.6994
                                                                        42.5004
        22.5004
 -17972111.88348 -13951817.80946
                  22002707.3364                                   22002703.3054
                                                                        50.7504
        37.7504
  -4425046.27346  -3413816.83243
                  23849014.9064                                   23849011.4844
                                                                        40.0004
        22.5004
  -3705572.67246  -2873275.37944
                  23871147.8364                                   23871145.1414
                                                                        40.0004
        25.0004
 -16076861.66047 -12513796.34844
                  22731717.3444                                   22731713.0904
                                                                        44.2504
        29.7504
 09 10 22  0 13 30.0000000  0 10G02G04G05G10G13G23G29G16G07G25
  -8623536.45348  -6686345.80546
