     2.11           OBSERVATION DATA    G (GPS)             RINEX VERSION / TYPE
teqc  2019Feb25                         20221121 12:28:29UTCPGM / RUN BY / DATE
OSX ker:10.11.6|Core i5|gcc 4.3 -m64|OSX ker:10.10+|=+      COMMENT
BIT 2 OF LLI FLAGS DATA COLLECTED UNDER A/S CONDITION       COMMENT
04712911                                                    MARKER NAME
2911                                                        MARKER NUMBER
-Unknown-           -Unknown-                               OBSERVER / AGENCY
0220400471          TRIMBLE R7          2.30                REC # / TYPE / VERS
-Unknown-           TRM39105.00     NONE                    ANT # / TYPE
  1449459.4938 -1709242.5212  5952441.9115                  APPROX POSITION XYZ
        0.0000        0.0000        0.0000                  ANTENNA: DELTA H/E/N
     1     1                                                WAVELENGTH FACT L1/2
    20    L1    L2    L5    L6    L7    L8    C1    P1    C2# / TYPES OF OBSERV
          P2    C5    C6    C7    C8    S1    S2    S5    S6# / TYPES OF OBSERV
          S7    S8                                          # / TYPES OF OBSERV
    30.0000                                                 INTERVAL
    15                                                      LEAP SECONDS
Forced Modulo Decimation to 30 seconds                      COMMENT
 SNR is mapped to RINEX snr flag value [0-9]                COMMENT
  L1 & L2: min(max(int(snr_dBHz/6), 0), 9)                  COMMENT
teqc edited: Beidou # 1 - 37 excluded                       COMMENT
  2009    10    18    23    10   30.0000000     GPS         TIME OF FIRST OBS
                                                            END OF HEADER
 09 10 18 23 10 30.0000000  0  9G02G04G10G12G13G23G29G30G31
   -159959.93458    -70123.80557
                  20709087.9224                                   20709082.1644
                                                                        50.5004
        43.5004
    -54432.81658    -24379.11356
                  21044747.7504                                   21044743.8874
                                                                        51.0004
        41.0004
   -253189.33257   -112044.53154
                  23768157.3674                                   23768153.6024
                                                                        43.0004
        27.2504
      -742.95757      -852.36354
                  24468857.0474                                   24468853.4344
                                                                        43.7504
        26.5004
   -183429.42258    -80851.72756
                  21722614.3284                                   21722609.7504
                                                                        49.7504
        36.0004
    -81972.99658    -37686.93455
                  21991313.4924                                   21991307.0514
                                                                        48.5004
        35.2504
   -229833.03956   -101833.43754
                  23993047.5704                                   23993045.6914
                                                                        41.7504
        29.2504
    -44572.65657    -19713.22355
                  23104902.0704                                   23104898.7504
                                                                        45.0004
        30.0004
    -49815.32057    -23591.44954
                  24156967.3444                                   24156963.1724
                                                                        42.0004
        28.5004
 09 10 18 23 11  0.0000000  0  9G02G04G10G12G13G23G29G30G31
   -293167.44948   -173921.83647
                  20683739.4064                                   20683733.5984
                                                                        50.5004
        42.7504
   -101332.66048    -60924.08246
                  21035822.3834                                   21035819.0354
                                                                        50.7504
        40.7504
   -467930.54747   -279375.30144
                  23727293.5084                                   23727289.9534
                                                                        43.7504
        27.5004
     -3451.07847     -2962.60944
                  24468342.7114                                   24468337.7664
                                                                        45.0004
        27.5004
   -336696.82848   -200280.81645
                  21693448.3364                                   21693443.8714
                                                                        50.2504
        34.7504
   -151412.12148    -91795.36345
                  21978099.8594                                   21978093.6054
                                                                        49.5004
        34.2504
   -424842.77046   -253789.10544
                  23955938.9224                                   23955936.2194
                                                                        40.2504
        28.2504
    -83041.30547    -49688.89144
                  23097581.6174                                   23097578.3594
                                                                        45.0004
        28.0004
    -95665.45346    -59318.82844
                  24148242.0004                                   24148238.6334
                                                                        40.5004
        27.2504
 09 10 18 23 11 30.0000000  0  9G02G04G10G12G13G23G29G30G31
   -425986.12948   -277417.05947
                  20658465.0394                                   20658459.4454
                                                                        51.5004
        43.0004
   -147883.73048    -97197.52746
                  21026964.3914                                   21026960.5434
                                                                        50.5004
        40.5004
   -682634.16447   -446676.79744
                  23686436.3364                                   23686433.3444
                                                                        43.7504
        29.2504
     -6042.54747     -4981.87944
                  24467849.3594                                   24467844.7114
                                                                        45.0004
        26.7504
   -489515.94948   -319360.46545
                  21664367.9454                                   21664363.4184
                                                                        48.5004
        34.7504
   -220389.90248   -145544.26245
                  21964973.7814                                   21964967.5234
                                                                        48.7504
        34.2504
   -619704.88746   -405629.82444
                  23918857.7974                                   23918854.9574
                                                                        40.7504
        26.5004
   -121101.55547    -79346.29344
                  23090338.9694                                   23090336.0984
                                                                        44.5004
        29.5004
   -141157.03546    -94766.89844
                  24139585.5234                                   24139581.6884
                                                                        41.0004
        27.2504
 09 10 18 23 12  0.0000000  0  9G02G04G10G12G13G23G29G30G31
   -558070.89148   -380339.93047
                  20633329.8054                                   20633323.4924
                                                                        50.0004
        42.2504
   -193744.83648   -132933.42646
                  21018237.0704                                   21018233.2774
                                                                        50.5004
        40.0004
   -896956.09447   -613680.85544
                  23645652.6804                                   23645649.3554
                                                                        43.7504
        29.7504
     -8177.92247     -6645.78144
                  24467443.3674                                   24467438.7304
                                                                        44.5004
        26.2504
   -641543.60548   -437823.55545
                  21635438.0634                                   21635433.4534
                                                                        49.2504
        34.5004
   -288564.96548   -198667.74645
                  21952000.4304                                   21951994.0434
                                                                        48.2504
        34.2504
   -814073.53546   -557085.98044
                  23881871.5704                                   23881867.1684
                                                                        41.7504
        26.7504
   -158413.00047   -108420.18745
                  23083239.0234                                   23083235.7774
                                                                        45.5004
        30.2504
   -185948.87146   -129669.71544
                  24131062.1174                                   24131057.9844
                                                                        41.2504
        26.5004
 09 10 18 23 12 30.0000000  0  9G02G04G10G12G13G23G29G30G31
   -689316.23048   -482609.04347
                  20608354.8594                                   20608348.7774
                                                                        51.5004
        43.0004
   -238812.15648   -168050.93446
                  21009660.9384                                   21009657.6174
                                                                        51.0004
        40.0004
  -1110788.10247   -780303.11344
                  23604961.7114                                   23604958.2774
                                                                        42.5004
        29.5004
     -9754.23047     -7874.15644
                  24467143.1884                                   24467138.5904
                                                                        42.5004
        28.0004
   -792672.27048   -555586.16445
                  21606679.2274                                   21606674.8714
                                                                        50.5004
        34.7504
   -355833.16448   -251084.59445
                  21939199.6564                                   21939193.7114
                                                                        48.5004
        34.2504
  -1007840.55947   -708073.19944
                  23844998.5474                                   23844995.6764
                                                                        42.7504
        28.5004
   -194872.50447   -136830.19144
                  23076301.1804                                   23076297.7854
                                                                        45.7504
        29.2504
   -229936.83647   -163946.03944
                  24122691.4694                                   24122687.0124
                                                                        42.0004
        27.0004
 09 10 18 23 13  0.0000000  0  9G02G04G10G12G13G23G29G30G31
   -819677.05948   -584189.01647
                  20583547.6884                                   20583541.6684
                                                                        51.0004
        43.0004
   -283042.38748   -202516.04746
                  21001244.1334                                   21001240.7974
                                                                        51.5004
        40.5004
  -1324084.47747   -946508.00044
                  23564372.0004                                   23564369.1564
                                                                        42.2504
        28.5004
    -10731.15646     -8635.49244
                  24466956.2894                                   24466953.0234
                                                                        40.7504
        26.0004
   -942855.69948   -672612.21945
                  21578100.0944                                   21578095.4144
                                                                        50.7504
        34.5004
   -422151.55148   -302761.34445
                  21926580.1564                                   21926573.9804
                                                                        48.5004
        34.0004
  -1200960.64546   -858556.43044
                  23808248.9694                                   23808246.1374
                                                                        41.7504
        29.2504
   -230439.31247   -164544.59444
                  23069533.2584                                   23069529.4454
                                                                        45.5004
        28.7504
   -273079.52346   -197563.68044
                  24114481.5784                                   24114477.3714
                                                                        40.7504
        25.7504
 09 10 18 23 13 30.0000000  0  9G02G04G10G12G13G23G29G30G31
   -949127.41448   -685059.55147
                  20558914.5394                                   20558908.3484
                                                                        51.2504
        42.5004
   -326413.14848   -236311.55946
                  20992991.0944                                   20992987.6214
                                                                        50.7504
        40.0004
  -1536818.02346  -1112274.34444
                  23523890.0084                                   23523887.1454
                                                                        41.5004
        28.0004
    -11086.35246     -8912.35544
                  24466888.8284                                   24466885.1914
                                                                        41.5004
        27.2504
  -1092067.77748   -788881.32445
                  21549706.3834                                   21549701.6214
                                                                        50.0004
        34.7504
   -487496.66048   -353679.51645
                  21914145.1024                                   21914138.6914
                                                                        48.5004
        34.0004
  -1393405.75047  -1008513.68045
                  23771627.7344                                   23771625.2504
                                                                        43.7504
        31.0004
   -265090.67247   -191545.69544
                  23062939.1564                                   23062935.0474
                                                                        44.7504
        29.0004
   -315354.50446   -230505.19544
                  24106436.3984                                   24106432.5634
                                                                        41.7504
        24.5004
 09 10 18 23 14  0.0000000  0  9G02G04G10G12G13G23G29G30G31
  -1077661.94148   -785216.07847
                  20534454.7894                                   20534448.7544
                                                                        52.0004
        43.5004
   -368922.07048   -269435.44546
                  20984901.7974                                   20984898.2114
                                                                        52.2504
        40.2504
  -1748983.64547  -1277598.20344
                  23483516.8054                                   23483513.0434
                                                                        44.0004
        28.5004
    -10820.60947     -8705.31244
                  24466939.7974                                   24466936.0594
                                                                        42.7504
        28.5004
  -1240303.29348   -904389.54745
                  21521497.5394                                   21521493.2034
                                                                        49.7504
        35.5004
   -551867.06648   -403838.39545
                  21901895.7114                                   21901889.8324
                                                                        48.5004
        34.0004
  -1585170.66447  -1157940.72345
                  23735135.5234                                   23735133.7384
                                                                        43.5004
        30.5004
   -298826.86747   -217833.68044
                  23056519.2274                                   23056515.5514
                                                                        46.0004
        28.7504
   -356760.73846   -262769.79743
                  24098556.7034                                   24098553.1564
                                                                        40.5004
        22.5004
 09 10 18 23 14 30.0000000  0  8G02G04G10G13G23G29G30G31
  -1205280.18048   -884658.74647
                  20510169.8054                                   20510163.6764
                                                                        51.2504
        42.5004
   -410570.52748   -301888.83646
                  20976976.6414                                   20976973.2344
                                                                        51.0004
        40.2504
  -1960578.32047  -1442477.17244
                  23443251.5084                                   23443248.3874
                                                                        44.5004
        29.7504
  -1387560.31648  -1019135.25845
                  21493475.6484                                   21493471.3834
                                                                        50.0004
        34.7504
   -615263.21548   -453238.00845
                  21889832.2504                                   21889825.7464
                                                                        48.0004
        33.5004
  -1776252.00847  -1306835.12944
                  23698773.6094                                   23698770.9654
                                                                        42.5004
        29.5004
   -331648.99247   -243409.39144
                  23050273.5704                                   23050269.8634
                                                                        46.0004
        29.2504
   -397299.13746   -294358.10543
                  24090842.9304                                   24090838.5084
                                                                        40.7504
        23.0004
 09 10 18 23 15  0.0000000  0  8G02G04G10G13G23G29G30G31
  -1331990.87548   -983394.34847
                  20486057.5164                                   20486051.7114
                                                                        52.0004
        42.2504
   -451370.13748   -333680.81246
                  20969212.8364                                   20969209.4264
                                                                        52.5004
        40.5004
  -2171610.03147  -1606917.46144
                  23403093.4774                                   23403089.8284
                                                                        43.5004
        29.2504
  -1533846.59448  -1133124.55945
                  21465638.1954                                   21465633.7424
                                                                        49.7504
        34.7504
   -677696.13747   -501887.10945
                  21877951.3984                                   21877945.8594
                                                                        47.7504
        34.0004
  -1966657.47747  -1455202.78544
                  23662541.6024                                   23662537.9454
                                                                        43.5004
        28.7504
   -363570.24247   -268283.08244
                  23044199.0394                                   23044195.1914
                                                                        45.2504
        29.0004
   -436982.74646   -325280.57444
                  24083291.6254                                   24083287.4384
                                                                        41.7504
        25.0004
 09 10 18 23 15 30.0000000  0  8G02G04G10G13G23G29G30G31
  -1457802.92648  -1081429.65247
                  20462116.4224                                   20462110.3014
                                                                        52.0004
        42.5004
   -491332.40248   -364820.29346
                  20961608.2814                                   20961604.6524
                                                                        51.5004
        40.0004
  -2382087.21947  -1770925.66844
                  23363040.6724                                   23363037.5474
                                                                        43.5004
        28.7504
  -1679171.21548  -1246364.51645
                  21437983.9144                                   21437979.3634
                                                                        50.0004
        35.0004
   -739177.28148   -549794.33245
                  21866252.2504                                   21866246.0084
                                                                        48.5004
        34.0004
  -2156394.93047  -1603049.89144
                  23626434.7734                                   23626432.0354
                                                                        43.5004
        28.2504
   -394603.44547   -292464.80944
                  23038293.8204                                   23038290.1524
                                                                        45.0004
        28.7504
   -475822.98046   -355545.80544
                  24075901.0554                                   24075897.0744
                                                                        41.7504
        25.0004
 09 10 18 23 16  0.0000000  0  8G02G04G10G13G23G29G30G31
  -1582722.72748  -1178769.82447
                  20438344.9534                                   20438339.0744
                                                                        52.0004
        43.0004
   -530466.33648   -395314.30546
                  20954161.3984                                   20954158.0124
                                                                        51.5004
        40.0004
  -2592014.69147  -1934505.46544
                  23323092.8524                                   23323090.2704
                                                                        42.7504
        29.7504
  -1823539.77048  -1358859.50445
                  21410511.5554                                   21410507.2114
                                                                        49.7504
        34.5004
   -799715.62548   -596966.93745
                  21854731.8834                                   21854725.6764
                                                                        48.0004
        34.2504
  -2345468.74647  -1750379.85944
                  23590454.8674                                   23590451.8204
                                                                        45.0004
        27.2504
   -424758.16447   -315961.98444
                  23032555.4924                                   23032552.1214
                                                                        44.7504
        28.0004
   -513829.17647   -385160.95344
                  24068667.7894                                   24068664.3714
                                                                        43.0004
        26.2504
 09 10 18 23 16 30.0000000  0  8G02G04G10G13G23G29G30G31
   -131338.44948    -47821.10547
                  20714534.3204                                   20714528.1914
                                                                        51.7504
        42.7504
   1006634.59448    802426.76246
                  21246661.9694                                   21246658.2704
                                                                        50.5004
        39.5004
  -1225976.32447   -870059.98445
                  23583041.7194                                   23583038.7074
                                                                        44.7504
        30.0004
   -391539.13348   -243014.82445
                  21683011.8524                                   21683007.5474
                                                                        50.5004
        35.0004
    716095.70748    584184.73045
                  22143180.8204                                   22143174.8794
                                                                        48.0004
        33.5004
   -958464.21947   -669596.93444
                  23854393.8914                                   23854389.9384
                                                                        45.7504
        28.5004
   1121370.55947    888813.63344
                  23326774.2194                                   23326770.8364
                                                                        45.2504
        28.5004
   1024403.86347    813462.09844
                  24361384.8054                                   24361380.6724
                                                                        42.5004
        27.5004
 09 10 18 23 17  0.0000000  0  9G02G04G05G10G13G23G29G30G31
   -254511.89148   -143800.41847
                  20691095.2974                                   20691089.4884
                                                                        51.7504
        42.5004
    969110.60248    773187.12146
                  21239521.3054                                   21239517.8444
                                                                        51.0004
        40.0004
   1302686.14856   1027146.97354
                  24454508.7974                                   24454505.8134
                                                                        38.5004
        27.2504
  -1434839.27347  -1032810.26645
                  23543296.2194                                   23543292.6764
                                                                        44.5004
        30.0004
   -534031.98848   -354048.22345
                  21655896.4924                                   21655892.2274
                                                                        50.5004
        35.7504
    657396.81348    538445.33245
                  22132010.7424                                   22132004.7544
                                                                        48.0004
        33.5004
  -1146246.19947   -815920.28144
                  23818659.6884                                   23818656.3874
                                                                        44.7504
        29.7504
   1092922.52747    866646.28944
                  23321360.3914                                   23321356.9694
                                                                        45.0004
        29.5004
    988016.38747    785108.12944
                  24354460.8204                                   24354456.5864
                                                                        44.0004
        28.5004
 09 10 18 23 17 30.0000000  0  9G02G04G05G10G13G23G29G30G31
   -376841.02748   -239121.81647
                  20667816.5234                                   20667810.7304
                                                                        51.5004
        43.0004
    932359.59848    744549.96146
                  21232527.9534                                   21232524.5434
                                                                        51.2504
        39.5004
   1092306.53946    863214.94144
                  24414474.5004                                   24414471.9344
                                                                        39.2504
        27.0004
  -1643197.07447  -1195167.02344
                  23503647.3524                                   23503643.1294
                                                                        43.0004
        28.0004
   -675614.74248   -464372.43445
                  21628954.4454                                   21628949.9224
                                                                        50.5004
        35.2504
    599586.00048    493397.94945
                  22121010.2584                                   22121003.5204
                                                                        48.5004
        34.0004
  -1333408.27347   -961760.53545
                  23783043.4924                                   23783040.4574
                                                                        45.2504
        31.5004
   1065293.95747    845117.53544
                  23316102.7344                                   23316099.6564
                                                                        45.0004
        28.5004
    952405.59847    757359.41444
                  24347683.5864                                   24347680.0084
                                                                        43.2504
        27.5004
 09 10 18 23 18  0.0000000  0  9G02G04G05G10G13G23G29G30G31
   -498340.35548   -333796.59847
                  20644696.0784                                   20644690.4024
                                                                        51.7504
        42.5004
    896363.60548    716501.14846
                  21225678.0634                                   21225674.4964
                                                                        51.7504
        40.2504
    882329.60547    699596.65644
                  24374517.8364                                   24374514.3444
                                                                        42.5004
        28.0004
  -1851062.91847  -1357140.38344
                  23464091.4224                                   23464088.5634
                                                                        43.5004
        28.7504
   -816301.91848   -573998.79745
                  21602182.5314                                   21602178.2384
                                                                        50.7504
        35.5004
    542645.24248    449028.50445
                  22110174.6884                                   22110168.4534
                                                                        48.5004
        34.0004
  -1519963.07447  -1107127.48044
                  23747542.4454                                   23747539.9264
                                                                        44.0004
        29.5004
   1038466.90647    824213.31344
                  23310997.3134                                   23310994.5864
                                                                        44.0004
        28.2504
    917553.73047    730202.12544
                  24341051.6954                                   24341048.3404
                                                                        42.5004
        29.0004
 09 10 18 23 18 30.0000000  0  9G02G04G05G10G13G23G29G30G31
   -619019.16048   -427832.03947
                  20621731.6564                                   20621725.7814
                                                                        51.5004
        43.0004
    861111.65248    689032.15646
                  21218969.5634                                   21218966.5474
                                                                        51.5004
        39.5004
    672746.94147    536285.53144
                  24334635.8594                                   24334632.5744
                                                                        42.2504
        29.0004
  -2058444.92247  -1518736.73044
                  23424627.4454                                   23424624.3754
                                                                        42.5004
        29.5004
   -956101.21148   -682933.32045
                  21575579.5084                                   21575574.9344
                                                                        50.7504
        35.0004
    486563.68848    405328.64145
                  22099502.4144                                   22099495.9804
                                                                        48.7504
        33.2504
  -1705919.86747  -1252028.59045
                  23712155.2504                                   23712153.3634
                                                                        43.7504
        30.0004
   1012427.53547    803922.89844
                  23306042.3134                                   23306039.5164
                                                                        44.5004
        28.7504
    883448.27347    703626.62544
                  24334561.4774                                   24334558.0744
                                                                        42.2504
        28.5004
 09 10 18 23 19  0.0000000  0  9G02G04G05G10G13G23G29G30G31
   -738884.09448   -521233.31647
                  20598922.1484                                   20598916.5514
                                                                        52.0004
        43.0004
    826593.41048    662134.76246
                  21212401.2034                                   21212397.8714
                                                                        52.0004
        40.0004
    463552.83647    373277.18444
                  24294827.4224                                   24294823.3094
                                                                        44.2504
        29.2504
  -2265348.95747  -1679960.61745
                  23385255.1414                                   23385251.7034
                                                                        43.0004
        30.0004
  -1095019.49648   -791181.40645
                  21549143.9384                                   21549139.7154
                                                                        50.2504
        35.0004
    431331.67248    362290.73445
                  22088992.0394                                   22088986.2424
                                                                        48.7504
        33.5004
  -1891283.27047  -1396467.38745
                  23676882.4614                                   23676879.7114
                                                                        44.2504
        31.0004
    987165.72347    784238.35244
                  23301235.5164                                   23301232.4534
                                                                        43.7504
        28.0004
    850078.40246    677624.09044
                  24328211.5394                                   24328207.9064
                                                                        41.0004
        26.5004
 09 10 18 23 19 30.0000000  0  9G02G04G05G10G13G23G29G30G31
   -857942.68048   -614006.20347
                  20576265.9224                                   20576259.7934
                                                                        52.0004
        43.0004
    792798.96148    635801.41846
                  21205970.7424                                   21205966.8794
                                                                        51.5004
        40.5004
    254740.25047    210566.11344
                  24255091.3674                                   24255087.8444
                                                                        43.0004
        28.0004
  -2471780.98047  -1840816.67244
                  23345972.4304                                   23345969.1884
                                                                        42.2504
        29.7504
  -1233064.06248   -898748.64145
                  21522875.1564                                   21522870.6524
                                                                        51.0004
        34.7504
    376938.85548    319906.65645
                  22078641.7734                                   22078635.1414
                                                                        48.5004
        33.0004
  -2076058.91447  -1540448.30945
                  23641720.8594                                   23641717.7814
                                                                        45.2504
        31.5004
    962670.45747    765151.10544
                  23296574.5784                                   23296570.6764
                                                                        44.0004
        28.5004
    817434.38346    652187.23043
                  24321998.7974                                   24321995.6524
                                                                        39.7504
        23.5004
 09 10 18 23 20  0.0000000  0  9G02G04G05G10G13G23G29G30G31
   -976200.56648   -706155.18447
                  20553762.2424                                   20553756.3244
                                                                        52.7504
        42.5004
    759720.19148    610025.67246
                  21199675.8364                                   21199672.0944
                                                                        51.5004
        40.0004
     46304.49646     48148.73044
                  24215426.9064                                   24215423.5474
                                                                        41.2504
        28.0004
  -2677745.82847  -2001308.73845
                  23306779.0554                                   23306775.5354
                                                                        42.2504
        30.2504
  -1370239.38348  -1005638.52745
                  21496771.8674                                   21496767.3054
                                                                        51.0004
        35.7504
    323377.87148    278170.82045
                  22068449.1954                                   22068442.9614
                                                                        49.0004
        33.7504
  -2260251.50047  -1683974.84445
                  23606670.1334                                   23606666.5554
                                                                        45.2504
        31.0004
    938931.76647    746653.38344
                  23292056.9304                                   23292053.5204
                                                                        44.7504
        28.7504
    785506.96946    627308.71544
                  24315923.1094                                   24315920.0234
                                                                        38.0004
        24.2504
 09 10 18 23 20 30.0000000  0  9G02G04G05G10G13G23G29G30G31
  -1093664.65248   -797685.60247
                  20531409.5084                                   20531403.6994
                                                                        51.7504
        43.0004
    727347.85548    584800.52046
                  21193515.1954                                   21193512.0634
                                                                        51.5004
        40.2504
   -161759.99246   -113979.38344
                  24175833.8984                                   24175830.6294
                                                                        41.0004
        29.5004
  -2883248.60247  -2161440.73044
                  23267672.9454                                   23267669.2894
                                                                        42.7504
        29.2504
  -1506552.45748  -1111856.60546
                  21470832.1564                                   21470827.9494
                                                                        50.5004
        36.0004
    270639.05548    237075.62545
                  22058413.2344                                   22058406.8794
                                                                        49.5004
        33.0004
  -2443865.77047  -1827050.87144
                  23571729.2584                                   23571725.0704
                                                                        45.7504
        29.2504
    915939.91847    728737.64844
                  23287682.1484                                   23287677.6844
                                                                        45.0004
        27.5004
    754286.10246    602980.76643
                  24309981.5394                                   24309978.8794
                                                                        38.2504
        22.7504
 09 10 18 23 21  0.0000000  0  9G02G04G05G10G13G23G29G30G31
  -1210344.42648   -888604.92247
                  20509206.1414                                   20509200.2504
                                                                        52.5004
        43.2504
    695671.15648    560117.78546
                  21187487.3134                                   21187483.8524
                                                                        52.0004
        39.5004
   -369461.85547   -275824.92645
                  24136309.5784                                   24136306.3444
                                                                        42.2504
        30.5004
  -3088297.49247  -2321219.03944
                  23228653.4614                                   23228649.7814
                                                                        43.7504
        29.7504
  -1642011.14548  -1217408.95346
                  21445055.5394                                   21445051.0474
                                                                        50.7504
        36.0004
    218711.10948    196612.24245
                  22048531.8594                                   22048525.5634
                                                                        48.7504
        32.5004
  -2626910.26647  -1969682.88345
                  23536897.4844                                   23536893.1804
                                                                        45.0004
        30.2504
    893680.53147    711392.61744
                  23283446.7974                                   23283442.2704
                                                                        45.0004
        28.5004
    723759.23846    579193.58644
                  24304173.6644                                   24304170.1174
                                                                        41.2504
        25.2504
 09 10 18 23 21 30.0000000  0  9G02G04G05G10G13G23G29G30G31
  -1326247.93048   -978919.36347
                  20487150.5554                                   20487144.8674
                                                                        52.0004
        42.5004
    664677.02748    535966.66446
                  21181588.9064                                   21181585.7894
                                                                        51.5004
        39.5004
   -576808.09847   -437393.40244
                  24096852.8594                                   24096849.3754
                                                                        42.2504
        29.5004
  -3292899.58247  -2480649.19545
                  23189718.6644                                   23189714.6684
                                                                        44.5004
        30.5004
  -1776624.26248  -1322302.45745
                  21419439.5394                                   21419435.1914
                                                                        50.5004
        35.5004
    167582.68048    156771.91445
                  22038802.5784                                   22038796.1724
                                                                        49.5004
        32.7504
  -2809390.46947  -2111875.19544
                  23502172.6484                                   23502167.7934
                                                                        44.5004
        29.2504
    872143.26647    694610.25844
                  23279348.1094                                   23279343.6094
                                                                        45.7504
        27.2504
    693915.52047    555938.71544
                  24298494.3984                                   24298490.7114
                                                                        42.0004
        25.7504
 09 10 18 23 22  0.0000000  0  9G02G04G05G10G13G23G29G30G31
  -1441385.85548  -1068637.24647
                  20465240.5004                                   20465234.7934
                                                                        52.2504
        43.5004
    634352.94148    512337.55546
                  21175818.7584                                   21175814.8914
                                                                        52.2504
        40.2504
   -783808.52747   -598692.41845
                  24057461.8914                                   24057458.4224
                                                                        42.5004
        30.2504
  -3497064.33247  -2639738.57444
                  23150867.6024                                   23150863.4104
                                                                        44.5004
        29.5004
  -1910401.05548  -1426544.12546
                  21393982.4534                                   21393978.4304
                                                                        51.0004
        36.0004
    117240.63348    117544.32045
                  22029222.6724                                   22029216.6024
                                                                        48.2504
        33.5004
  -2991316.26647  -2253635.48045
                  23467552.9304                                   23467548.6054
                                                                        44.7504
        30.0004
    851313.03547    678378.85544
                  23275384.3524                                   23275380.6954
                                                                        45.2504
        29.7504
    664740.77747    533205.19943
                  24292943.2664                                   24292938.1174
                                                                        43.2504
        23.7504
 09 10 18 23 22 30.0000000  0  9G02G04G05G10G13G23G29G30G31
  -1555768.61348  -1157766.70347
                  20443474.3284                                   20443468.2464
                                                                        52.5004
        43.2504
    604686.30548    489220.69946
                  21170173.6564                                   21170169.9734
                                                                        51.5004
        40.0004
   -990472.02347   -759728.89544
                  24018135.3134                                   24018131.2154
                                                                        42.0004
        27.7504
  -3700800.66847  -2798494.11744
                  23112097.2274                                   23112094.2814
                                                                        45.0004
        29.7504
  -2043351.38748  -1530141.66045
                  21368683.2734                                   21368678.8364
                                                                        50.7504
        35.5004
     67672.34048     78919.60545
                  22019789.9144                                   22019784.1484
                                                                        48.7504
        32.5004
  -3172696.79347  -2394970.91045
                  23433037.3834                                   23433033.3874
                                                                        44.0004
        30.5004
    831175.88747    662687.47344
                  23271551.9774                                   23271548.8954
                                                                        45.5004
        28.5004
    636221.19947    510982.17643
                  24287515.9224                                   24287510.8754
                                                                        43.7504
        23.2504
 09 10 18 23 23  0.0000000  0  9G02G04G05G10G13G23G29G30G31
  -1669399.93048  -1246310.59847
                  20421850.8364                                   20421844.7584
                                                                        52.2504
        43.5004
    575670.43048    466610.89546
                  21164651.7584                                   21164648.3404
                                                                        51.5004
        39.7504
  -1196801.79746   -920505.29744
                  23978871.3204                                   23978868.1684
                                                                        41.5004
        28.5004
  -3904111.48047  -2956918.08245
                  23073408.7114                                   23073405.5434
                                                                        46.2504
        31.2504
  -2175479.18748  -1633098.39545
                  21343540.0944                                   21343535.3284
                                                                        50.5004
        35.5004
     18871.61748     40893.03145
                  22010503.6954                                   22010497.6524
                                                                        49.0004
        33.0004
  -3353533.99247  -2535882.96545
                  23398624.6564                                   23398621.8834
                                                                        43.0004
        30.5004
    811724.48847    647530.50844
                  23267850.5164                                   23267847.3204
                                                                        44.2504
        29.7504
    608350.11347    489264.44944
                  24282212.4454                                   24282207.5904
                                                                        43.7504
        25.5004
 09 10 18 23 23 30.0000000  0  9G02G04G05G10G13G23G29G30G31
  -1782285.62948  -1334273.44147
                  20400369.4144                                   20400363.7974
                                                                        52.2504
        43.0004
    547297.07048    444501.72746
                  21159252.7894                                   21159249.0234
                                                                        51.0004
        40.0004
  -1402802.44946  -1081025.23444
                  23939670.9844                                   23939668.0274
                                                                        40.5004
        29.0004
  -4107000.46147  -3115013.34845
                  23034800.6804                                   23034797.2034
                                                                        46.0004
        31.2504
  -2306789.89148  -1735418.50445
                  21318552.1024                                   21318547.7774
                                                                        50.5004
        35.7504
    -29170.40648      3457.63345
                  22001362.0554                                   22001355.5314
                                                                        49.5004
        32.2504
  -3533831.64147  -2676374.54345
                  23364314.9144                                   23364312.1914
                                                                        42.7504
        32.2504
    792949.28147    632900.43044
                  23264277.5704                                   23264274.6024
                                                                        43.5004
        28.0004
    581118.60947    468045.16044
                  24277029.6954                                   24277025.9414
                                                                        44.0004
        26.5004
 09 10 18 23 24  0.0000000  0  9G02G04G05G10G13G23G29G30G31
  -1894432.28948  -1421660.43047
                  20379028.8364                                   20379022.8754
                                                                        52.7504
        42.7504
    519557.42248    422886.37946
                  21153973.5944                                   21153970.5394
                                                                        52.0004
        39.7504
  -1608479.36347  -1241292.86344
                  23900532.3134                                   23900528.7624
                                                                        42.0004
        29.5004
  -4309473.48447  -3272784.50445
                  22996271.2504                                   22996267.6174
                                                                        47.0004
        31.5004
  -2437289.00048  -1837106.16445
                  21293719.1024                                   21293714.9144
                                                                        50.7504
        35.0004
    -76461.97748    -33392.98045
                  21992362.2814                                   21992356.5904
                                                                        49.0004
        33.5004
  -3713594.54347  -2816449.41445
                  23330107.5004                                   23330104.4384
                                                                        44.2504
        31.5004
    774839.73447    618789.00844
                  23260831.5784                                   23260828.9964
                                                                        43.2504
        29.0004
    554516.91047    447316.52044
                  24271967.1954                                   24271964.1764
                                                                        43.0004
        25.5004
 09 10 18 23 24 30.0000000  0  9G02G04G05G10G13G23G29G30G31
  -2005844.87548  -1508475.41847
                  20357827.8134                                   20357821.5944
                                                                        52.7504
        43.0004
    492443.61348    401758.71546
                  21148814.3054                                   21148810.8754
                                                                        52.0004
        39.5004
  -1813836.21147  -1401311.13745
                  23861454.1254                                   23861450.9344
                                                                        44.0004
        31.5004
  -4511533.91447  -3430234.19545
                  22957820.2734                                   22957816.5204
                                                                        46.5004
        31.2504
  -2566980.95748  -1938164.66445
                  21269039.3054                                   21269034.7974
                                                                        50.7504
        35.5004
   -123011.00048    -69665.02045
                  21983504.9304                                   21983498.9104
                                                                        49.5004
        33.5004
  -3892825.91447  -2956110.16445
                  23296001.2814                                   23295997.5354
                                                                        44.2504
        32.0004
    757388.10147    605190.29244
                  23257510.3524                                   23257507.6954
                                                                        43.0004
        27.7504
    528537.81346    427073.05144
                  24267022.9304                                   24267020.2774
                                                                        39.0004
        24.0004
 09 10 18 23 25  0.0000000  0  9G02G04G05G10G13G23G29G30G31
   -541107.80948   -367121.88347
                  20636557.5314                                   20636551.6094
                                                                        52.7504
        42.7504
   2041366.75448   1608711.86746
                  21443564.6414                                   21443561.0314
                                                                        51.5004
        39.5004
   -443453.10947   -333480.12545
                  24122229.2504                                   24122225.5204
                                                                        43.5004
        30.5004
  -3137761.98847  -2359762.54345
                  23219239.9844                                   23219236.4454
                                                                        44.5004
        30.0004
  -1120448.82848   -810996.61746
                  21544305.3754                                   21544300.9654
                                                                        51.0004
        36.5004
   1406593.86748   1122234.78145
                  22274578.6094                                   22274572.7034
                                                                        49.0004
        32.7504
  -2496107.87547  -1867758.44545
                  23561787.8754                                   23561784.0204
                                                                        44.7504
        33.0004
   2316001.43447   1819694.12944
                  23554104.6174                                   23554102.0434
                                                                        44.0004
        28.0004
   2078588.95346   1634904.98444
                  24561989.0704                                   24561985.5744
                                                                        39.5004
        25.5004
 09 10 18 23 25 30.0000000  0  9G02G04G05G10G13G23G29G30G31
   -651072.42248   -452808.58647
                  20615631.9614                                   20615625.9884
                                                                        52.5004
        43.2504
   2015477.53548   1588538.44946
                  21438637.7814                                   21438634.5664
                                                                        51.5004
        39.0004
   -648187.26647   -493013.20344
                  24083269.1024                                   24083265.6804
                                                                        43.5004
        28.5004
  -3339013.52347  -2516581.89145
                  23180943.5084                                   23180939.5664
                                                                        44.5004
        30.7504
  -1248545.87548   -910812.44946
                  21519929.3364                                   21519924.7034
                                                                        50.7504
        36.0004
