     2.11           OBSERVATION DATA    G (GPS)             RINEX VERSION / TYPE
teqc  2019Feb25                         20221121 12:27:59UTCPGM / RUN BY / DATE
OSX ker:10.11.6|Core i5|gcc 4.3 -m64|OSX ker:10.10+|=+      COMMENT
BIT 2 OF LLI FLAGS DATA COLLECTED UNDER A/S CONDITION       COMMENT
04712761                                                    MARKER NAME
2761                                                        MARKER NUMBER
-Unknown-           -Unknown-                               OBSERVER / AGENCY
0220400471          TRIMBLE R7          2.30                REC # / TYPE / VERS
-Unknown-           TRM39105.00     NONE                    ANT # / TYPE
  1449460.5172 -1709240.0573  5952443.1587                  APPROX POSITION XYZ
        0.0000        0.0000        0.0000                  ANTENNA: DELTA H/E/N
     1     1                                                WAVELENGTH FACT L1/2
    20    L1    L2    L5    L6    L7    L8    C1    P1    C2# / TYPES OF OBSERV
          P2    C5    C6    C7    C8    S1    S2    S5    S6# / TYPES OF OBSERV
          S7    S8                                          # / TYPES OF OBSERV
    30.0000                                                 INTERVAL
    15                                                      LEAP SECONDS
Forced Modulo Decimation to 30 seconds                      COMMENT
 SNR is mapped to RINEX snr flag value [0-9]                COMMENT
  L1 & L2: min(max(int(snr_dBHz/6), 0), 9)                  COMMENT
teqc edited: Beidou # 1 - 37 excluded                       COMMENT
  2009    10     3    23     9   30.0000000     GPS         TIME OF FIRST OBS
                                                            END OF HEADER
 09 10  3 23  9 30.0000000  0 10G02G04G12G13G17G20G23G30G31G32
   -287983.22358   -156269.12556
                  22241064.2504                                   22241058.9384
                                                                        50.5004
        38.2504
   -179828.26658    -97736.96157
                  20663403.8984                                   20663401.1334
                                                                        51.0004
        42.0004
    -87990.51257    -48430.53555
                  22785082.5164                                   22785079.2194
                                                                        47.2504
        34.5004
   -316661.16056   -174045.91853
                  23796799.4694                                   23796795.4184
                                                                        41.5004
        22.7504
     15797.96157      8065.80555
                  23320800.8444                                   23320797.7074
                                                                        45.2504
        32.2504
    -14975.15257     -8840.91055
                  22614735.6334                                   22614731.4384
                                                                        46.2504
        31.0004
   -223679.68457   -121514.14855
                  22249076.2974                                   22249070.2544
                                                                        47.5004
        34.7504
   -184034.41457   -100764.37155
                  22654152.2894                                   22654149.5904
                                                                        45.5004
        30.2504
   -178151.69556    -99655.01654
                  23779666.2034                                   23779662.3364
                                                                        40.5004
        26.2504
      9069.89856      3536.64153
                  24670664.5234                                   24670661.7504
                                                                        37.5004
        20.0004
 09 10  3 23 10  0.0000000  0 10G02G04G12G13G17G20G23G30G31G32
   -474593.04348   -301679.30546
                  22205553.1804                                   22205548.0084
                                                                        50.7504
        37.7504
   -297223.82448   -189214.01247
                  20641064.1724                                   20641061.1374
                                                                        50.7504
        42.0004
   -146118.08647    -93724.75045
                  22774021.3204                                   22774017.7624
                                                                        46.5004
        34.7504
   -524363.66846   -335892.00044
                  23757274.6954                                   23757270.7344
                                                                        41.7504
        26.0004
     24105.07047     14538.82445
                  23322381.9614                                   23322378.4844
                                                                        46.0004
        32.2504
    -26268.03147    -17640.58245
                  22612586.2734                                   22612582.3714
                                                                        47.0004
        30.2504
   -368692.87147   -234511.44145
                  22221481.2114                                   22221475.7074
                                                                        47.0004
        34.7504
   -303469.53147   -193830.66444
                  22631424.2734                                   22631421.6564
                                                                        44.7504
        29.5004
   -296367.00847   -191770.76244
                  23757171.1334                                   23757167.1054
                                                                        42.2504
        27.2504
     13305.78146      6837.34443
                  24671470.0864                                   24671468.0004
                                                                        37.7504
        22.2504
 09 10  3 23 10 30.0000000  0 10G02G04G12G13G17G20G23G30G31G32
   -660874.59048   -446833.69946
                  22170105.0704                                   22170099.5164
                                                                        51.0004
        37.2504
   -414047.21948   -280245.21546
                  20618833.2344                                   20618830.0864
                                                                        51.0004
        41.7504
   -203660.67647   -138563.23045
                  22763071.7424                                   22763068.1524
                                                                        47.0004
        35.2504
   -731800.64847   -497531.15644
                  23717800.3914                                   23717797.6884
                                                                        42.5004
        25.2504
     32667.17647     21210.55945
                  23324011.8364                                   23324007.7704
                                                                        45.7504
        33.0004
    -37185.45747    -26147.71544
                  22610509.0944                                   22610505.2894
                                                                        47.0004
        29.2504
   -513124.73847   -347055.76645
                  22193996.7424                                   22193991.1094
                                                                        46.7504
        34.7504
   -422222.78947   -286365.69545
                  22608826.3754                                   22608823.4574
                                                                        44.5004
        30.0004
   -413983.64847   -283420.10244
                  23734789.3594                                   23734785.3754
                                                                        44.5004
        28.0004
     17698.64546     10260.35243
                  24672306.8204                                   24672303.9804
                                                                        38.2504
        22.7504
 09 10  3 23 11  0.0000000  0 10G02G04G12G13G17G20G23G30G31G32
   -846623.74648   -591573.23846
                  22134757.9304                                   22134753.0004
                                                                        50.0004
        38.0004
   -530095.77348   -370672.67646
                  20596749.9384                                   20596747.1484
                                                                        51.0004
        41.7504
   -260417.19947   -182789.10945
                  22752271.1254                                   22752267.6604
                                                                        46.5004
        34.7504
   -938766.81647   -658803.46944
                  23678416.4064                                   23678412.8364
                                                                        42.5004
        24.2504
     41684.29747     28236.86745
                  23325728.0554                                   23325724.1134
                                                                        47.0004
        33.5004
    -47527.33647    -34206.30944
                  22608541.3364                                   22608537.2114
                                                                        46.5004
        29.0004
   -656771.30547   -458988.17245
                  22166662.0474                                   22166655.9224
                                                                        46.7504
        34.7504
   -540090.79347   -378210.86345
                  22586396.8364                                   22586394.1214
                                                                        43.7504
        30.5004
   -530798.64847   -374444.73844
                  23712559.4224                                   23712555.8244
                                                                        42.5004
        27.7504
     22448.61746     13961.73843
                  24673210.3204                                   24673208.1174
                                                                        40.0004
        22.5004
 09 10  3 23 11 30.0000000  0 10G02G04G12G13G17G20G23G30G31G32
  -1031748.60548   -735826.32446
                  22099529.8834                                   22099524.9414
                                                                        50.2504
        38.2504
   -645279.06648   -460425.89546
                  20574831.3754                                   20574828.6804
                                                                        51.2504
        41.0004
   -316299.51247   -226333.79345
                  22741637.2114                                   22741633.5864
                                                                        46.7504
        35.5004
  -1145169.14147   -819636.43444
                  23639139.3914                                   23639135.6994
                                                                        43.0004
        27.0004
     51243.87547     35685.85545
                  23327546.5164                                   23327543.3874
                                                                        45.7504
        32.7504
    -57206.35947    -41748.39844
                  22606699.7034                                   22606694.9224
                                                                        47.2504
        29.2504
   -799541.04347   -570237.37545
                  22139493.6724                                   22139488.1724
                                                                        47.7504
        35.5004
   -656983.45747   -469296.16845
                  22564153.2274                                   22564150.3094
                                                                        46.2504
        30.5004
   -646720.91847   -464773.74244
                  23690500.3984                                   23690496.5664
                                                                        43.2504
        28.0004
     27643.58246     18009.79743
                  24674198.8204                                   24674196.3284
                                                                        38.5004
        22.0004
 09 10  3 23 12  0.0000000  0 10G02G04G12G13G17G20G23G30G31G32
  -1216197.22748   -879552.50046
                  22064430.5944                                   22064425.6684
                                                                        51.0004
        38.0004
   -759546.87148   -549465.73047
                  20553087.0084                                   20553084.0434
                                                                        51.2504
        42.2504
   -371259.55947   -269159.77345
                  22731178.2664                                   22731175.0514
                                                                        47.2504
        35.5004
  -1350954.69946   -979988.78544
                  23599980.1484                                   23599976.1804
                                                                        41.7504
        26.0004
     61393.54747     43594.67245
                  23329478.1564                                   23329474.5824
                                                                        45.7504
        32.2504
    -66175.29347    -48737.18745
                  22604992.8284                                   22604988.5984
                                                                        47.0004
        30.0004
   -941382.37948   -680763.05945
                  22112502.1414                                   22112496.5864
                                                                        48.2504
        35.0004
   -772850.02747   -559581.88345
                  22542104.5634                                   22542101.7624
                                                                        43.2504
        30.2504
   -761700.30547   -554368.02744
                  23668620.4614                                   23668616.6884
                                                                        44.2504
        27.7504
     33331.05546     22441.49643
                  24675280.9844                                   24675279.1374
                                                                        38.0004
        19.2504
 09 10  3 23 12 30.0000000  0 10G02G04G12G13G17G20G23G30G31G32
  -1399953.64848  -1022739.31646
                  22029462.9924                                   22029457.7194
                                                                        50.7504
        38.0004
   -872884.39848   -637780.66846
                  20531519.5784                                   20531516.7194
                                                                        49.7504
        41.7504
   -425284.89847   -311257.40645
                  22720897.1644                                   22720894.5984
                                                                        46.5004
        35.0004
  -1556106.44946  -1139847.26644
                  23560940.2034                                   23560937.0234
                                                                        41.2504
        25.5004
     72145.02747     51972.40645
                  23331524.0704                                   23331520.7934
                                                                        44.0004
        31.0004
    -74422.13747    -55163.30944
                  22603423.3594                                   22603419.3134
                                                                        46.2504
        29.5004
  -1082279.60547   -790553.05945
                  22085690.3134                                   22085684.5904
                                                                        47.7504
        35.2504
   -887675.68047   -649056.49244
                  22520253.4924                                   22520251.4614
                                                                        43.2504
        29.0004
   -875722.01647   -643216.09844
                  23646923.7194                                   23646919.0594
                                                                        43.0004
        27.2504
     39523.38346     27266.68442
                  24676459.4614                                   24676457.4104
                                                                        38.5004
        17.2504
 09 10  3 23 13  0.0000000  0 10G02G04G12G13G17G20G23G30G31G32
  -1583017.79748  -1165386.66046
                  21994626.9144                                   21994621.7114
                                                                        51.5004
        38.7504
   -985293.54348   -725372.16446
                  20510128.8444                                   20510125.9224
                                                                        51.0004
        41.7504
   -478379.49647   -352629.87545
                  22710794.2734                                   22710791.1334
                                                                        47.5004
        35.5004
  -1760623.27346  -1299210.98044
                  23522021.9534                                   23522018.4774
                                                                        40.0004
        24.0004
     83493.37947     60815.23445
                  23333683.8134                                   23333680.3594
                                                                        44.2504
        31.0004
    -81951.52347    -61030.36344
                  22601990.3444                                   22601986.5514
                                                                        46.7504
        29.0004
  -1222233.53147   -899608.04345
                  22059058.0784                                   22059052.1174
                                                                        47.7504
        35.0004
  -1001461.81647   -737721.04744
                  22498600.8134                                   22498598.5824
                                                                        45.0004
        28.5004
   -988787.58647   -731319.09044
                  23625407.2194                                   23625403.9614
                                                                        43.5004
        27.7504
     46216.07446     32481.73043
                  24677732.6724                                   24677730.6884
                                                                        39.7504
        18.2504
 09 10  3 23 13 30.0000000  0  9G02G04G12G13G17G20G23G30G31
  -1765382.02048  -1307488.62946
                  21959924.0084                                   21959918.9694
                                                                        50.7504
        38.7504
  -1096768.00848   -812235.38347
                  20488915.9534                                   20488912.9804
                                                                        51.5004
        42.2504
   -530538.38347   -393273.15645
                  22700868.6644                                   22700865.4574
                                                                        46.5004
        34.7504
  -1964496.09446  -1458072.86744
                  23483226.7194                                   23483222.6914
                                                                        41.2504
        25.5004
     95442.64847     70126.34045
                  23335957.6254                                   23335953.9654
                                                                        45.0004
        32.0004
    -88759.78947    -66335.52744
                  22600695.2734                                   22600691.4104
                                                                        45.5004
        29.5004
  -1361236.14148  -1007921.77045
                  22032606.7114                                   22032600.9104
                                                                        48.5004
        35.5004
  -1114201.75047   -825570.43745
                  22477147.8444                                   22477144.5394
                                                                        45.7504
        30.0004
  -1100889.95347   -818671.52044
                  23604075.0944                                   23604071.2624
                                                                        43.5004
        27.0004
 09 10  3 23 14  0.0000000  0  9G02G04G12G13G17G20G23G30G31
  -1947050.92248  -1449048.80546
                  21925353.8204                                   21925348.5984
                                                                        51.0004
        38.5004
  -1207314.25048   -898375.28547
                  20467879.5084                                   20467876.2584
                                                                        49.7504
        42.0004
   -581770.74247   -433194.49645
                  22691119.5084                                   22691116.4064
                                                                        47.0004
        35.5004
  -2167728.89847  -1616436.07844
                  23444552.8054                                   23444548.6804
                                                                        43.0004
        25.5004
    107983.37147     79898.30945
                  23338344.3134                                   23338340.9064
                                                                        44.0004
        32.7504
    -94856.50847    -71086.28544
                  22599534.9144                                   22599530.8794
                                                                        45.7504
        28.7504
  -1499293.12547  -1115498.65645
                  22006335.1334                                   22006329.5824
                                                                        47.0004
        35.0004
  -1225901.61347   -912609.28945
                  22455891.3204                                   22455888.8714
                                                                        45.2504
        30.0004
  -1212035.91447   -905278.74644
                  23582924.2274                                   23582920.9454
                                                                        42.5004
        27.5004
 09 10  3 23 14 30.0000000  0  9G02G04G12G13G17G20G23G30G31
  -2128032.39848  -1590073.28146
                  21890913.9844                                   21890908.3014
                                                                        51.2504
        38.5004
  -1316942.06248   -983799.55546
                  20447018.0164                                   20447015.1884
                                                                        51.0004
        41.7504
   -632088.34447   -472403.07045
                  22681544.3984                                   22681541.1254
                                                                        47.0004
        35.7504
  -2370328.64147  -1774306.02344
                  23405999.7194                                   23405995.4924
                                                                        43.5004
        26.0004
    121103.09047     90121.43845
                  23340840.2974                                   23340837.3244
                                                                        44.2504
        32.0004
   -100254.18747    -75292.38344
                  22598507.3984                                   22598503.8164
                                                                        45.2504
        28.0004
  -1636413.02748  -1222345.36345
                  21980242.3754                                   21980236.4104
                                                                        48.0004
        35.0004
  -1336571.10247   -998845.14844
                  22434832.0004                                   22434829.2274
                                                                        43.0004
        29.5004
  -1322234.81647   -991147.99244
                  23561954.4694                                   23561950.6724
                                                                        43.5004
        28.5004
 09 10  3 23 15  0.0000000  0  9G02G04G12G13G17G20G23G30G31
  -2308328.62548  -1730563.84046
                  21856604.4454                                   21856599.2384
                                                                        51.5004
        38.5004
  -1425655.11348  -1068511.03546
                  20426330.6024                                   20426327.8444
                                                                        49.2504
        41.7504
   -681496.32448   -510902.82045
                  22672142.2664                                   22672139.2584
                                                                        48.0004
        35.0004
  -2572296.26647  -1931683.38744
                  23367565.9384                                   23367562.1414
                                                                        43.2504
        27.5004
    134795.21547    100790.58645
                  23343445.9844                                   23343442.6524
                                                                        42.5004
        30.7504
   -104958.92647    -78958.44544
                  22597612.3914                                   22597608.5984
                                                                        45.5004
        27.7504
  -1772598.18747  -1328463.69145
                  21954327.0394                                   21954321.1094
                                                                        46.7504
        34.7504
  -1446213.77047  -1084280.93745
                  22413967.4064                                   22413964.7194
                                                                        43.0004
        30.0004
  -1431490.40647  -1076282.21144
                  23541163.2424                                   23541159.8674
                                                                        44.0004
        27.5004
 09 10  3 23 15 30.0000000  0  9G02G04G12G13G17G20G23G30G31
  -2487948.80948  -1870527.62146
                  21822424.0314                                   21822418.6994
                                                                        51.0004
        38.5004
  -1533463.77048  -1152517.76247
                  20405815.3134                                   20405812.3244
                                                                        50.0004
        42.2504
   -730008.16447   -548704.30945
                  22662910.8524                                   22662907.9694
                                                                        47.5004
        35.2504
  -2773639.73447  -2088574.37544
                  23329251.2194                                   23329247.6604
                                                                        42.5004
        27.0004
    149046.68047    111895.56645
                  23346158.2504                                   23346154.9844
                                                                        42.5004
        30.5004
   -108984.30947    -82095.10944
                  22596846.1094                                   22596843.0554
                                                                        45.5004
        29.0004
  -1907858.16448  -1433861.09845
                  21928588.0634                                   21928582.4774
                                                                        48.0004
        34.7504
  -1554840.35547  -1168925.09844
                  22393296.4534                                   22393294.0904
                                                                        43.0004
        29.2504
  -1539812.72347  -1160689.19944
                  23520550.2894                                   23520546.7734
                                                                        43.5004
        28.5004
 09 10  3 23 16  0.0000000  0  9G02G04G12G13G17G20G23G30G31
  -2666908.44948  -2009976.67246
                  21788369.2194                                   21788363.7464
                                                                        50.7504
        38.0004
  -1640385.86348  -1235833.70347
                  20385468.8524                                   20385465.7304
                                                                        51.7504
        42.0004
   -777642.84848   -585822.14145
                  22653846.3444                                   22653842.9924
                                                                        48.0004
        35.5004
  -2974373.63747  -2244990.35244
                  23291053.1254                                   23291049.9384
                                                                        42.5004
        26.5004
    163837.22747    123420.64545
                  23348972.6484                                   23348969.1884
                                                                        42.7504
        31.5004
   -112350.48447    -84718.12544
                  22596205.8984                                   22596202.0824
                                                                        44.0004
        28.7504
  -2042209.50448  -1538550.43445
                  21903021.7814                                   21903015.6914
                                                                        48.5004
        34.5004
  -1662467.94547  -1252790.91844
                  22372815.5864                                   22372813.1024
                                                                        44.5004
        29.2504
  -1647219.05147  -1244382.41044
                  23500112.1334                                   23500108.1684
                                                                        43.5004
        27.5004
 09 10  3 23 16 30.0000000  0  9G02G04G12G13G17G20G23G30G31
  -2845219.31648  -2148920.15646
                  21754437.5784                                   21754432.6054
                                                                        50.5004
        38.5004
  -1746434.53148  -1318469.06646
                  20365288.8364                                   20365285.2624
                                                                        51.2504
        41.0004
   -824415.93447   -622268.66045
                  22644945.4144                                   22644942.5634
                                                                        47.7504
        35.2504
  -3174508.32047  -2400939.39544
                  23252968.3984                                   23252965.0864
                                                                        43.0004
        26.5004
    179150.68447    135353.17245
                  23351886.7274                                   23351883.4654
                                                                        43.7504
        31.7504
   -115073.51247    -86839.95744
                  22595687.4924                                   22595684.1414
                                                                        45.0004
        28.0004
  -2175664.07047  -1642540.96945
                  21877626.0084                                   21877620.1994
                                                                        47.5004
        34.7504
  -1769109.87547  -1335888.65644
                  22352522.9774                                   22352520.1884
                                                                        45.0004
        28.7504
  -1753722.41047  -1327372.03544
                  23479845.2194                                   23479840.9614
                                                                        44.0004
        28.0004
 09 10  3 23 17  0.0000000  0  9G02G04G12G13G17G20G23G30G31
  -1447465.18048  -1059761.03946
                  22020421.5944                                   22020416.1134
                                                                        51.0004
        38.7504
   -276197.84448   -172830.12146
                  20645064.9924                                   20645062.0864
                                                                        52.7504
        41.5004
    705080.37147    569546.70345
                  22935999.0084                                   22935996.0394
                                                                        47.5004
        35.0004
  -1798626.46947  -1328823.60944
                  23514790.1564                                   23514786.7194
                                                                        43.7504
        26.0004
   1770392.41447   1375281.75845
                  23654690.1334                                   23654686.8014
                                                                        44.0004
        30.7504
   1458252.11747   1139128.09844
                  22895081.1334                                   22895077.4844
                                                                        45.2504
        27.5004
   -732807.69148   -518237.16445
                  22152192.4384                                   22152185.9654
                                                                        48.5004
        34.2504
   -299353.76647   -190624.16044
                  22632207.9774                                   22632204.9884
                                                                        45.7504
        29.2504
   -283910.71147   -182064.17644
                  23759541.1564                                   23759536.7974
                                                                        43.5004
        28.2504
 09 10  3 23 17 30.0000000  0  9G02G04G12G13G17G20G23G30G31
  -1624507.13348  -1197715.81646
                  21986731.4454                                   21986726.0394
                                                                        51.0004
        39.0004
   -380533.62548   -254130.73846
                  20625210.6564                                   20625207.6524
                                                                        52.2504
        41.2504
    659990.07847    534411.48845
                  22927418.5004                                   22927415.1884
                                                                        46.7504
        34.0004
  -1997589.17247  -1483859.44944
                  23476929.0944                                   23476925.2034
                                                                        45.7504
        28.0004
   1786710.17247   1387996.85245
                  23657795.1484                                   23657791.7034
                                                                        43.2504
        30.5004
   1456773.01247   1137975.56344
                  22894800.3134                                   22894795.9574
                                                                        45.5004
        28.2504
   -864499.30547   -620853.92645
                  22127132.2664                                   22127126.7504
                                                                        47.5004
        35.0004
   -404057.60547   -272211.66044
                  22612283.4614                                   22612280.7154
                                                                        45.0004
        29.2504
   -388641.93447   -263672.98844
                  23739611.1484                                   23739607.3984
                                                                        43.5004
        28.0004
 09 10  3 23 18  0.0000000  0  9G02G04G12G13G17G20G23G30G31
  -1800928.75048  -1335187.20746
                  21953159.6724                                   21953154.6484
                                                                        52.0004
        39.2504
   -484030.05948   -334777.28947
                  20605515.7664                                   20605512.8164
                                                                        52.5004
        42.0004
    615720.81347    499915.87545
                  22918994.3594                                   22918991.0474
                                                                        47.5004
        34.0004
  -2195978.53947  -1638448.52044
                  23439176.7664                                   23439172.9304
                                                                        45.7504
        27.5004
   1803508.47747   1401086.37945
                  23660991.8054                                   23660988.7384
                                                                        44.0004
        31.0004
   1455895.01247   1137291.41844
                  22894633.1174                                   22894629.1174
                                                                        45.0004
        28.2504
   -995325.02747   -722796.06245
                  22102236.9384                                   22102231.1214
                                                                        47.7504
        34.7504
   -507809.12547   -353057.08645
                  22592540.4924                                   22592537.7814
                                                                        46.2504
        30.0004
   -492503.98047   -344604.47344
                  23719846.7814                                   23719842.7734
                                                                        44.0004
        29.2504
 09 10  3 23 18 30.0000000  0  9G02G04G12G13G17G20G23G30G31
  -1976743.36348  -1472185.66046
                  21919703.0864                                   21919697.8134
                                                                        52.0004
        38.7504
   -586701.20748   -414780.75847
                  20585978.5554                                   20585975.6414
                                                                        52.0004
        42.0004
    572256.80947    466047.82845
                  22910723.2424                                   22910720.6024
                                                                        47.7504
        34.5004
  -2393805.76647  -1792599.58644
                  23401531.3984                                   23401527.1844
                                                                        46.5004
        26.7504
   1820771.14847   1414537.76245
                  23664276.7034                                   23664273.6484
                                                                        45.0004
        30.5004
   1455601.32047   1137062.57444
                  22894576.7344                                   22894573.5354
                                                                        45.0004
        28.5004
  -1125297.83247   -824073.55145
                  22077503.9064                                   22077498.5944
                                                                        47.7504
        35.0004
   -610622.28947   -433171.18445
                  22572975.8674                                   22572973.0744
                                                                        45.5004
        30.0004
   -595510.45347   -424869.21944
                  23700245.1724                                   23700241.6844
                                                                        44.2504
        29.0004
 09 10  3 23 19  0.0000000  0  9G02G04G12G13G17G20G23G30G31
  -2151959.32848  -1608717.64146
                  21886360.7814                                   21886355.3594
                                                                        52.0004
        39.0004
   -688558.02748   -494149.69947
                  20566595.8204                                   20566592.4104
                                                                        51.5004
        42.0004
    529584.90247    432797.05145
                  22902603.1254                                   22902599.9844
                                                                        47.0004
        34.5004
  -2591079.10947  -1946319.09044
                  23363991.0474                                   23363987.3244
                                                                        45.5004
        26.5004
   1838484.69947   1428340.47345
                  23667647.3444                                   23667644.2154
                                                                        45.2504
        31.0004
   1455878.28547   1137278.34844
                  22894630.0784                                   22894626.1174
                                                                        45.7504
        28.2504
  -1254427.30147   -924693.91845
                  22052931.1804                                   22052925.5864
                                                                        47.2504
        35.5004
   -712508.12547   -512562.74245
                  22553587.2344                                   22553584.9614
                                                                        44.2504
        30.0004
   -697672.44547   -504475.91444
                  23680804.3674                                   23680800.1884
                                                                        44.5004
        27.0004
 09 10  3 23 19 30.0000000  0  9G02G04G12G13G17G20G23G30G31
  -2326582.57848  -1744787.67246
                  21853131.3284                                   21853126.0864
                                                                        52.0004
        38.7504
   -789607.95348   -572889.86347
                  20547366.6334                                   20547363.4454
                                                                        51.7504
        42.0004
    487694.84847    400155.50445
                  22894631.6804                                   22894628.2544
                                                                        47.0004
        34.5004
  -2787803.43447  -2099610.73444
                  23326555.4224                                   23326551.8134
                                                                        44.0004
        25.0004
   1856638.57047   1442486.31345
                  23671102.2814                                   23671098.7344
                                                                        45.0004
        31.0004
   1456715.61747   1137930.83244
                  22894788.6094                                   22894785.0944
                                                                        45.2504
        27.2504
  -1382720.35548  -1024662.54745
                  22028518.0314                                   22028512.4574
                                                                        48.2504
        35.7504
   -813474.33247   -591237.66445
                  22534373.9924                                   22534371.7664
                                                                        46.2504
        30.7504
   -798997.40247   -583430.40644
                  23661522.9534                                   23661519.2464
                                                                        43.7504
        27.5004
 09 10  3 23 20  0.0000000  0  9G02G04G12G13G17G20G23G30G31
  -2500620.87548  -1880401.86346
                  21820012.5084                                   21820007.2624
                                                                        51.5004
        39.0004
   -889860.60548   -651008.80946
                  20528288.9304                                   20528285.7664
                                                                        51.7504
        41.5004
    446575.83247    368114.69145
                  22886807.3674                                   22886803.8834
                                                                        47.0004
        34.5004
  -2983985.03547  -2252479.49244
                  23289223.7034                                   23289220.4884
                                                                        45.0004
        25.5004
   1875221.03547   1456966.10545
                  23674639.0084                                   23674635.3794
                                                                        43.7504
        30.5004
   1458101.42647   1139010.71544
                  22895052.6174                                   22895048.6024
                                                                        44.7504
        27.5004
  -1510184.89148  -1123985.59445
                  22004262.2034                                   22004256.6174
                                                                        48.2504
        35.7504
   -913529.81647   -669202.82845
                  22515333.5314                                   22515331.5514
                                                                        45.0004
        30.5004
   -899494.26247   -661739.66844
                  23642398.8754                                   23642395.3874
                                                                        44.5004
        28.5004
 09 10  3 23 20 30.0000000  0  9G02G04G12G13G17G20G23G30G31
  -2674080.76248  -2015565.30546
                  21787004.2504                                   21786998.6844
                                                                        52.0004
        38.7504
   -989324.53548   -728513.08246
                  20509361.4534                                   20509358.5274
                                                                        50.5004
        41.7504
    406217.37147    336666.62145
                  22879127.2274                                   22879123.6174
                                                                        46.2504
        34.2504
  -3179629.85247  -2404929.96944
                  23251994.1804                                   23251990.7424
                                                                        45.7504
        27.5004
   1894220.91447   1471771.14145
                  23678253.9224                                   23678250.3874
                                                                        42.2504
        30.0004
   1460024.21947   1140508.97344
                  22895418.6644                                   22895414.6214
                                                                        45.0004
        27.2504
  -1636828.29747  -1222668.73045
                  21980163.0944                                   21980157.0554
                                                                        47.7504
        35.0004
  -1012683.35247   -746465.18445
                  22496465.5474                                   22496462.9494
                                                                        46.5004
        31.2504
   -999171.96547   -739410.64844
                  23623431.2034                                   23623427.5164
                                                                        43.2504
        29.2504
 09 10  3 23 21  0.0000000  0  9G02G04G12G13G17G20G23G30G31
  -2846964.14148  -2150279.59846
                  21754105.6414                                   21754100.5664
                                                                        51.5004
        38.7504
  -1088003.86748   -805406.16847
                  20490583.5474                                   20490580.3984
                                                                        52.5004
        42.0004
    366612.86347    305806.03145
                  22871590.5314                                   22871587.1684
                                                                        47.0004
        34.7504
  -3374738.66047  -2556962.78144
                  23214865.8984                                   23214862.4804
                                                                        46.2504
        29.2504
   1913631.88747   1486896.50844
                  23681947.4774                                   23681944.2304
                                                                        43.7504
        29.5004
   1462477.98447   1142421.03544
                  22895885.5234                                   22895881.5394
                                                                        45.0004
        28.5004
  -1762653.18748  -1320714.02745
                  21956218.9534                                   21956213.2664
                                                                        48.7504
        35.0004
  -1110938.98047   -823027.96145
                  22477768.1884                                   22477765.5824
                                                                        45.0004
        31.0004
  -1098033.95347   -816446.01644
                  23604618.8204                                   23604614.7734
                                                                        43.0004
        29.7504
 09 10  3 23 21 30.0000000  0  9G02G04G12G13G17G20G23G30G31
  -3019281.19548  -2284552.73046
                  21721314.7424                                   21721309.2704
                                                                        51.7504
        39.7504
  -1185909.57848   -881696.35547
                  20471952.5394                                   20471949.4804
                                                                        51.7504
        42.0004
    327748.96547    275522.48445
                  22864194.9224                                   22864191.5594
                                                                        46.7504
        35.0004
  -3569319.88347  -2708584.50444
                  23177838.9384                                   23177835.0434
                                                                        46.2504
        29.5004
   1933439.98447   1502331.34044
                  23685717.0004                                   23685713.7034
                                                                        43.5004
        28.5004
   1465448.60547   1144735.85944
                  22896450.7274                                   22896446.5704
                                                                        44.7504
        27.2504
  -1887670.24648  -1418129.91045
                  21932429.6024                                   21932423.6024
                                                                        48.7504
        35.0004
  -1208307.75047   -898899.63345
                  22459239.6024                                   22459237.0124
                                                                        44.5004
        30.5004
  -1196091.33247   -892854.42245
                  23585958.5474                                   23585955.0274
                                                                        43.5004
        30.0004
 09 10  3 23 22  0.0000000  0  9G02G04G12G13G17G20G23G30G31
  -3191037.84048  -2418389.16446
                  21688630.5394                                   21688625.9264
                                                                        52.2504
        39.5004
  -1283050.12548   -957390.33247
                  20453467.7274                                   20453464.9304
                                                                        51.0004
        42.0004
    289615.19147    245807.79745
                  22856938.3594                                   22856934.9534
                                                                        46.7504
        34.7504
  -3763378.80947  -2859799.21944
                  23140909.9774                                   23140906.3164
                                                                        45.7504
        28.0004
   1953634.43447   1518067.24644
                  23689560.6804                                   23689556.2464
                                                                        42.5004
        29.5004
   1468925.28947   1147444.96544
                  22897112.4844                                   22897109.0354
                                                                        44.5004
        26.5004
  -2011886.54748  -1514921.80545
                  21908791.5004                                   21908786.0634
                                                                        48.0004
        35.7504
  -1304797.99247   -974086.75045
                  22440878.0944                                   22440875.6604
                                                                        43.5004
        30.7504
  -1293352.33247   -968642.25044
                  23567450.7114                                   23567447.1884
                                                                        43.2504
        29.2504
 09 10  3 23 22 30.0000000  0  9G02G04G12G13G17G20G23G30G31
  -3362241.60948  -2551794.73846
                  21656051.6174                                   21656046.6994
                                                                        51.0004
        39.7504
  -1379434.52048  -1032495.00847
                  20435126.2114                                   20435123.0864
                                                                        50.7504
        42.0004
    252200.49647    216653.50845
                  22849818.6484                                   22849815.7584
                                                                        47.0004
        34.7504
  -3956921.76247  -3010611.88744
                  23104080.1414                                   23104076.3954
                                                                        45.7504
        26.0004
   1974203.39546   1534094.96544
                  23693474.1174                                   23693470.6094
                                                                        41.2504
        27.2504
   1472895.78147   1150538.77744
                  22897868.4224                                   22897864.1214
                                                                        45.5004
        27.0004
  -2135310.06648  -1611095.94945
                  21885304.8284                                   21885299.2424
                                                                        48.7504
        35.7504
  -1400419.07047  -1048596.64845
                  22422681.3914                                   22422679.6644
                                                                        43.0004
        30.5004
  -1389826.36747  -1043816.85544
                  23549092.2114                                   23549088.3554
                                                                        44.5004
        29.0004
 09 10  3 23 23  0.0000000  0  9G02G04G12G13G17G20G23G30G31
  -3532896.65248  -2684772.58246
                  21623576.9534                                   21623572.2854
                                                                        51.5004
        40.0004
  -1475069.37948  -1107015.64147
                  20416927.3364                                   20416924.1804
                                                                        50.5004
        42.2504
    215496.58647    188053.12145
                  22842834.0634                                   22842830.9844
                                                                        47.0004
        35.0004
  -4149952.83247  -3161025.68744
                  23067347.5004                                   23067343.1414
                                                                        45.7504
        25.5004
   1995137.93047   1550407.52744
                  23697457.6644                                   23697454.6414
                                                                        42.5004
        28.5004
   1477351.69547   1154010.82444
                  22898716.3204                                   22898712.4884
                                                                        45.0004
        27.2504
  -2257946.64148  -1706656.89846
                  21861967.8674                                   21861962.0084
                                                                        48.5004
        36.0004
  -1495177.34847  -1122434.21945
                  22404649.8444                                   22404647.5664
                                                                        43.0004
        30.5004
  -1485519.73447  -1118383.16044
                  23530882.5084                                   23530879.1684
                                                                        43.0004
        28.7504
 09 10  3 23 23 30.0000000  0  9G02G04G12G13G17G20G23G30G31
  -3703004.68448  -2817324.24246
                  21591206.5704                                   21591201.3874
                                                                        51.2504
        40.0004
  -1569958.11748  -1180954.96147
                  20398870.6564                                   20398867.7304
                                                                        50.7504
        42.0004
    179497.23047    160001.65245
                  22835983.4384                                   22835980.2974
                                                                        46.5004
        34.2504
  -4342471.68047  -3311040.35944
                  23030711.9454                                   23030708.2154
                                                                        46.0004
        26.7504
   2016432.20347   1567000.40245
                  23701510.1094                                   23701507.3284
                                                                        44.2504
        30.5004
   1482287.24647   1157856.66844
                  22899655.5394                                   22899651.3794
                                                                        45.0004
        27.7504
  -2379798.08648  -1801606.04745
                  21838780.3674                                   21838774.6524
                                                                        49.0004
        35.5004
  -1589076.38347  -1195602.35545
                  22386781.3364                                   22386779.2194
                                                                        43.7504
        31.2504
  -1580435.18447  -1192343.13744
                  23512821.0004                                   23512816.9184
                                                                        43.5004
        29.2504
 09 10  3 23 24  0.0000000  0  9G02G04G12G13G17G20G23G30G31
  -3872570.67248  -2949453.59846
                  21558939.2194                                   21558933.6054
                                                                        51.7504
        39.5004
