     2.11           OBSERVATION DATA    G (GPS)             RINEX VERSION / TYPE
teqc  2019Feb25                         20221121 12:28:46UTCPGM / RUN BY / DATE
OSX ker:10.11.6|Core i5|gcc 4.3 -m64|OSX ker:10.10+|=+      COMMENT
BIT 2 OF LLI FLAGS DATA COLLECTED UNDER A/S CONDITION       COMMENT
04713000                                                    MARKER NAME
3000                                                        MARKER NUMBER
-Unknown-           -Unknown-                               OBSERVER / AGENCY
0220400471          TRIMBLE R7          2.30                REC # / TYPE / VERS
-Unknown-           TRM39105.00     NONE                    ANT # / TYPE
  1449458.8541 -1709243.4329  5952440.4143                  APPROX POSITION XYZ
        0.0000        0.0000        0.0000                  ANTENNA: DELTA H/E/N
     1     1                                                WAVELENGTH FACT L1/2
    20    L1    L2    L5    L6    L7    L8    C1    P1    C2# / TYPES OF OBSERV
          P2    C5    C6    C7    C8    S1    S2    S5    S6# / TYPES OF OBSERV
          S7    S8                                          # / TYPES OF OBSERV
    30.0000                                                 INTERVAL
    15                                                      LEAP SECONDS
Forced Modulo Decimation to 30 seconds                      COMMENT
 SNR is mapped to RINEX snr flag value [0-9]                COMMENT
  L1 & L2: min(max(int(snr_dBHz/6), 0), 9)                  COMMENT
teqc edited: Beidou # 1 - 37 excluded                       COMMENT
  2009    10    27     0     0    0.0000000     GPS         TIME OF FIRST OBS
                                                            END OF HEADER
 09 10 27  0  0  0.0000000  0  9G02G04G05G10G13G23G29G16G07
  -5814344.59048  -4515307.66046
                  21060929.5944                                   21060924.4694
                                                                        52.2504
        40.5004
    794530.46147    621379.82844
                  23720760.1334                                   23720757.7704
                                                                        44.0004
        28.0004
 -17887607.99648 -13902856.63346
                  21514634.3594                                   21514630.4144
                                                                        51.2504
        41.2504
 -16547766.61348 -12860258.75046
                  20851072.3204                                   20851068.7274
                                                                        52.0004
        41.0004
  -6852957.56248  -5323865.89545
                  21656740.7274                                   21656736.5864
                                                                        48.7504
        33.2504
   -313674.56646   -239113.59043
                  24173292.6174                                   24173286.6294
                                                                        41.5004
        21.0004
 -13325350.00848 -10339340.91046
                  22038973.1254                                   22038970.2464
                                                                        49.0004
        38.2504
  -7728723.37147  -5989321.98444
                  23817603.7194                                   23817599.8324
                                                                        42.0004
        25.2504
  -7813609.17246  -6076831.47744
                  23717374.3364                                   23717371.0234
                                                                        40.5004
        26.0004
 09 10 27  0  0 30.0000000  0  9G02G04G05G10G13G23G29G16G07
  -5840631.36748  -4535790.85946
                  21055927.7034                                   21055922.3324
                                                                        52.5004
        41.0004
    819566.69947    640888.56344
                  23725524.3834                                   23725521.8204
                                                                        43.7504
        26.2504
 -18045464.92648 -14025862.02746
                  21484594.9064                                   21484591.6254
                                                                        50.5004
        40.5004
 -16686712.91048 -12968528.60546
                  20824631.6334                                   20824628.2154
                                                                        52.0004
        41.5004
  -6885988.36748  -5349604.17645
                  21650455.2034                                   21650451.5434
                                                                        48.0004
        33.5004
   -295295.60947   -224792.35243
                  24176790.9454                                   24176784.6604
                                                                        42.2504
        22.5004
 -13426555.77748 -10418202.52346
                  22019714.6564                                   22019711.4844
                                                                        48.5004
        38.0004
  -7855937.74646  -6088450.04344
                  23793395.2274                                   23793391.5984
                                                                        41.5004
        25.2504
  -7985588.78546  -6210841.52044
                  23684647.7894                                   23684643.8364
                                                                        40.7504
        25.0004
 09 10 27  0  1  0.0000000  0  8G02G04G05G10G13G29G16G07
  -5866361.41848  -4555840.24246
                  21051031.2894                                   21051025.7304
                                                                        51.7504
        40.7504
    844820.04346    660566.48444
                  23730329.4454                                   23730326.6484
                                                                        41.2504
        27.2504
 -18202860.29348 -14148507.76246
                  21454643.4224                                   21454639.7384
                                                                        50.5004
        41.7504
 -16825096.94148 -13076360.33646
                  20798298.0084                                   20798294.8134
                                                                        52.0004
        41.5004
  -6918400.58248  -5374860.45745
                  21644287.6414                                   21644283.6524
                                                                        48.5004
        33.0004
 -13527108.41048 -10496555.20746
                  22000579.8284                                   22000576.6334
                                                                        48.2504
        38.5004
  -7982542.62947  -6187103.20344
                  23769303.2814                                   23769299.7934
                                                                        42.2504
        24.5004
  -8157153.30947  -6344528.10244
                  23651999.8204                                   23651996.8404
                                                                        42.0004
        25.5004
 09 10 27  0  1 30.0000000  0  8G02G04G05G10G13G29G16G07
  -5891531.57448  -4575453.34846
                  21046241.3594                                   21046235.9964
                                                                        51.5004
        41.2504
    870293.77047    680416.07444
                  23735177.2664                                   23735175.0164
                                                                        43.0004
        27.5004
 -18359788.57048 -14270789.55546
                  21424781.0234                                   21424777.4184
                                                                        50.7504
        41.0004
 -16962912.67248 -13183749.22746
                  20772072.6484                                   20772069.5434
                                                                        52.0004
        41.0004
  -6950191.13348  -5399632.29345
                  21638237.7344                                   21638233.5634
                                                                        48.7504
        33.2504
 -13627003.12148 -10574395.24246
                  21981570.4694                                   21981567.2704
                                                                        49.0004
        38.0004
  -8108531.69546  -6285276.49244
                  23745328.5084                                   23745324.5204
                                                                        41.5004
        25.5004
  -8328293.53546  -6477884.06244
                  23619432.7974                                   23619429.5164
                                                                        41.5004
        26.7504
 09 10 27  0  2  0.0000000  0  8G02G04G05G10G13G29G16G07
  -5916142.08248  -4594630.36746
                  21041558.2424                                   21041552.8914
                                                                        52.0004
        41.0004
    895985.82847    700435.81644
                  23740066.2664                                   23740064.0474
                                                                        43.5004
        27.5004
 -18516245.70748 -14392704.20346
                  21395008.5004                                   21395004.8444
                                                                        50.0004
        41.5004
 -17100157.04348 -13290692.88746
                  20745956.0864                                   20745952.5784
                                                                        52.2504
        40.7504
  -6981361.12548  -5423920.58245
                  21632306.0634                                   21632301.8094
                                                                        49.0004
        34.2504
 -13726236.65648 -10651720.08646
                  21962687.1644                                   21962683.7464
                                                                        48.2504
        38.0004
  -8233901.81246  -6382967.49244
                  23721471.7814                                   23721467.8244
                                                                        41.5004
        26.0004
  -8499006.74247  -6610907.28944
                  23586947.7504                                   23586943.6374
                                                                        43.5004
        27.0004
 09 10 27  0  2 30.0000000  0  8G02G04G05G10G13G29G16G07
  -5940191.05948  -4613369.83246
                  21036981.9774                                   21036976.4384
                                                                        51.2504
        41.5004
    921898.84047    720627.71944
                  23744997.5234                                   23744994.6094
                                                                        43.2504
        26.7504
 -18672228.07448 -14514248.90646
                  21365325.8524                                   21365322.3364
                                                                        51.0004
        41.0004
 -17236826.01648 -13397188.18746
                  20719948.5784                                   20719945.4614
                                                                        52.0004
        41.0004
  -7011908.53148  -5447723.74645
                  21626493.6334                                   21626489.6454
                                                                        48.5004
        33.0004
 -13824807.09848 -10728528.19546
                  21943929.9924                                   21943926.7664
                                                                        49.2504
        38.0004
  -8358648.85246  -6480172.99644
                  23697733.3914                                   23697729.0554
                                                                        41.7504
        27.2504
  -8669285.27347  -6743591.85544
                  23554545.1724                                   23554540.6524
                                                                        43.5004
        28.2504
 09 10 27  0  3  0.0000000  0  8G02G04G05G10G13G29G16G07
  -5963685.90648  -4631677.50446
                  21032510.6414                                   21032505.0634
                                                                        51.0004
        40.5004
    948024.14847    740985.07844
                  23749969.1564                                   23749966.0354
                                                                        42.7504
        25.7504
 -18827738.21548 -14635425.62146
                  21335733.3524                                   21335729.6914
                                                                        50.2504
        41.7504
 -17372923.23848 -13503237.98046
                  20694049.9844                                   20694046.8674
                                                                        52.5004
        41.0004
  -7041842.15648  -5471048.71545
                  21620797.2344                                   21620793.3164
                                                                        49.0004
        33.7504
 -13922718.17248 -10804822.52346
                  21925297.7344                                   21925294.3444
                                                                        49.5004
        38.7504
  -8482776.39147  -6576895.72744
                  23674112.1414                                   23674108.6174
                                                                        42.0004
        25.2504
  -8839133.34447  -6875940.97744
                  23522224.3364                                   23522220.2814
                                                                        44.5004
        29.2504
 09 10 27  0  3 30.0000000  0  8G02G04G05G10G13G29G16G07
  -5986631.29748  -4649557.03146
                  21028144.5084                                   21028138.8674
                                                                        51.5004
        40.7504
    974356.84847    761504.02044
                  23754979.7664                                   23754977.0824
                                                                        43.0004
        26.0004
 -18982778.82048 -14756236.47746
                  21306230.0084                                   21306226.2194
                                                                        51.2504
        41.2504
 -17508451.45748 -13608844.39546
                  20668260.0864                                   20668256.6804
                                                                        52.0004
        41.0004
  -7071166.39148  -5493898.77045
                  21615216.6884                                   21615213.0514
                                                                        49.0004
        32.7504
 -14019973.16848 -10880605.64146
                  21906791.0474                                   21906788.0474
                                                                        49.0004
        38.5004
  -8606286.41847  -6673137.30544
                  23650609.1254                                   23650604.9454
                                                                        42.5004
        25.2504
  -9008550.93747  -7007954.64544
                  23489985.1254                                   23489981.2234
                                                                        43.5004
        29.2504
 09 10 27  0  4  0.0000000  0  8G02G04G05G10G13G29G16G07
  -6009032.83648  -4667012.78146
                  21023881.9694                                   21023876.0004
                                                                        50.2504
        40.7504
   1000891.04346    782179.92644
                  23760028.8914                                   23760026.8914
                                                                        41.2504
        26.0004
 -19137351.61748 -14876682.82046
                  21276815.7274                                   21276812.3364
                                                                        51.2504
        41.5004
 -17643412.77048 -13714009.04746
                  20642577.4064                                   20642574.0824
                                                                        52.5004
        41.0004
  -7099887.15648  -5516278.56645
                  21609751.5084                                   21609747.5514
                                                                        48.5004
        33.0004
 -14116575.18048 -10955879.93446
                  21888408.1414                                   21888404.6914
                                                                        48.7504
        38.2504
  -8729181.14547  -6768899.44144
                  23627222.6174                                   23627218.3364
                                                                        42.2504
        24.0004
  -9177538.85947  -7139633.51244
                  23457827.2584                                   23457823.4844
                                                                        42.5004
        28.2504
 09 10 27  0  4 30.0000000  0  8G02G04G05G10G13G29G16G07
  -6030892.72748  -4684046.46146
                  21019722.2584                                   21019716.3914
                                                                        51.2504
        41.0004
   1027623.66447    803010.38344
                  23765116.3914                                   23765114.3324
                                                                        43.0004
        25.0004
 -19291455.90248 -14996764.07846
                  21247490.5784                                   21247487.1524
                                                                        50.7504
        41.2504
 -17777806.67648 -13818731.55546
                  20617003.3284                                   20617000.2624
                                                                        52.5004
        41.0004
  -7128008.02048  -5538190.90645
                  21604400.3674                                   21604396.4884
                                                                        48.5004
        32.7504
 -14212524.27748 -11030645.45346
                  21870149.6804                                   21870146.0784
                                                                        48.0004
        38.2504
  -8851460.00846  -6864181.66443
                  23603954.2894                                   23603949.2114
                                                                        41.0004
        22.5004
  -9346095.28247  -7270976.13944
                  23425751.8444                                   23425748.1454
                                                                        42.5004
        27.7504
 09 10 27  0  5  0.0000000  0  8G02G04G05G10G13G29G16G07
  -6052218.26248  -4700663.76246
                  21015663.7734                                   21015658.2734
                                                                        51.0004
        40.5004
   1054547.02047    823989.48044
                  23770240.3134                                   23770237.6724
                                                                        44.2504
        28.0004
 -19445095.63748 -15116483.35246
                  21218254.0944                                   21218250.5394
                                                                        51.7504
        41.2504
 -17911638.25448 -13923015.86746
                  20591535.8444                                   20591533.0864
                                                                        52.7504
        41.2504
  -7155536.41448  -5559641.59045
                  21599162.1804                                   21599157.7544
                                                                        48.5004
        32.2504
 -14307826.39848 -11104906.84846
                  21852014.1954                                   21852011.1684
                                                                        49.2504
        38.5004
  -8973127.94946  -6958987.84443
                  23580801.4454                                   23580795.9844
                                                                        40.5004
        21.2504
  -9514223.30547  -7401984.93044
                  23393757.9064                                   23393754.4884
                                                                        42.0004
        27.7504
 09 10 27  0  5 30.0000000  0  8G02G04G05G10G13G29G16G07
  -4497586.29748  -3489262.23446
                  21311500.3754                                   21311494.9694
                                                                        50.7504
        40.5004
   2657082.59847   2072718.41444
                  24075192.3284                                   24075190.3594
                                                                        44.2504
        26.7504
 -18022839.86348 -14008232.10946
                  21488900.4144                                   21488896.8554
                                                                        50.7504
        41.5004
 -16469477.02348 -12799253.85246
                  20865969.8834                                   20865966.9344
                                                                        52.7504
        40.7504
  -5607049.11348  -4353028.12145
                  21893829.2034                                   21893825.1804
                                                                        48.5004
        31.7504
 -12827053.55948  -9951057.89146
                  22133796.1804                                   22133792.4884
                                                                        48.5004
        38.7504
  -7518754.35246  -5825709.73443
                  23857559.2424                                   23857554.2814
                                                                        40.7504
        20.5004
  -8106489.99647  -6305049.83644
                  23661640.5314                                   23661636.9454
                                                                        42.2504
        27.0004
 09 10 27  0  6  0.0000000  0  8G02G04G05G10G13G29G16G07
  -4517844.36748  -3505047.75046
                  21307645.6414                                   21307640.0434
                                                                        50.5004
        40.2504
   2684385.40647   2093993.29344
                  24080388.1334                                   24080385.8284
                                                                        43.7504
        27.0004
 -18175541.81248 -14127220.63746
                  21459842.3594                                   21459838.7814
                                                                        50.5004
        41.5004
 -16602175.26648 -12902655.09046
                  20840718.7274                                   20840715.5044
                                                                        52.2504
        41.0004
  -5633395.13748  -4373557.52745
                  21888815.6024                                   21888811.8914
                                                                        48.7504
        32.5004
 -12921055.97748 -10024306.52346
                  22115907.4694                                   22115904.7304
                                                                        48.0004
        38.5004
  -7639190.94146  -5919556.39143
                  23834641.1254                                   23834636.1994
                                                                        41.5004
        20.7504
  -8273748.76647  -6435381.30144
                  23629812.2424                                   23629808.6214
                                                                        42.2504
        26.7504
 09 10 27  0  6 30.0000000  0  8G02G04G05G10G13G29G16G07
  -4537568.94948  -3520417.55946
                  21303892.0864                                   21303886.5864
                                                                        51.5004
        40.5004
   2711877.04347   2115415.30944
                  24085619.4694                                   24085616.8594
                                                                        44.0004
        26.0004
 -18327769.77748 -14245839.83646
                  21430874.1724                                   21430870.8094
                                                                        51.7504
        41.2504
 -16734302.77048 -13005611.62146
                  20815575.7424                                   20815572.5164
                                                                        52.0004
        40.7504
  -5659150.52748  -4393626.68745
                  21883914.5164                                   21883911.1094
                                                                        49.5004
        32.7504
 -13014405.01648 -10097046.02346
                  22098143.9774                                   22098140.6724
                                                                        49.2504
        38.5004
  -7759007.49646  -6012919.93043
                  23811840.4224                                   23811835.5314
                                                                        40.2504
        21.0004
  -8440566.21947  -6565368.93444
                  23598068.6414                                   23598064.4804
                                                                        44.7504
        28.2504
 09 10 27  0  7  0.0000000  0  8G02G04G05G10G13G29G16G07
  -4556762.80948  -3535373.81646
                  21300239.3524                                   21300234.1024
                                                                        51.5004
        39.7504
   2739554.47747   2136982.05944
                  24090885.9844                                   24090884.0744
                                                                        43.0004
        24.5004
 -18479524.12948 -14364090.00046
                  21401996.4384                                   21401992.3874
                                                                        51.2504
        41.5004
 -16865859.37948 -13108123.27346
                  20790541.0394                                   20790537.8954
                                                                        52.0004
        41.2504
  -5684318.72348  -4413238.29745
                  21879125.4774                                   21879121.6254
                                                                        49.5004
        32.5004
 -13107102.50848 -10169277.84046
                  22080504.2584                                   22080500.7854
                                                                        49.5004
        38.5004
  -7878204.28946  -6105800.57443
                  23789158.0784                                   23789153.4844
                                                                        40.2504
        22.0004
  -8606940.76647  -6695011.45344
                  23566408.6414                                   23566403.8674
                                                                        44.2504
        27.7504
 09 10 27  0  7 30.0000000  0  8G02G04G05G10G13G29G16G07
  -4575426.77748  -3549917.17646
                  21296688.1254                                   21296682.4964
                                                                        51.2504
        40.5004
   2767416.00847   2158692.30943
                  24096188.2814                                   24096185.2344
                                                                        43.0004
        23.2504
 -18630801.62148 -14481968.56246
                  21373209.1024                                   21373205.5274
                                                                        51.7504
        41.7504
 -16996843.15248 -13210188.56646
                  20765615.5084                                   20765612.6994
                                                                        51.7504
        41.2504
  -5708901.96148  -4432394.09445
                  21874447.1954                                   21874443.4224
                                                                        49.0004
        32.7504
 -13199146.57048 -10241000.47346
                  22062988.8754                                   22062985.8634
                                                                        49.7504
        38.7504
  -7996779.21546  -6198196.60543
                  23766594.3834                                   23766589.7584
                                                                        40.7504
        23.0004
  -8772869.48047  -6824306.58244
                  23534833.0704                                   23534828.6914
                                                                        42.7504
        26.5004
 09 10 27  0  8  0.0000000  0  8G02G04G05G10G13G29G16G07
  -4593565.15248  -3564050.97746
                  21293236.3444                                   21293230.6844
                                                                        51.2504
        40.2504
   2795457.87147   2180543.02044
                  24101524.1954                                   24101521.5514
                                                                        42.5004
        25.5004
 -18781604.00048 -14599476.91046
                  21344512.2504                                   21344508.9454
                                                                        52.0004
        41.0004
 -17127255.92248 -13311808.89846
                  20740799.1334                                   20740796.1024
                                                                        52.2504
        41.0004
  -5732903.48048  -4451096.59045
                  21869880.1174                                   21869875.8634
                                                                        48.5004
        33.0004
 -13290540.21948 -10312216.29346
                  22045597.2194                                   22045593.8954
                                                                        50.0004
        38.5004
  -8114733.02046  -6290108.62143
                  23744148.3054                                   23744143.4694
                                                                        41.2504
        22.2504
  -8938351.05547  -6953253.26644
                  23503343.6254                                   23503339.0904
                                                                        43.0004
        28.2504
 09 10 27  0  8 30.0000000  0  8G02G04G05G10G13G29G16G07
  -4611176.94548  -3577774.45346
                  21289884.8134                                   21289879.5234
                                                                        51.0004
        39.5004
   2823679.70747   2202534.00044
                  24106895.2814                                   24106892.6414
                                                                        43.5004
        27.7504
 -18931926.40648 -14716611.24646
                  21315906.8444                                   21315903.2814
                                                                        51.5004
        41.5004
 -17257093.25848 -13412980.82846
                  20716091.9454                                   20716088.3954
                                                                        51.7504
        41.2504
  -5756324.07848  -4469346.44545
                  21865423.5554                                   21865418.9064
                                                                        49.0004
        32.7504
 -13381279.80148 -10382922.46546
                  22028330.0944                                   22028326.9534
                                                                        50.0004
        38.5004
  -8232062.23847  -6381534.03143
                  23721821.1024                                   23721817.2114
                                                                        42.2504
        23.2504
  -9103381.26247  -7081848.23044
                  23471938.2194                                   23471934.9184
                                                                        43.2504
        28.7504
 09 10 27  0  9  0.0000000  0  8G02G04G05G10G13G29G16G07
  -4628264.75448  -3591089.62146
                  21286633.1564                                   21286627.9344
                                                                        51.5004
        40.2504
   2852079.12547   2224663.34444
                  24112299.3754                                   24112297.2704
                                                                        42.2504
        28.5004
 -19081768.47348 -14833371.27346
                  21287392.8834                                   21287389.6294
                                                                        50.7504
        41.7504
 -17386355.53948 -13513704.66046
                  20691494.3444                                   20691490.7664
                                                                        52.2504
        41.5004
  -5779166.23448  -4487145.55545
                  21861077.0944                                   21861072.8134
                                                                        49.0004
        32.7504
 -13471366.39148 -10453119.78546
                  22011187.1954                                   22011183.4534
                                                                        50.0004
        38.5004
  -8348766.47346  -6472472.39843
                  23699613.0864                                   23699608.8554
                                                                        41.7504
        22.7504
  -9267957.69947  -7210089.60244
                  23440621.1334                                   23440617.5864
                                                                        43.5004
        29.5004
 09 10 27  0  9 30.0000000  0  8G02G04G05G10G13G29G16G07
  -4644833.56648  -3604000.38746
                  21283480.2664                                   21283475.1054
                                                                        51.5004
        40.2504
   2880651.11747   2246927.21144
                  24117736.6094                                   24117734.5204
                                                                        42.0004
        27.0004
 -19231131.84848 -14949758.31646
                  21258970.3674                                   21258966.4534
                                                                        51.2504
        41.7504
 -17515044.17248 -13613981.51246
                  20667005.4304                                   20667002.1644
                                                                        51.7504
        41.0004
  -5801435.54348  -4504498.32845
                  21856839.0944                                   21856835.3674
                                                                        48.5004
        32.0004
 -13560802.39848 -10522810.16046
                  21994167.7194                                   21994165.2274
                                                                        50.0004
        38.2504
  -8464847.46147  -6562925.16444
                  23677523.6174                                   23677519.4924
                                                                        42.5004
        25.7504
  -9432080.67247  -7337977.58245
                  23409389.4614                                   23409385.9414
                                                                        43.0004
        30.0004
 09 10 27  0 10  0.0000000  0  8G02G04G05G10G13G29G16G07
  -4660882.33648  -3616505.92246
                  21280426.2424                                   21280420.7154
                                                                        51.5004
        40.7504
   2909396.07846   2269325.84044
                  24123206.2584                                   24123204.5274
                                                                        39.7504
        24.2504
 -19380012.41048 -15065769.16447
                  21230639.2034                                   21230635.3874
                                                                        51.5004
        42.0004
 -17643155.82448 -13713808.77046
                  20642626.6484                                   20642622.8984
                                                                        52.0004
        41.0004
  -5823131.67647  -4521404.45345
                  21852710.5234                                   21852706.9104
                                                                        47.5004
        32.0004
 -13649585.65648 -10591991.91846
                  21977273.0234                                   21977269.9774
                                                                        49.7504
        39.0004
  -8580301.78947  -6652889.62944
                  23655554.1724                                   23655549.9304
                                                                        42.0004
        25.0004
  -9595744.66447  -7465507.93744
                  23378244.9304                                   23378241.2814
                                                                        43.2504
        29.0004
 09 10 27  0 10 30.0000000  0  8G02G04G05G10G13G29G16G07
  -4676413.04748  -3628607.78946
                  21277470.8204                                   21277465.3794
                                                                        52.0004
        39.5004
   2938311.70746   2291857.50043
                  24128708.6024                                   24128706.8754
                                                                        41.0004
        22.7504
 -19528407.99648 -15181402.08247
                  21202400.3054                                   21202396.8284
                                                                        51.5004
        42.0004
 -17770689.23848 -13813185.44546
                  20618357.8444                                   20618354.3794
                                                                        53.0004
        41.2504
  -5844257.01248  -4537865.82845
                  21848690.3754                                   21848686.4414
                                                                        48.5004
        31.5004
 -13737714.84048 -10660664.01646
                  21960502.7894                                   21960499.6884
                                                                        49.5004
        38.7504
  -8695127.85547  -6742364.48444
                  23633703.5234                                   23633698.8674
                                                                        42.5004
        25.2504
  -9758947.89847  -7592679.25844
                  23347188.3134                                   23347184.9534
                                                                        42.2504
        29.5004
 09 10 27  0 11  0.0000000  0  8G02G04G05G10G13G29G16G07
  -4691427.71548  -3640307.53946
                  21274613.5864                                   21274608.3364
                                                                        51.5004
        39.5004
   2967395.77346   2314520.23043
                  24134242.8364                                   24134240.8874
                                                                        41.0004
        22.0004
 -19676318.54348 -15296657.04346
                  21174253.9304                                   21174250.1024
                                                                        51.5004
        41.7504
 -17897643.92248 -13912111.15646
                  20594198.8364                                   20594195.7344
                                                                        52.2504
        41.0004
  -5864813.54748  -4553883.93745
                  21844778.7344                                   21844774.8324
                                                                        48.2504
        32.0004
 -13825191.85248 -10728827.92246
                  21943856.5084                                   21943853.5044
                                                                        49.7504
        38.5004
  -8809325.67247  -6831349.79744
                  23611971.8754                                   23611967.9884
                                                                        43.0004
        26.0004
  -9921686.92147  -7719488.84644
                  23316220.0164                                   23316216.5904
                                                                        43.2504
        29.0004
 09 10 27  0 11 30.0000000  0  8G02G04G05G10G13G29G16G07
  -4705929.38748  -3651607.55146
                  21271854.1414                                   21271848.6724
                                                                        51.5004
        39.7504
   2996644.69547   2337311.64143
                  24139808.5864                                   24139806.3054
                                                                        42.0004
        22.7504
 -19823742.33648 -15411532.70746
                  21146199.6724                                   21146196.4264
                                                                        50.7504
        41.5004
 -18024019.62948 -14010585.73846
                  20570150.4774                                   20570147.0234
                                                                        52.0004
        41.0004
  -5884805.68448  -4569462.24245
                  21840973.8674                                   21840970.2854
                                                                        49.0004
        31.5004
 -13912015.62548 -10796482.79746
                  21927334.3834                                   21927331.1994
                                                                        49.0004
        38.5004
  -8922894.09447  -6919844.64144
                  23590360.7344                                   23590356.2234
                                                                        42.2504
        27.2504
 -10083961.29547  -7845936.40345
                  23285340.8524                                   23285337.0634
                                                                        43.2504
        30.2504
 09 10 27  0 12  0.0000000  0  8G02G04G05G10G13G29G16G07
  -4719921.35248  -3662510.38346
                  21269191.6334                                   21269186.1054
                                                                        51.5004
        39.5004
   3026055.57847   2360229.23444
                  24145406.3834                                   24145403.4804
                                                                        43.5004
        26.0004
 -19970680.87148 -15526030.25446
                  21118238.5474                                   21118234.9804
                                                                        51.2504
        41.7504
 -18149817.58648 -14108610.12146
                  20546212.3754                                   20546208.8524
                                                                        52.0004
        41.5004
  -5904236.19948  -4584602.94145
                  21837276.8134                                   21837272.8134
                                                                        48.7504
        32.2504
 -13998189.78148 -10863631.48046
                  21910935.9224                                   21910932.9574
                                                                        49.5004
        38.5004
  -9035834.48047  -7007850.10944
                  23568868.5474                                   23568865.0124
                                                                        42.0004
        26.2504
 -10245768.76647  -7972020.15844
                  23254549.7584                                   23254545.8634
                                                                        43.5004
        29.5004
 09 10 27  0 12 30.0000000  0  8G02G04G05G10G13G29G16G07
  -4733404.00448  -3673016.34846
                  21266625.6414                                   21266620.2544
                                                                        51.5004
        40.2504
   3055627.16847   2383271.95344
                  24151033.3674                                   24151031.4734
                                                                        44.0004
        26.5004
 -20117130.04748 -15640146.48447
                  21090370.1724                                   21090366.3324
                                                                        51.2504
        42.0004
 -18275034.62148 -14206181.82846
                  20522384.0634                                   20522380.7114
                                                                        52.5004
        41.2504
  -5923107.34448  -4599307.75045
                  21833685.9694                                   21833681.7544
                                                                        49.0004
        32.0004
 -14083711.00848 -10930271.38746
                  21894661.7664                                   21894658.6334
                                                                        50.0004
        38.5004
  -9148143.95346  -7095363.97344
                  23547496.7344                                   23547492.7584
                                                                        41.5004
        25.7504
 -10407106.38347  -8097737.75844
                  23223848.3364                                   23223843.8054
                                                                        44.0004
        28.0004
 09 10 27  0 13  0.0000000  0  8G02G04G05G10G13G29G16G07
  -4746380.39148  -3683127.82846
                  21264156.5234                                   21264151.1134
                                                                        51.0004
        39.5004
   3085356.47347   2406437.67244
                  24156690.7734                                   24156688.7194
                                                                        44.2504
        28.0004
 -20263090.34048 -15753881.77747
                  21062594.6094                                   21062591.1684
                                                                        51.5004
        42.0004
 -18399671.44948 -14303301.43046
                  20498666.3284                                   20498663.2974
                                                                        51.7504
        41.0004
  -5941421.55148  -4613578.56245
                  21830200.6334                                   21830196.7544
                                                                        48.0004
        31.7504
 -14168581.75448 -10996404.44146
                  21878511.5634                                   21878508.6844
                                                                        50.0004
        38.5004
  -9259822.99246  -7182386.59443
                  23526244.3834                                   23526241.1644
                                                                        41.5004
        23.7504
 -10567972.12547  -8223087.64844
                  23193236.6884                                   23193232.2424
                                                                        44.5004
        29.2504
 09 10 27  0 13 30.0000000  0  8G02G04G05G10G13G29G16G07
  -4758853.57048  -3692847.20346
                  21261783.1414                                   21261777.6484
                                                                        50.5004
        39.2504
   3115240.27347   2429723.55944
                  24162377.4924                                   24162375.5354
                                                                        43.0004
        26.5004
 -20408561.29348 -15867235.77346
                  21034912.9614                                   21034909.1214
                                                                        51.2504
        41.7504
 -18523727.83648 -14399968.72346
                  20475059.1954                                   20475055.8364
                                                                        51.7504
        41.5004
  -5959182.45348  -4627418.28145
                  21826820.8524                                   21826817.3164
                                                                        48.0004
        30.5004
 -14252802.80148 -11062031.22346
                  21862484.8524                                   21862481.6564
                                                                        50.0004
        38.5004
  -9370871.59847  -7268917.98044
                  23505112.7504                                   23505109.2974
                                                                        42.0004
        24.5004
 -10728364.50847  -8348068.72744
                  23162714.7894                                   23162710.4304
                                                                        43.2504
        28.0004
 09 10 27  0 14  0.0000000  0  8G02G04G05G10G13G29G16G07
  -4770826.35948  -3702176.64546
                  21259504.8594                                   21259499.0904
                                                                        51.7504
        39.2504
   3145274.23046   2453125.88744
                  24168093.1254                                   24168091.5784
                                                                        41.7504
        25.0004
 -20553542.06648 -15980207.79346
                  21007323.8284                                   21007320.0784
                                                                        51.5004
        41.7504
 -18647203.97348 -14496183.89146
                  20451562.3524                                   20451558.9414
                                                                        51.7504
        41.0004
  -5976393.41448  -4640829.41445
                  21823546.0944                                   21823542.1914
                                                                        48.0004
        31.0004
 -14336374.24248 -11127151.81646
                  21846581.3754                                   21846578.4304
                                                                        49.5004
        37.7504
  -9481289.70746  -7354958.08644
                  23484100.7194                                   23484097.3794
                                                                        41.5004
        26.0004
 -10888282.68746  -8472680.33244
                  23132283.1954                                   23132279.3164
                                                                        41.5004
        28.2504
 09 10 27  0 14 30.0000000  0  8G02G04G05G10G13G29G16G07
  -4782299.78548  -3711117.00046
                  21257321.3674                                   21257315.6484
                                                                        51.0004
        39.5004
   3175458.39546   2476645.21543
                  24173837.1334                                   24173835.6724
                                                                        39.5004
        22.0004
 -20698030.88748 -16092796.47347
                  20979828.3524                                   20979824.8324
                                                                        51.0004
        42.0004
 -18770098.19948 -14591945.63346
                  20428176.5944                                   20428173.2504
                                                                        51.2504
        41.5004
  -5993056.34447  -4653813.53145
                  21820374.7344                                   21820371.7734
                                                                        47.5004
        31.7504
 -14419296.49248 -11191766.56246
                  21830801.8524                                   21830799.1134
                                                                        49.0004
        38.7504
  -9591076.06247  -7440505.89844
                  23463209.7114                                   23463205.5634
                                                                        42.5004
        24.5004
 -11047722.42647  -8596919.20744
                  23101942.5234                                   23101939.3364
                                                                        43.0004
        27.7504
 09 10 27  0 15  0.0000000  0  8G02G04G05G10G13G29G16G07
  -3217857.09448  -2492070.77346
                  21555025.0084                                   21555019.5664
                                                                        50.7504
        39.5004
   4781210.60546   3727881.19143
                  24479401.7584                                   24479401.2194
                                                                        41.7504
        21.5004
 -19266602.71548 -14977397.91447
                  21252220.1804                                   21252216.8094
                                                                        52.0004
        42.5004
 -17316987.03548 -13459651.22346
                  20704694.5084                                   20704691.3134
                                                                        51.5004
        41.7504
  -4433754.69147  -3438773.28945
                  22117099.9614                                   22117096.5354
                                                                        47.5004
        31.2504
 -12926147.67248 -10028273.97746
                  22114938.8524                                   22114935.6254
                                                                        49.0004
        38.5004
  -8124806.98447  -6297958.53944
                  23742230.5474                                   23742227.5004
                                                                        42.0004
        25.7504
  -9631257.55947  -7493180.40244
                  23371487.1484                                   23371483.8794
                                                                        44.0004
        28.5004
 09 10 27  0 15 30.0000000  0  8G02G04G05G10G13G29G16G07
  -3228340.88348  -2500239.99246
                  21553030.0864                                   21553024.5434
                                                                        51.2504
        40.0004
   4811687.78147   3751630.02043
                  24485201.2584                                   24485198.4344
                                                                        42.2504
        22.5004
 -19410106.23448 -15089218.82047
                  21224912.4454                                   21224908.9224
                                                                        50.7504
        42.2504
 -17438717.88748 -13554506.41446
                  20681529.8444                                   20681526.8634
                                                                        51.7504
        41.7504
  -4449332.37548  -3450911.75045
                  22114136.0784                                   22114132.1844
                                                                        48.0004
        32.2504
 -13007773.84448 -10091878.76246
                  22099405.5004                                   22099403.0234
                                                                        48.7504
        38.5004
  -8233329.39147  -6382521.43044
                  23721580.1094                                   23721576.3204
                                                                        42.7504
        25.2504
  -9789736.54346  -7616670.59444
                  23341329.7504                                   23341325.9184
                                                                        41.7504
        29.7504
 09 10 27  0 16  0.0000000  0  8G02G04G05G10G13G29G16G07
  -3238335.63348  -2508028.22746
                  21551128.2814                                   21551122.9384
                                                                        50.7504
        39.7504
   4842304.60947   3775487.57443
                  24491027.5554                                   24491024.7894
                                                                        44.0004
        23.7504
 -19553117.65648 -15200656.28947
                  21197698.0704                                   21197694.3364
                                                                        51.7504
        42.0004
 -17559868.36348 -13648909.39847
                  20658475.4224                                   20658472.2734
                                                                        52.0004
        42.0004
  -4464372.82048  -3462631.53145
                  22111273.9384                                   22111269.8554
                                                                        48.0004
        31.0004
 -13088754.79348 -10154980.78546
                  22083995.8054                                   22083992.8404
                                                                        49.2504
        38.7504
  -8341221.22347  -6466593.01244
                  23701048.8054                                   23701045.1954
                                                                        42.0004
        24.5004
  -9947733.98847  -7739785.62545
                  23311263.9304                                   23311260.3984
                                                                        44.2504
        30.0004
 09 10 27  0 16 30.0000000  0  8G02G04G05G10G13G29G16G07
  -3247841.39848  -2515435.41046
                  21549319.2974                                   21549314.0554
                                                                        50.5004
        38.7504
   4873060.85947   3799453.59844
                  24496880.2274                                   24496877.7424
                                                                        42.5004
        26.2504
 -19695633.92648 -15311707.93447
                  21170578.2194                                   21170574.8634
                                                                        51.2504
        42.2504
 -17680436.07448 -13742858.27346
                  20635532.4384                                   20635529.2154
