     2.11           OBSERVATION DATA    G (GPS)             RINEX VERSION / TYPE
teqc  2019Feb25                         20221121 12:28:53UTCPGM / RUN BY / DATE
OSX ker:10.11.6|Core i5|gcc 4.3 -m64|OSX ker:10.10+|=+      COMMENT
BIT 2 OF LLI FLAGS DATA COLLECTED UNDER A/S CONDITION       COMMENT
04713031                                                    MARKER NAME
3031                                                        MARKER NUMBER
-Unknown-           -Unknown-                               OBSERVER / AGENCY
0220400471          TRIMBLE R7          2.30                REC # / TYPE / VERS
-Unknown-           TRM39105.00     NONE                    ANT # / TYPE
  1449459.0550 -1709243.7763  5952443.4257                  APPROX POSITION XYZ
        0.0000        0.0000        0.0000                  ANTENNA: DELTA H/E/N
     1     1                                                WAVELENGTH FACT L1/2
    20    L1    L2    L5    L6    L7    L8    C1    P1    C2# / TYPES OF OBSERV
          P2    C5    C6    C7    C8    S1    S2    S5    S6# / TYPES OF OBSERV
          S7    S8                                          # / TYPES OF OBSERV
    30.0000                                                 INTERVAL
    15                                                      LEAP SECONDS
Forced Modulo Decimation to 30 seconds                      COMMENT
 SNR is mapped to RINEX snr flag value [0-9]                COMMENT
  L1 & L2: min(max(int(snr_dBHz/6), 0), 9)                  COMMENT
teqc edited: Beidou # 1 - 37 excluded                       COMMENT
  2009    10    30    23    14   30.0000000     GPS         TIME OF FIRST OBS
                                                            END OF HEADER
 09 10 30 23 14 30.0000000  0  7G02G04G05G10G13G23G29
    -94307.91458    -60132.52357
                  20539382.7504                                   20539376.3984
                                                                        51.7504
        42.5004
      -806.81657      -866.93455
                  22543090.7814                                   22543087.1844
                                                                        47.7504
        33.7504
   -254819.16858   -161199.70356
                  22388123.2344                                   22388118.7274
                                                                        48.7504
        37.0004
   -236063.47758   -150981.69956
                  21529418.6884                                   21529414.6884
                                                                        50.0004
        38.7504
   -108592.64558    -71266.39156
                  21236898.1804                                   21236893.4384
                                                                        50.5004
        36.5004
    -17381.74257    -11290.61354
                  23068691.4384                                   23068684.2424
                                                                        43.5004
        26.5004
   -195231.50858   -123398.18456
                  22359081.1724                                   22359077.3054
                                                                        48.0004
        36.0004
 09 10 30 23 15  0.0000000  0  7G02G04G05G10G13G23G29
   -166654.29748   -116506.34047
                  20525615.6804                                   20525608.9694
                                                                        52.2504
        42.5004
     -3032.35247     -2601.13345
                  22542667.0784                                   22542663.4694
                                                                        47.0004
        34.0004
   -447497.66848   -311338.80146
                  22351457.6414                                   22351453.3444
                                                                        48.7504
        37.5004
   -415404.93748   -290728.30946
                  21495291.2974                                   21495287.1294
                                                                        50.0004
        38.5004
   -191607.05948   -135952.94946
                  21221101.1804                                   21221096.0084
                                                                        50.5004
        36.0004
    -31962.00047    -22651.84444
                  23065917.0704                                   23065909.6214
                                                                        43.2504
        28.0004
   -343674.61747   -239068.13346
                  22330833.2584                                   22330829.4104
                                                                        47.5004
        36.0004
 09 10 30 23 15 30.0000000  0  7G02G04G05G10G13G23G29
   -238275.92248   -172315.41447
                  20511986.6954                                   20511980.2274
                                                                        52.2504
        42.2504
     -4814.77747     -3990.06245
                  22542328.2344                                   22542324.3364
                                                                        46.5004
        33.0004
   -639714.90648   -461118.47346
                  22314879.8674                                   22314875.4184
                                                                        48.7504
        37.5004
   -594171.18048   -430026.68046
                  21461273.1484                                   21461268.5904
                                                                        49.5004
        38.5004
   -273814.69548   -200010.86746
                  21205457.4694                                   21205452.5084
                                                                        51.0004
        36.5004
    -45992.75847    -33584.90244
                  23063247.3444                                   23063239.9614
                                                                        44.0004
        27.7504
   -491428.75047   -354201.22346
                  22302716.4614                                   22302712.4774
                                                                        47.5004
        37.0004
 09 10 30 23 16  0.0000000  0  7G02G04G05G10G13G23G29
   -308908.34048   -227353.66446
                  20498545.6254                                   20498538.9144
                                                                        52.5004
        41.7504
     -5890.89148     -4828.61345
                  22542123.2584                                   22542119.3284
                                                                        48.2504
        33.7504
   -831203.26248   -610330.18446
                  22278440.6724                                   22278436.5044
                                                                        48.2504
        37.5004
   -772094.98048   -568668.59446
                  21427415.1804                                   21427411.0634
                                                                        50.2504
        38.5004
   -354951.20348   -263234.13746
                  21190017.9924                                   21190013.0394
                                                                        50.5004
        37.0004
    -59211.65247    -43885.33644
                  23060731.9384                                   23060724.7034
                                                                        43.7504
        28.2504
   -638227.14547   -468589.59046
                  22274781.8984                                   22274777.7894
                                                                        47.5004
        36.5004
 09 10 30 23 16 30.0000000  0  7G02G04G05G10G13G23G29
   -378479.17248   -281564.71147
                  20485306.7584                                   20485300.5594
                                                                        52.0004
        42.0004
     -6190.08647     -5061.76245
                  22542066.0314                                   22542062.0984
                                                                        47.5004
        33.5004
  -1021888.45748   -758916.05946
                  22242154.7274                                   22242149.9614
                                                                        48.0004
        37.2504
   -949101.25848   -706595.56646
                  21393732.1484                                   21393728.0634
                                                                        50.2504
        38.5004
   -434944.29348   -325566.42246
                  21174795.9224                                   21174791.3134
                                                                        50.7504
        36.7504
    -71548.07047    -53498.13344
                  23058384.3674                                   23058377.1334
                                                                        43.2504
        27.5004
   -783994.74248   -582174.72746
                  22247043.3834                                   22247039.3204
                                                                        48.5004
        36.5004
 09 10 30 23 17  0.0000000  0  7G02G04G05G10G13G23G29
   -446969.89148   -334934.12547
                  20472273.5474                                   20472267.0044
                                                                        52.2504
        42.0004
     -5694.94548     -4675.96945
                  22542160.7664                                   22542156.4494
                                                                        48.0004
        34.0004
  -1211749.34447   -906859.59846
                  22206025.2504                                   22206021.0394
                                                                        47.5004
        37.5004
  -1125169.09448   -843791.28546
                  21360227.5554                                   21360223.5944
                                                                        50.0004
        38.5004
   -513775.64848   -386993.46146
                  21159794.8284                                   21159790.2584
                                                                        50.7504
        36.0004
    -82985.22747    -62410.21944
                  23056207.5234                                   23056200.8204
                                                                        43.5004
        27.7504
   -928710.98848   -694940.63745
                  22219504.7274                                   22219500.5274
                                                                        48.2504
        35.5004
 09 10 30 23 17 30.0000000  0  8G02G04G05G10G13G16G23G29
   -514386.47748   -387466.53947
                  20459444.1484                                   20459437.9184
                                                                        51.5004
        42.2504
     -4413.23448     -3677.26645
                  22542404.3364                                   22542400.8594
                                                                        48.2504
        33.7504
  -1400789.12147  -1054163.30146
                  22170051.9384                                   22170047.8634
                                                                        47.5004
        37.5004
  -1300302.06248   -980258.52746
                  21326901.2034                                   21326896.9184
                                                                        51.0004
        38.5004
   -591451.53548   -447520.13346
                  21145013.3834                                   21145008.6174
                                                                        50.7504
        37.0004
   -206363.60556   -126106.66853
                  24219094.7424                                   24219088.8164
                                                                        38.0004
        19.0004
    -93531.08247    -70627.80944
                  23054200.5784                                   23054194.0354
                                                                        43.5004
        27.7504
  -1072379.69148   -806890.28545
                  22192165.2974                                   22192161.3594
                                                                        48.2504
        35.0004
 09 10 30 23 18  0.0000000  0  8G02G04G05G10G13G16G23G29
   -580745.88348   -439175.18047
                  20446816.6254                                   20446810.2384
                                                                        51.5004
        42.0004
     -2363.04347     -2079.73045
                  22542794.3984                                   22542790.6914
                                                                        47.7504
        33.5004
  -1589022.22747  -1200838.40646
                  22134232.7504                                   22134228.6844
                                                                        47.7504
        38.0004
  -1474514.38348  -1116008.39846
                  21293749.3914                                   21293745.1484
                                                                        50.5004
        38.7504
   -667989.16448   -507159.83646
                  21130448.8594                                   21130443.5704
                                                                        51.0004
        36.5004
   -371708.23446   -254946.61343
                  24187629.7814                                   24187625.0664
                                                                        38.7504
        20.0004
   -103204.60947    -78165.63344
                  23052360.1024                                   23052353.1024
                                                                        44.0004
        26.5004
  -1215015.16048   -918034.80546
                  22165022.6804                                   22165018.8794
                                                                        48.2504
        36.0004
 09 10 30 23 18 30.0000000  0  8G02G04G05G10G13G16G23G29
    929349.04348    737522.14847
                  20734178.2974                                   20734171.6954
                                                                        51.5004
        42.5004
   1575849.17647   1227695.99245
                  22843118.3524                                   22843114.2774
                                                                        46.7504
        32.5004
   -201044.54748   -119297.35246
                  22398355.9694                                   22398351.7274
                                                                        48.5004
        38.0004
    -72402.72348    -23453.85546
                  21560562.3134                                   21560557.9614
                                                                        49.7504
        38.5004
    832008.96148    661669.86746
                  21415888.9614                                   21415884.1214
                                                                        50.7504
        36.2504
   1039293.85546    844535.53943
                  24456134.7274                                   24456129.6374
                                                                        39.7504
        21.2504
   1463387.55147   1142555.54344
                  23350472.3444                                   23350465.7544
                                                                        44.0004
        28.5004
    218784.50847    199211.67646
                  22437866.1024                                   22437861.7154
                                                                        47.0004
        36.0004
 09 10 30 23 19  0.0000000  0  8G02G04G05G10G13G16G23G29
    865033.46948    687406.10546
                  20721939.3204                                   20721932.6724
                                                                        51.5004
        41.7504
   1579361.41048   1230432.77745
                  22843786.7114                                   22843782.5664
                                                                        48.5004
        32.7504
   -387726.66448   -264763.91046
                  22362831.5784                                   22362826.8874
                                                                        48.0004
        38.5004
   -244836.75048   -157818.02746
                  21527749.4064                                   21527744.9614
                                                                        50.5004
        38.5004
    757676.76248    603748.65645
                  21401743.8134                                   21401739.1914
                                                                        50.7504
        35.7504
    875774.67246    717117.99643
                  24425018.2424                                   24425013.4414
                                                                        41.7504
        22.5004
   1455382.18447   1136317.59044
                  23348949.3914                                   23348942.6564
                                                                        44.5004
        27.7504
     78151.75047     89627.71145
                  22411104.2424                                   22411100.0084
                                                                        47.0004
        35.2504
 09 10 30 23 19 30.0000000  0  8G02G04G05G10G13G16G23G29
    801712.54748    638065.08646
                  20709889.7734                                   20709883.4064
                                                                        51.0004
        41.5004
   1583574.97348   1233716.07445
                  22844588.5864                                   22844584.4774
                                                                        48.0004
        32.2504
   -573657.19948   -409644.85246
                  22327450.1334                                   22327445.5354
                                                                        49.2504
        37.7504
   -416405.14548   -291507.68746
                  21495100.5314                                   21495096.4414
                                                                        50.7504
        38.7504
    684419.26648    546664.88746
                  21387803.3134                                   21387798.4224
                                                                        50.0004
        36.5004
    713145.35547    590393.84443
                  24394071.5234                                   24394065.8054
                                                                        42.5004
        23.5004
   1448181.17647   1130706.41844
                  23347579.1174                                   23347571.4534
                                                                        44.5004
        25.2504
    -61503.75847    -19194.77046
                  22384528.7274                                   22384524.2384
                                                                        47.7504
        36.0004
 09 10 30 23 20  0.0000000  0  8G02G04G05G10G13G16G23G29
    739366.64848    589483.85246
                  20698025.9304                                   20698019.2344
                                                                        51.5004
        41.5004
   1588469.31348   1237529.83245
                  22845519.9924                                   22845515.8134
                                                                        48.2504
        32.5004
   -758852.58248   -553952.93046
                  22292208.0704                                   22292204.2814
                                                                        48.0004
        37.0004
   -587124.78948   -424535.98446
                  21462613.7814                                   21462609.1884
                                                                        50.0004
        38.7504
    612217.16448    490403.51646
                  21374063.4384                                   21374059.3714
                                                                        50.7504
        36.5004
    551389.60247    464350.39544
                  24363290.0474                                   24363284.7664
                                                                        42.0004
        24.0004
   1441762.78947   1125705.08244
                  23346357.9224                                   23346350.5004
                                                                        44.2504
        26.5004
   -200198.62947   -127268.69146
                  22358135.7734                                   22358131.9104
                                                                        47.5004
        36.0004
 09 10 30 23 20 30.0000000  0  8G02G04G05G10G13G16G23G29
    677981.84448    541651.54747
                  20686344.7584                                   20686338.3714
                                                                        52.5004
        42.2504
   1594028.78948   1241861.91445
                  22846577.4454                                   22846574.0864
                                                                        48.2504
        32.7504
   -943324.32848   -697697.14146
                  22257104.7274                                   22257100.2774
                                                                        48.5004
        38.2504
   -757007.05548   -556911.77046
                  21430286.3984                                   21430282.7034
                                                                        50.5004
        39.7504
    541055.72748    434953.03946
                  21360522.5474                                   21360517.4304
                                                                        50.7504
        36.7504
    390496.53147    338979.15243
                  24332672.5474                                   24332667.9494
                                                                        42.0004
        22.2504
   1436111.01647   1121301.10244
                  23345282.0234                                   23345275.0044
                                                                        44.5004
        26.0004
   -337945.30148   -234603.76246
                  22331923.6804                                   22331919.7384
                                                                        48.0004
        36.0004
 09 10 30 23 21  0.0000000  0  8G02G04G05G10G13G16G23G29
    617539.85548    494553.87947
                  20674842.8834                                   20674836.2854
                                                                        53.0004
        42.0004
   1600233.99648   1246697.13345
                  22847758.6484                                   22847754.6214
                                                                        48.2504
        33.2504
  -1127087.84848   -840889.49646
                  22222135.7584                                   22222131.7344
                                                                        49.5004
        38.2504
   -926067.67248   -688647.30546
                  21398115.0864                                   21398110.9064
                                                                        50.0004
        38.7504
    470917.03148    380299.50846
                  21347175.3364                                   21347170.4774
                                                                        51.5004
        36.7504
    230451.00446    214268.35943
                  24302217.8524                                   24302212.3094
                                                                        40.2504
        21.7504
   1431206.18047   1117479.14144
                  23344348.8054                                   23344342.1054
                                                                        44.0004
        27.0004
   -474759.21147   -341211.98446
                  22305888.8284                                   22305884.7194
                                                                        47.5004
        36.0004
 09 10 30 23 21 30.0000000  0  8G02G04G05G10G13G16G23G29
    558021.59448    448175.97747
                  20663517.0704                                   20663510.6884
                                                                        52.2504
        42.2504
   1607064.48048   1252019.58245
                  22849058.7344                                   22849054.7304
                                                                        48.5004
        32.5004
  -1310159.60948   -983542.78546
                  22187298.2664                                   22187293.9694
                                                                        50.0004
        38.5004
  -1094323.28948   -819755.56646
                  21366097.0864                                   21366092.5394
                                                                        49.7504
        38.5004
    401781.27748    326427.49245
                  21334019.2194                                   21334014.3754
                                                                        51.0004
        35.7504
     71237.26646     90205.71943
                  24271919.4064                                   24271914.9304
                                                                        39.2504
        19.7504
   1427027.23047   1114222.80144
                  23343553.6254                                   23343546.6884
                                                                        43.7504
        27.2504
   -610657.32447   -447106.60546
                  22280028.1804                                   22280024.3444
                                                                        46.2504
        36.2504
 09 10 30 23 22  0.0000000  0  8G02G04G05G10G13G16G23G29
    499413.78548    402507.50447
                  20652364.5634                                   20652358.1024
                                                                        52.5004
        42.0004
   1614505.04747   1257817.39545
                  22850474.4224                                   22850470.2854
                                                                        47.2504
        32.5004
  -1492550.44948  -1125665.51246
                  22152590.2814                                   22152586.3284
                                                                        49.5004
        38.2504
  -1261784.84048   -950245.08246
                  21334230.2034                                   21334226.2344
                                                                        50.2504
        39.0004
    333634.78148    273326.32846
                  21321051.4694                                   21321046.3364
                                                                        50.7504
        36.2504
    -87155.70046    -33217.31143
                  24241778.6254                                   24241773.9574
                                                                        38.5004
        18.5004
   1423558.68047   1111520.02744
                  23342893.6484                                   23342886.5164
                                                                        45.0004
        27.0004
   -745651.09448   -552296.55546
                  22254339.7034                                   22254335.7934
                                                                        48.0004
        36.2504
 09 10 30 23 22 30.0000000  0  8G02G04G05G10G13G16G23G29
    441702.49248    357537.63347
                  20641382.0554                                   20641375.4574
                                                                        52.0004
        42.0004
   1622540.89148   1264079.05145
                  22852003.5784                                   22851999.4844
                                                                        48.2504
        32.5004
  -1674271.50448  -1267266.32846
                  22118010.1254                                   22118005.3954
                                                                        50.0004
        39.0004
  -1428463.18448  -1080124.32446
                  21302512.3364                                   21302507.9224
                                                                        51.0004
        39.5004
    266463.31348    220984.91445
                  21308269.3594                                   21308263.9024
                                                                        51.5004
        35.7504
   -244738.34046   -156008.99243
                  24211792.1174                                   24211786.2274
                                                                        40.2504
        18.5004
   1420785.07847   1109358.76644
                  23342365.4774                                   23342359.1374
                                                                        44.5004
        27.5004
   -879751.61748   -656790.45346
                  22228821.2034                                   22228817.1094
                                                                        48.2504
        36.5004
 09 10 30 23 23  0.0000000  0  9G02G04G05G10G13G16G23G29G07
    384868.64848    313251.56646
                  20630567.2504                                   20630560.6214
                                                                        52.7504
        41.7504
   1631151.89547   1270788.90245
                  22853642.4224                                   22853638.4774
                                                                        47.7504
        32.7504
  -1855339.26248  -1408358.09846
                  22083554.0554                                   22083549.5124
                                                                        49.5004
        38.5004
  -1594375.23048  -1209406.44946
                  21270940.2424                                   21270935.7774
                                                                        51.0004
        39.2504
    200247.64148    169388.29346
                  21295668.8984                                   21295663.5164
                                                                        50.7504
        36.5004
   -401526.57446   -278181.64143
                  24181956.1024                                   24181950.3094
                                                                        40.0004
        18.2504
   1418685.66447   1107722.86344
                  23341966.7584                                   23341959.7854
                                                                        44.7504
        27.2504
  -1012975.83648   -760601.52046
                  22203469.4774                                   22203465.7234
                                                                        48.7504
        36.5004
   1336728.27756   1079658.30953
                  24398025.5704                                   24398021.8204
                                                                        39.5004
        22.0004
 09 10 30 23 23 30.0000000  0  9G02G04G05G10G13G16G23G29G07
    328898.48048    269638.51646
                  20619916.1414                                   20619910.1294
                                                                        52.7504
        41.7504
   1640322.98047   1277935.19545
                  22855387.6254                                   22855383.7814
                                                                        47.5004
        33.2504
  -2035764.73048  -1548949.38746
                  22049220.5314                                   22049215.4774
                                                                        49.5004
        38.5004
  -1759531.65248  -1338099.77046
                  21239512.1724                                   21239507.9774
                                                                        51.0004
        39.5004
    134973.71548    118525.50045
                  21283247.6094                                   21283242.5274
                                                                        50.5004
        35.7504
   -557530.55946   -399743.24243
                  24152269.9534                                   24152263.4304
                                                                        40.5004
        19.5004
   1417244.68047   1106600.00844
                  23341691.9224                                   23341685.2544
                                                                        43.2504
        26.5004
  -1145335.02048   -863738.53546
                  22178282.1254                                   22178278.4844
                                                                        48.2504
        37.0004
   1144849.98846    930142.89143
                  24361512.3674                                   24361508.2624
                                                                        39.5004
        21.7504
 09 10 30 23 24  0.0000000  0  9G02G04G05G10G13G16G23G29G07
    273772.10948    226682.89147
                  20609426.2114                                   20609419.4454
                                                                        52.2504
        42.2504
   1650032.66048   1285501.07845
                  22857235.0554                                   22857231.5944
                                                                        48.0004
        32.5004
  -2215564.65648  -1689053.21146
                  22015005.4144                                   22015000.7194
                                                                        50.5004
        38.7504
  -1923949.57448  -1466217.59846
                  21208224.5234                                   21208220.4884
                                                                        50.5004
        39.5004
     70621.42648     68380.84845
                  21271001.4844                                   21270996.7934
                                                                        50.2504
        35.7504
   -712767.43746   -520707.05543
                  24122729.3834                                   24122723.6174
                                                                        40.5004
        18.5004
   1416440.60947   1105973.48044
                  23341538.3524                                   23341531.8714
                                                                        43.0004
        25.0004
  -1276846.67647   -966215.13346
                  22153256.9144                                   22153252.1954
                                                                        47.5004
        36.7504
    953503.57846    781041.87143
                  24325100.4924                                   24325096.6454
                                                                        40.5004
        23.2504
 09 10 30 23 24 30.0000000  0  9G02G04G05G10G13G16G23G29G07
    219481.07848    184378.16047
                  20599094.8594                                   20599088.3364
                                                                        53.0004
        42.0004
   1660271.64147   1293479.46945
                  22859183.5554                                   22859179.7464
                                                                        47.7504
        32.0004
  -2394744.90648  -1828674.13346
                  21980908.6334                                   21980903.5634
                                                                        50.5004
        38.5004
  -2087635.32848  -1593764.90646
                  21177076.2114                                   21177072.1174
                                                                        50.5004
        39.5004
      7181.87148     18947.43846
                  21258929.8134                                   21258924.8754
                                                                        50.0004
        36.0004
   -867242.64546   -641077.35243
                  24093333.5394                                   24093327.9104
                                                                        41.5004
        20.5004
   1416263.21547   1105835.23444
                  23341504.8444                                   23341497.9024
                                                                        42.5004
        24.7504
  -1407516.91848  -1068036.10246
                  22128390.6644                                   22128386.7194
                                                                        48.0004
        36.5004
    762684.35546    632351.48443
                  24288788.9454                                   24288785.0904
                                                                        40.5004
        23.5004
 09 10 30 23 25  0.0000000  0  9G02G04G05G10G13G16G23G29G07
    166016.00848    142717.05147
                  20588920.5164                                   20588914.0434
                                                                        52.0004
        42.2504
   1671029.10547   1301861.87545
                  22861230.6414                                   22861226.7624
                                                                        46.7504
        31.7504
  -2573312.18748  -1967817.43046
                  21946927.8914                                   21946923.7194
                                                                        49.5004
        39.0004
  -2250595.42648  -1720746.77046
                  21146065.4844                                   21146061.7154
                                                                        50.2504
        39.7504
    -55354.88348    -29782.48046
                  21247029.0554                                   21247024.1994
                                                                        49.7504
        36.0004
  -1020962.02046   -760858.70343
                  24064081.5634                                   24064075.9304
                                                                        41.5004
        22.2504
   1416701.40646   1106176.69144
                  23341589.0394                                   23341581.4774
                                                                        41.7504
        24.0004
  -1537353.10548  -1169207.15246
                  22103684.0554                                   22103679.5554
                                                                        48.7504
        36.0004
    572387.44947    484068.23444
                  24252577.3524                                   24252573.0004
                                                                        43.5004
        27.7504
 09 10 30 23 25 30.0000000  0  9G02G04G05G10G13G16G23G29G07
    113371.59848    101695.43847
                  20578902.8204                                   20578896.5944
                                                                        52.2504
        42.2504
   1682298.56647   1310643.17645
                  22863375.0864                                   22863371.5824
                                                                        46.7504
        31.5004
  -2751269.00448  -2106485.02746
                  21913064.0474                                   21913059.6054
                                                                        49.5004
        39.5004
  -2412832.40648  -1847165.18046
                  21115193.3674                                   21115189.4064
                                                                        49.7504
        39.2504
   -116994.20348    -77813.13745
                  21235299.9304                                   21235294.7464
                                                                        50.0004
        35.5004
  -1173928.14146   -880053.07443
                  24034973.2734                                   24034967.8874
                                                                        41.2504
        22.5004
   1417748.59447   1106992.68844
                  23341787.5864                                   23341780.8674
                                                                        43.0004
        25.7504
  -1666358.22747  -1269730.62146
                  22079134.6484                                   22079130.7894
                                                                        47.7504
        36.0004
    382611.09047    336190.59444
                  24216464.0784                                   24216459.6024
                                                                        43.5004
        27.2504
 09 10 30 23 26  0.0000000  0  9G02G04G05G10G13G16G23G29G07
     61538.53948     61306.03947
                  20569039.5164                                   20569032.6804
                                                                        52.0004
        42.5004
   1694069.31647   1319815.04345
                  22865615.2974                                   22865612.1134
                                                                        46.5004
        32.2504
  -2928621.89148  -2244682.09446
                  21879315.2894                                   21879310.7504
                                                                        49.5004
        39.0004
  -2574353.02748  -1973025.38746
                  21084456.8914                                   21084452.5354
                                                                        50.7504
        39.2504
   -177745.59448   -125151.89846
                  21223739.0474                                   21223734.2034
                                                                        49.2504
        36.0004
  -1326147.14547   -998665.27043
                  24006006.9694                                   24006001.7384
                                                                        42.0004
        22.5004
   1419393.14147   1108274.14844
                  23342101.3364                                   23342093.8054
                                                                        43.5004
        26.0004
  -1794539.43748  -1369612.08246
                  22054742.8754                                   22054738.6954
                                                                        48.5004
        36.2504
    193349.68047    188714.14144
                  24180448.1644                                   24180444.5434
                                                                        42.5004
        27.2504
 09 10 30 23 26 30.0000000  0  9G02G04G05G10G13G16G23G29G07
     10512.69548     21545.62947
                  20559329.7974                                   20559323.2894
                                                                        52.7504
        42.0004
   1706336.69547   1329373.97345
                  22867949.4694                                   22867946.0314
                                                                        46.7504
        31.7504
  -3105372.15248  -2382409.63346
                  21845680.5944                                   21845676.1644
                                                                        49.5004
        39.5004
  -2735158.79348  -2098328.60546
                  21053856.4614                                   21053851.8164
                                                                        50.5004
        40.0004
   -237613.28148   -171802.02745
                  21212346.5634                                   21212341.2344
                                                                        49.0004
        35.5004
  -1477619.84046  -1116695.94143
                  23977182.1884                                   23977176.9694
                                                                        40.5004
        21.5004
   1421629.67647   1110016.90244
                  23342526.5944                                   23342519.6334
                                                                        43.5004
        27.5004
  -1921898.26648  -1468852.75446
                  22030507.4774                                   22030502.9614
                                                                        48.7504
        36.0004
      4603.56346     41639.38744
                  24144531.1804                                   24144526.8984
                                                                        40.7504
        24.5004
 09 10 30 23 27  0.0000000  0  9G02G04G05G10G13G16G23G29G07
   1535700.87548   1210003.84046
                  20849563.2034                                   20849556.8554
                                                                        52.2504
        41.5004
   3294504.29347   2566907.12545
                  23170167.6564                                   23170164.1454
                                                                        45.5004
        30.7504
  -1706105.58648  -1292072.07846
                  22111952.2504                                   22111947.6134
                                                                        50.2504
        39.2504
  -1319836.13748   -995479.77746
                  21323183.2974                                   21323179.4774
                                                                        50.5004
        39.7504
   1278809.25448   1009825.90246
                  21500912.4224                                   21500907.4104
                                                                        50.0004
        36.0004
    -52932.71546     -6550.12543
                  24248291.0004                                   24248286.0044
                                                                        39.7504
        21.5004
   2999861.53947   2339807.94944
                  23642854.0864                                   23642847.1454
                                                                        42.5004
        27.2504
   -473022.74648   -339858.84846
                  22306219.1954                                   22306214.9774
                                                                        48.5004
        36.5004
   1391787.97346   1122562.43843
                  24408502.8674                                   24408499.5514
                                                                        40.0004
        23.7504
 09 10 30 23 27 30.0000000  0  9G02G04G05G10G13G16G23G29G07
   1486250.87148   1171471.32846
                  20840153.1564                                   20840146.9574
                                                                        51.7504
        41.5004
   3307722.13347   2577206.70745
                  23172683.2664                                   23172679.9064
                                                                        45.7504
        32.0004
  -1881680.43448  -1428883.66046
                  22078541.8364                                   22078536.9414
                                                                        50.0004
        39.0004
  -1479242.27748  -1119692.32046
                  21292849.2424                                   21292845.3054
                                                                        51.0004
        39.7504
   1220668.12948    964521.11745
                  21489848.2424                                   21489843.0514
                                                                        49.0004
        35.5004
   -202942.21946   -123440.64143
                  24219745.8914                                   24219740.5044
                                                                        38.7504
        21.0004
   3003237.93447   2342438.89844
                  23643496.0944                                   23643489.5314
                                                                        42.5004
        26.2504
   -598768.79748   -437842.83246
                  22282290.5554                                   22282286.5984
                                                                        48.2504
        36.7504
   1204044.59046    976268.81343
                  24372776.3594                                   24372772.1524
                                                                        38.2504
        22.5004
 09 10 30 23 28  0.0000000  0  9G02G04G05G10G13G16G23G29G07
   1437575.56648   1133542.54347
                  20830890.4304                                   20830884.4534
                                                                        51.5004
        42.0004
   3321400.06647   2587864.70345
                  23175286.3444                                   23175282.6024
                                                                        44.7504
        31.5004
  -2056676.62548  -1565244.32846
                  22045240.7194                                   22045236.1024
                                                                        49.2504
        39.2504
  -1637957.90648  -1243366.75446
                  21262646.7034                                   21262642.1764
                                                                        51.0004
        40.0004
   1163376.75448    919878.50845
                  21478945.8524                                   21478941.0394
                                                                        48.5004
        35.2504
   -352228.78946   -239767.84443
                  24191337.2504                                   24191332.2384
                                                                        39.0004
        22.0004
   3007168.47747   2345501.62943
                  23644243.9924                                   23644237.4844
                                                                        42.5004
        23.2504
   -723718.07048   -535205.91445
                  22258513.1644                                   22258509.4384
                                                                        48.0004
        35.5004
   1016795.27047    830359.98043
                  24337144.6644                                   24337139.5234
                                                                        42.2504
        22.7504
 09 10 30 23 28 30.0000000  0  9G02G04G05G10G13G16G23G29G07
   1389670.53948   1096213.94546
                  20821774.5394                                   20821768.2704
                                                                        51.5004
        41.7504
   3335532.62547   2598876.82845
                  23177975.6804                                   23177972.1564
                                                                        46.2504
        30.7504
  -2231095.45348  -1701155.04746
                  22012049.7194                                   22012045.6684
                                                                        49.2504
        38.7504
  -1795984.83248  -1366504.62146
                  21232575.3134                                   21232571.2384
                                                                        50.0004
        39.2504
   1106930.52048    875894.43845
                  21468204.4454                                   21468199.3794
                                                                        48.5004
        35.5004
   -500793.65246   -355532.68043
                  24163065.1254                                   24163061.0164
                                                                        39.0004
        22.0004
   3011647.51647   2348991.79743
                  23645096.2814                                   23645089.4574
                                                                        43.0004
        23.0004
   -847872.60547   -631949.68046
                  22234887.6954                                   22234883.6134
                                                                        47.2504
        36.5004
    830040.37147    684836.80144
                  24301606.9924                                   24301601.2664
                                                                        42.5004
        24.0004
 09 10 30 23 29  0.0000000  0  9G02G04G05G10G13G16G23G29G07
   1342523.56648   1059476.02746
                  20812802.8054                                   20812796.6454
                                                                        52.5004
        41.7504
   3350107.36347   2610233.82445
                  23180749.1564                                   23180745.4304
                                                                        45.7504
        30.5004
  -2404946.51248  -1836623.34446
                  21978967.1484                                   21978962.8244
                                                                        49.7504
        39.5004
  -1953332.59848  -1489113.25446
                  21202632.4924                                   21202628.5354
                                                                        50.0004
        39.7504
   1051316.82048    832559.11745
                  21457621.8204                                   21457616.7854
                                                                        49.7504
        35.2504
   -648645.34446   -470741.77043
                  24134930.6804                                   24134925.9654
                                                                        38.2504
        21.5004
   3016661.14847   2352898.50844
                  23646051.1414                                   23646043.7584
                                                                        43.2504
        25.2504
   -971242.49248   -728082.05546
                  22211410.7974                                   22211407.2734
                                                                        48.0004
        36.5004
    643771.02747    539691.81644
                  24266161.1094                                   24266155.8594
                                                                        42.0004
        24.7504
 09 10 30 23 29 30.0000000  0  9G02G04G05G10G13G16G23G29G07
   1296128.90648   1023324.29746
                  20803974.0394                                   20803967.9614
                                                                        52.2504
        41.7504
   3365116.71547   2621929.48445
                  23183605.4614                                   23183601.3594
                                                                        46.0004
        30.7504
  -2578232.91848  -1971651.72346
                  21945991.4614                                   21945987.3404
                                                                        50.0004
        39.5004
  -2110004.09448  -1611194.88346
                  21172819.0234                                   21172815.0944
                                                                        51.0004
        40.2504
    996529.04348    789867.37145
                  21447196.2344                                   21447191.0394
                                                                        50.0004
        35.7504
   -795786.79346   -585397.44143
                  24106930.8674                                   24106925.6174
                                                                        39.2504
        21.5004
   3022201.75447   2357215.84844
                  23647104.9844                                   23647097.8754
                                                                        43.7504
        24.2504
  -1093831.19147   -823605.70346
                  22188083.2664                                   22188079.5864
                                                                        47.5004
        36.7504
    457985.90647    394924.32044
                  24230806.7734                                   24230802.9064
                                                                        43.7504
        26.2504
 09 10 30 23 30  0.0000000  0  9G02G04G05G10G13G16G23G29G07
   1250479.68048    987753.47346
                  20795287.6094                                   20795281.2154
                                                                        52.7504
        41.5004
   3380552.62147   2633957.39845
                  23186542.4064                                   23186538.7854
                                                                        46.7504
        30.7504
  -2750958.32448  -2106242.97746
                  21913122.9774                                   21913118.6724
                                                                        50.2504
        39.0004
  -2266003.58248  -1732752.92246
                  21143133.6804                                   21143129.3404
                                                                        50.7504
        39.5004
    942560.29748    747813.81646
                  21436926.3444                                   21436921.0744
                                                                        50.2504
        36.0004
   -942221.75046   -699502.59043
                  24079065.5394                                   24079060.2274
                                                                        39.5004
        21.5004
   3028261.06647   2361937.43044
                  23648258.7344                                   23648250.9144
                                                                        44.5004
        25.0004
  -1215643.29347   -918524.21546
                  22164903.1174                                   22164899.2234
                                                                        47.5004
        37.2504
    272681.94147    250531.84044
                  24195544.6954                                   24195540.7034
                                                                        43.2504
        27.5004
 09 10 30 23 30 30.0000000  0  9G02G04G05G10G13G16G23G29G07
   1205568.02748    952757.38346
                  20786741.2974                                   20786734.9344
                                                                        52.0004
        41.5004
   3396406.47347   2646310.89845
                  23189560.2034                                   23189555.8834
                                                                        46.5004
        31.7504
  -2923127.64148  -2240400.90646
                  21880360.6484                                   21880356.4224
                                                                        50.5004
        39.2504
  -2421336.03948  -1853791.21146
                  21113575.0234                                   21113570.9304
                                                                        51.5004
        40.7504
    889402.60248    706392.26245
                  21426810.5004                                   21426805.7034
