     2.11           OBSERVATION DATA    G (GPS)             RINEX VERSION / TYPE
teqc  2019Feb25                         20221121 12:28:09UTCPGM / RUN BY / DATE
OSX ker:10.11.6|Core i5|gcc 4.3 -m64|OSX ker:10.10+|=+      COMMENT
BIT 2 OF LLI FLAGS DATA COLLECTED UNDER A/S CONDITION       COMMENT
04712820                                                    MARKER NAME
2820                                                        MARKER NUMBER
-Unknown-           -Unknown-                               OBSERVER / AGENCY
0220400471          TRIMBLE R7          2.30                REC # / TYPE / VERS
-Unknown-           TRM39105.00     NONE                    ANT # / TYPE
  1449459.6639 -1709239.9863  5952441.1157                  APPROX POSITION XYZ
        0.0000        0.0000        0.0000                  ANTENNA: DELTA H/E/N
     1     1                                                WAVELENGTH FACT L1/2
    20    L1    L2    L5    L6    L7    L8    C1    P1    C2# / TYPES OF OBSERV
          P2    C5    C6    C7    C8    S1    S2    S5    S6# / TYPES OF OBSERV
          S7    S8                                          # / TYPES OF OBSERV
    30.0000                                                 INTERVAL
    15                                                      LEAP SECONDS
Forced Modulo Decimation to 30 seconds                      COMMENT
 SNR is mapped to RINEX snr flag value [0-9]                COMMENT
  L1 & L2: min(max(int(snr_dBHz/6), 0), 9)                  COMMENT
teqc edited: Beidou # 1 - 37 excluded                       COMMENT
  2009    10     9     0     0    0.0000000     GPS         TIME OF FIRST OBS
                                                            END OF HEADER
 09 10  9  0  0  0.0000000  0  9G02G04G05G13G31G29G23G30G10
 -14586407.99648 -11325135.54347
                  20478721.6334                                   20478716.3984
                                                                        53.0004
        43.5004
  -6129786.17648  -4755555.10546
                  21069240.9844                                   21069237.8834
                                                                        52.2504
        40.5004
   -721812.18047   -517713.71944
                  24223324.9454                                   24223321.5784
                                                                        45.2504
        28.5004
 -16807883.47748 -13048206.04746
                  21433990.3204                                   21433986.9924
                                                                        52.0004
        36.5004
  -4495505.17246  -3498651.74644
                  24191698.0944                                   24191695.3204
                                                                        40.0004
        28.2504
  -8153823.04747  -6314651.04345
                  23587656.7034                                   23587654.6914
                                                                        43.5004
        30.0004
  -8521527.48048  -6610952.78945
                  21991711.8364                                   21991706.0784
                                                                        49.5004
        34.0004
  -5444188.06247  -4223284.16844
                  23187800.0234                                   23187797.7774
                                                                        42.2504
        28.2504
  -6851769.94547  -5322386.66045
                  23388766.3134                                   23388764.3594
                                                                        42.5004
        30.2504
 09 10  9  0  0 30.0000000  0  9G02G04G05G13G31G29G23G30G10
 -14705433.66848 -11417882.82047
                  20456071.9064                                   20456066.2384
                                                                        52.5004
        43.2504
  -6165227.99248  -4783172.09446
                  21062496.7424                                   21062493.8484
                                                                        53.2504
        41.0004
   -931390.72747   -681021.62544
                  24183443.1094                                   24183440.0744
                                                                        43.7504
        28.5004
 -16946589.31648 -13156288.47746
                  21407595.5864                                   21407591.8794
                                                                        51.0004
        36.7504
  -4529507.11347  -3525146.75044
                  24185228.5474                                   24185224.4304
                                                                        42.7504
        27.5004
  -8339512.65247  -6459344.17645
                  23552321.7974                                   23552319.5664
                                                                        44.7504
        30.5004
  -8575423.69948  -6652949.83245
                  21981455.6024                                   21981449.8984
                                                                        49.2504
        34.5004
  -5469272.16847  -4242830.21144
                  23183026.9614                                   23183024.3164
                                                                        43.2504
        26.7504
  -7059873.85547  -5484545.53144
                  23349165.1564                                   23349162.8094
                                                                        43.0004
        29.5004
 09 10  9  0  1  0.0000000  0  9G02G04G05G13G31G29G23G30G10
 -14823906.55148 -11510199.34047
                  20433527.1564                                   20433521.9264
                                                                        52.7504
        43.7504
  -6200199.57048  -4810422.66446
                  21055841.6884                                   21055838.6374
                                                                        53.7504
        41.7504
  -1140845.00047   -844232.71944
                  24143585.3524                                   24143582.1884
                                                                        42.0004
        27.7504
 -17084675.88348 -13263888.36346
                  21381318.4844                                   21381314.9614
                                                                        51.2504
        37.0004
  -4563038.17647  -3551274.81644
                  24178847.3444                                   24178843.3674
                                                                        43.0004
        27.2504
  -8524871.18447  -6603779.37145
                  23517048.9224                                   23517046.4574
                                                                        45.5004
        30.5004
  -8628740.04348  -6694495.01245
                  21971310.0704                                   21971304.4184
                                                                        49.5004
        34.0004
  -5493848.22747  -4261980.38744
                  23178350.1174                                   23178347.3634
                                                                        44.0004
        26.7504
  -7267771.68747  -5646543.85544
                  23309604.2894                                   23309601.1954
                                                                        45.2504
        29.7504
 09 10  9  0  1 30.0000000  0  9G02G04G05G13G31G29G23G30G10
 -14941829.26648 -11602087.16447
                  20411086.9064                                   20411081.6254
                                                                        53.5004
        43.7504
  -6234705.56648  -4837310.44946
                  21049275.3284                                   21049272.6884
                                                                        52.7504
        41.0004
  -1350176.35246  -1007348.01244
                  24103750.2274                                   24103747.7704
                                                                        40.5004
        26.7504
 -17222144.10548 -13371006.44546
                  21355159.5084                                   21355155.5084
                                                                        51.2504
        36.0004
  -4596102.96546  -3577039.57044
                  24172555.3134                                   24172552.0004
                                                                        40.7504
        26.5004
  -8709898.65647  -6747956.60545
                  23481839.6024                                   23481836.6604
                                                                        45.7504
        30.5004
  -8681480.69948  -6735591.62945
                  21961274.0004                                   21961268.0004
                                                                        49.5004
        33.7504
  -5517922.18047  -4280739.32044
                  23173769.2034                                   23173766.3054
                                                                        44.5004
        26.0004
  -7475464.84447  -5808382.72745
                  23270082.3754                                   23270078.5904
                                                                        46.0004
        30.5004
 09 10  9  0  2  0.0000000  0  9G02G04G05G13G31G29G23G30G10
 -15059195.78148 -11693541.59047
                  20388753.0784                                   20388747.8244
                                                                        53.0004
        43.2504
  -6268743.28948  -4863833.35246
                  21042798.2034                                   21042795.6094
                                                                        52.5004
        41.0004
  -1559377.96546  -1170362.13744
                  24063940.8444                                   24063938.9414
                                                                        41.2504
        29.2504
 -17358988.28948 -13477638.23846
                  21329118.6414                                   21329114.6994
                                                                        51.2504
        36.0004
  -4628699.02346  -3602439.08644
                  24166352.0864                                   24166348.8094
                                                                        40.0004
        27.0004
  -8894588.13747  -6891870.47344
                  23446694.1414                                   23446690.9844
                                                                        45.2504
        29.2504
  -8733642.84448  -6776237.43445
                  21951347.3984                                   21951341.6254
                                                                        50.0004
        34.0004
  -5541492.00847  -4299105.41844
                  23169284.1884                                   23169281.5474
                                                                        43.7504
        27.5004
  -7682946.10947  -5970056.48845
                  23230598.8594                                   23230595.9774
                                                                        47.0004
        30.0004
 09 10  9  0  2 30.0000000  0  9G02G04G05G13G31G29G23G30G10
 -15176004.90648 -11784561.68447
                  20366525.1334                                   20366519.9574
                                                                        52.7504
        43.2504
  -6302313.53148  -4889991.98046
                  21036410.1564                                   21036406.8204
                                                                        53.0004
        40.5004
  -1768447.87947  -1333273.69145
                  24024156.3524                                   24024153.8714
                                                                        43.5004
        31.5004
 -17495206.54748 -13583782.32846
                  21303197.1564                                   21303193.4734
                                                                        51.0004
        36.7504
  -4660828.45746  -3627475.05144
                  24160237.3444                                   24160234.7194
                                                                        41.0004
        24.5004
  -9078936.99247  -7035518.93044
                  23411613.6484                                   23411610.5274
                                                                        44.0004
        28.0004
  -8785227.43048  -6816433.21545
                  21941531.2194                                   21941526.0314
                                                                        49.7504
        34.5004
  -5564560.44547  -4317080.79744
                  23164894.6174                                   23164891.8954
                                                                        45.0004
        29.5004
  -7890212.94547  -6131563.16044
                  23191156.8754                                   23191154.6024
                                                                        45.0004
        29.5004
 09 10  9  0  3  0.0000000  0  9G02G04G05G13G31G29G23G30G10
 -13716825.43048 -10647538.64847
                  20644197.6174                                   20644192.4694
                                                                        52.5004
        43.5004
  -4759990.53548  -3688181.84046
                  21329904.3284                                   21329901.5434
                                                                        52.7504
        40.2504
   -401950.39147   -268470.39545
                  24284192.4454                                   24284189.1294
                                                                        43.7504
        31.0004
 -16055366.45748 -12461828.99646
                  21577189.5004                                   21577185.7544
                                                                        51.7504
        37.0004
  -3117065.98446  -2424543.27044
                  24454006.5004                                   24454002.9064
                                                                        41.7504
        25.0004
  -7687509.91047  -5951290.03144
                  23676393.8524                                   23676390.5314
                                                                        44.7504
        29.7504
  -7260808.01248  -5628573.92645
                  22231618.7034                                   22231612.6644
                                                                        49.2504
        33.7504
  -4011702.97747  -3107062.01644
                  23460393.7034                                   23460391.1914
                                                                        45.0004
        29.0004
  -6521829.77347  -5065290.55544
                  23451551.8834                                   23451549.6644
                                                                        43.5004
        29.2504
 09 10  9  0  3 30.0000000  0  9G02G04G05G13G31G29G23G30G10
 -13832509.91448 -10737682.37947
                  20622183.6884                                   20622178.2234
                                                                        52.5004
        43.5004
  -4792623.92248  -3713610.46146
                  21323694.3284                                   21323691.4614
                                                                        51.5004
        40.5004
   -610743.35247   -431166.16845
                  24244460.6094                                   24244457.0634
                                                                        43.7504
        30.7504
 -16190321.02748 -12566988.38346
                  21551508.5164                                   21551504.9454
                                                                        51.0004
        36.7504
  -3148261.44547  -2448851.42244
                  24448070.5004                                   24448066.9264
                                                                        42.0004
        26.0004
  -7871162.34447  -6094395.80545
                  23641445.6334                                   23641443.0314
                                                                        44.2504
        31.0004
  -7311235.33648  -5667867.93045
                  22222022.8204                                   22222016.7814
                                                                        48.7504
        33.2504
  -4033769.57447  -3124256.77744
                  23456194.6884                                   23456191.9024
                                                                        44.0004
        29.0004
  -6728653.71547  -5226452.05145
                  23412194.9454                                   23412192.5084
                                                                        45.0004
        30.5004
 09 10  9  0  4  0.0000000  0  9G02G04G05G13G31G29G23G30G10
 -13947626.75448 -10827383.78947
                  20600277.3444                                   20600271.8914
                                                                        51.7504
        43.5004
  -4824787.67248  -3738673.12146
                  21317573.9304                                   21317571.0634
                                                                        52.7504
        40.5004
   -819391.32847   -593749.00044
                  24204755.5554                                   24204752.6524
                                                                        42.5004
        29.0004
 -16324638.12148 -12671651.01246
                  21525948.8524                                   21525945.1524
                                                                        51.5004
        37.0004
  -3178989.22347  -2472795.10944
                  24442223.1024                                   24442218.9384
                                                                        43.2504
        25.2504
  -8054459.05147  -6237224.38345
                  23606565.3204                                   23606563.4844
                                                                        44.7504
        31.0004
  -7361082.60948  -5706709.94945
                  22212537.0864                                   22212531.0354
                                                                        49.2504
        33.5004
  -4055335.45747  -3141061.39544
                  23452090.6024                                   23452087.8794
                                                                        44.7504
        28.5004
  -6935249.41447  -5387435.74645
                  23372880.9454                                   23372878.4454
                                                                        45.0004
        31.2504
 09 10  9  0  4 30.0000000  0  9G02G04G05G13G31G29G23G30G10
 -14062175.79748 -10916642.77047
                  20578479.5864                                   20578473.8364
                                                                        52.0004
        43.7504
  -4856483.59448  -3763371.25046
                  21311542.3984                                   21311539.4064
                                                                        52.2504
        40.7504
  -1027892.46946   -756217.41844
                  24165078.7504                                   24165075.3134
                                                                        40.2504
        26.0004
 -16458316.64848 -12775816.05946
                  21500510.3754                                   21500506.9884
                                                                        51.2504
        36.7504
  -3209252.15247  -2496376.55943
                  24436464.6334                                   24436458.9844
                                                                        43.2504
        22.2504
  -8237397.94547  -6379774.12545
                  23571753.3134                                   23571750.7344
                                                                        44.0004
        30.7504
  -7410351.95348  -5745101.62945
                  22203161.5474                                   22203155.7624
                                                                        49.2504
        33.5004
  -4076403.82847  -3157478.32044
                  23448081.2424                                   23448078.8054
                                                                        42.5004
        27.5004
  -7141615.05147  -5548240.15645
                  23333611.1884                                   23333608.3484
                                                                        43.5004
        30.0004
 09 10  9  0  5  0.0000000  0  9G02G04G05G13G31G29G23G30G10
 -14176157.41048 -11005459.59047
                  20556789.6564                                   20556784.3984
                                                                        52.2504
        43.7504
  -4887714.59048  -3787707.10546
                  21305599.3594                                   21305596.3954
                                                                        52.0004
        40.0004
  -1236245.95746   -918570.75444
                  24125429.9924                                   24125427.8874
                                                                        41.2504
        27.2504
 -16591356.64548 -12879483.55146
                  21475194.0164                                   21475189.8874
                                                                        51.7504
        37.0004
  -3239053.97747  -2519598.70744
                  24430793.0634                                   24430787.6414
                                                                        43.5004
        25.2504
  -8419977.93047  -6522044.23045
                  23537009.5784                                   23537006.9224
                                                                        44.0004
        30.5004
  -7459046.07448  -5783045.09045
                  22193895.2974                                   22193889.9534
                                                                        48.5004
        33.5004
  -4096978.77046  -3173510.76244
                  23444165.6174                                   23444163.4804
                                                                        41.2504
        27.2504
  -7347749.42247  -5708864.42245
                  23294384.9774                                   23294382.3324
                                                                        44.2504
        30.7504
 09 10  9  0  5 30.0000000  0  9G02G04G05G13G31G29G23G30G10
 -14289573.87948 -11093836.06247
                  20535207.3134                                   20535201.5944
                                                                        52.7504
        43.5004
  -4918485.51248  -3811684.44546
                  21299743.4224                                   21299740.4654
                                                                        51.5004
        40.5004
  -1444453.09847  -1080810.10245
                  24085810.1884                                   24085807.3794
                                                                        43.7504
        30.5004
 -16723759.80548 -12982654.82846
                  21449998.5634                                   21449994.8094
                                                                        51.5004
        36.5004
  -3268399.80547  -2542465.56644
                  24425209.0784                                   24425204.6214
                                                                        43.5004
        24.0004
  -8602199.52347  -6664035.06645
                  23502333.8524                                   23502331.0164
                                                                        43.5004
        30.0004
  -7507170.14848  -5820544.34045
                  22184737.8134                                   22184731.1954
                                                                        48.5004
        34.0004
  -4117066.41046  -3189163.46544
                  23440342.9304                                   23440340.5314
                                                                        41.2504
        26.2504
  -7553653.90647  -5869309.53144
                  23255202.2974                                   23255199.9774
                                                                        44.0004
        29.5004
 09 10  9  0  6  0.0000000  0  9G02G04G05G13G31G29G23G30G10
 -14402424.08248 -11181771.29347
                  20513732.7034                                   20513727.1054
                                                                        53.0004
        43.7504
  -4948797.97348  -3835304.54746
                  21293975.4064                                   21293972.6524
                                                                        51.5004
        40.2504
  -1652512.40247  -1242934.27045
                  24046218.3444                                   24046215.3014
                                                                        43.0004
        31.5004
 -16855524.68748 -13085328.73446
                  21424924.3834                                   21424920.9654
                                                                        51.7504
        36.5004
  -3297291.70747  -2564978.73444
                  24419710.4924                                   24419707.0744
                                                                        42.2504
        25.7504
  -8784059.74647  -6805744.32845
                  23467727.0394                                   23467724.1994
                                                                        43.7504
        31.2504
  -7554725.32848  -5857600.30145
                  22175688.2664                                   22175682.2504
                                                                        49.0004
        33.5004
  -4136669.32447  -3204438.46544
                  23436613.0784                                   23436610.6134
                                                                        43.2504
        27.0004
  -7759325.64847  -6029573.21945
                  23216064.6334                                   23216061.9384
                                                                        43.2504
        30.2504
 09 10  9  0  6 30.0000000  0  9G02G04G05G13G31G29G23G30G10
 -14514702.72348 -11269261.13347
                  20492366.5474                                   20492361.1414
                                                                        52.7504
        43.7504
  -4978648.75848  -3858564.90246
                  21288295.1024                                   21288292.0164
                                                                        52.0004
        41.0004
  -1860416.67247  -1404937.63345
                  24006655.4384                                   24006652.6334
                                                                        44.2504
        32.5004
 -16986645.10948 -13187500.47346
                  21399973.0004                                   21399968.9844
                                                                        51.5004
        37.0004
  -3325727.37547  -2587136.40244
                  24414300.2424                                   24414296.2344
                                                                        42.0004
        26.0004
  -8965551.87947  -6947166.77044
                  23433189.6954                                   23433187.2464
                                                                        43.0004
        29.7504
  -7601708.63748  -5894210.67645
                  22166747.1644                                   22166741.6024
                                                                        50.0004
        33.2504
  -4155785.73047  -3219334.37544
                  23432975.4064                                   23432972.7584
                                                                        43.2504
        27.7504
  -7964758.02747  -6189650.39845
                  23176972.2584                                   23176969.7424
                                                                        44.0004
        31.0004
 09 10  9  0  7  0.0000000  0  9G02G04G05G13G31G29G23G30G10
 -14626411.22348 -11356306.71147
                  20471109.1254                                   20471103.6374
                                                                        52.5004
        43.5004
  -5008042.11748  -3881468.82446
                  21282701.3914                                   21282698.8714
                                                                        51.5004
        40.5004
  -2068166.18047  -1566820.43445
                  23967122.1564                                   23967118.7194
                                                                        43.2504
        31.7504
 -17117122.44148 -13289171.11746
                  21375143.7584                                   21375140.1214
                                                                        51.5004
        37.2504
  -3353711.39146  -2608942.16844
                  24408974.5634                                   24408971.2074
                                                                        41.7504
        26.7504
  -9146675.64847  -7088302.15245
                  23398723.4304                                   23398720.5234
                                                                        42.7504
        31.2504
  -7648124.38348  -5930378.78145
                  22157915.0004                                   22157909.2074
                                                                        49.5004
        33.0004
  -4174420.66847  -3233855.12144
                  23429429.7034                                   23429426.6994
                                                                        43.2504
        27.5004
  -8169950.87547  -6349540.92245
                  23137925.1644                                   23137922.6994
                                                                        44.5004
        31.5004
 09 10  9  0  7 30.0000000  0  9G02G04G05G13G31G29G23G30G10
 -14737541.71548 -11442901.87147
                  20449961.4304                                   20449956.2504
                                                                        52.2504
        44.0004
  -5036972.81648  -3904012.23446
                  21277196.2664                                   21277193.4534
                                                                        52.2504
        41.0004
  -2275752.18447  -1728575.79344
                  23927619.4144                                   23927616.8054
                                                                        44.0004
        29.5004
 -17246948.50848 -13390334.29346
                  21350438.8594                                   21350435.0514
                                                                        51.5004
        37.2504
  -3381239.30946  -2630392.53944
                  24403736.4384                                   24403732.7854
                                                                        41.5004
        28.2504
  -9327421.82847  -7229143.28945
                  23364328.5554                                   23364326.0394
                                                                        43.7504
        31.0004
  -7693967.22748  -5966100.46945
                  22149191.3054                                   22149185.5204
                                                                        49.5004
        34.0004
  -4192570.37547  -3247997.74244
                  23425975.2894                                   23425973.2274
                                                                        43.0004
        27.2504
  -8374895.44547  -6509237.96945
                  23098925.7274                                   23098923.4104
                                                                        45.0004
        31.5004
 09 10  9  0  8  0.0000000  0  9G02G04G05G13G31G29G23G30G10
 -14848098.09048 -11529049.68747
                  20428923.2894                                   20428918.0554
                                                                        52.2504
        43.7504
  -5065446.75848  -3926199.76646
                  21271777.7814                                   21271775.3914
                                                                        51.5004
        40.2504
  -2483176.85247  -1890205.51244
                  23888147.4694                                   23888144.9614
                                                                        42.0004
        29.5004
 -17376126.16448 -13490992.19546
                  21325857.1954                                   21325853.3874
                                                                        51.5004
        37.2504
  -3408317.71546  -2651492.62544
                  24398582.7194                                   24398579.7734
                                                                        38.0004
        25.7504
  -9507792.06247  -7369691.50445
                  23330005.3284                                   23330002.7774
                                                                        44.2504
        31.0004
  -7739243.21148  -6001380.45345
                  22140575.8134                                   22140570.0164
                                                                        49.5004
        34.0004
  -4210241.78947  -3261767.64144
                  23422612.6254                                   23422610.4574
                                                                        42.5004
        27.7504
  -8579593.44147  -6668742.89845
                  23059973.2034                                   23059970.4304
                                                                        44.2504
        32.2504
 09 10  9  0  8 30.0000000  0  9G02G04G05G13G31G29G23G30G10
 -14958081.30948 -11614750.90247
                  20407994.4304                                   20407989.4924
                                                                        53.0004
        43.7504
  -5093467.59848  -3948034.16046
                  21266445.9304                                   21266442.8284
                                                                        51.5004
        40.2504
  -2690439.77747  -2051709.12944
                  23848706.7734                                   23848703.7584
                                                                        43.2504
        28.2504
 -17504656.42248 -13591145.60946
                  21301398.6644                                   21301394.9734
                                                                        52.2504
        37.2504
  -3434950.54346  -2672245.52044
                  24393514.9224                                   24393511.5434
                                                                        39.7504
        25.5004
  -9687785.29347  -7509945.90245
                  23295753.8754                                   23295751.3324
                                                                        43.5004
        31.5004
  -7783956.45348  -6036221.94545
                  22132066.9534                                   22132061.5944
                                                                        49.5004
        34.5004
  -4227439.35547  -3275168.36344
                  23419339.8754                                   23419337.7504
                                                                        42.5004
        27.0004
  -8784044.30547  -6828055.19945
                  23021067.2194                                   23021064.6564
                                                                        46.0004
        31.5004
 09 10  9  0  9  0.0000000  0  9G02G04G05G13G31G29G23G30G10
 -15067492.88348 -11700006.66847
                  20387173.8674                                   20387168.4104
                                                                        52.5004
        43.7504
  -5121038.94948  -3969518.27746
                  21261198.9924                                   21261196.0434
                                                                        52.0004
        40.5004
  -2897541.75047  -2213087.31245
                  23809297.3364                                   23809294.0354
                                                                        45.7504
        30.5004
 -17632539.87148 -13690795.02746
                  21277063.4064                                   21277059.5744
                                                                        51.5004
        37.2504
  -3461142.40247  -2692654.77744
                  24388530.4694                                   24388527.6254
                                                                        42.2504
        26.5004
  -9867401.56247  -7649906.59045
                  23261573.9694                                   23261570.3914
                                                                        44.7504
        31.0004
  -7828110.02048  -6070627.32845
                  22123664.8284                                   22123659.1174
                                                                        49.5004
        33.5004
  -4244169.06647  -3288204.48844
                  23416156.6024                                   23416153.9384
                                                                        42.7504
        25.5004
  -8988248.55947  -6987175.39845
                  22982207.6564                                   22982205.5234
                                                                        44.7504
        31.0004
 09 10  9  0  9 30.0000000  0  9G02G04G05G13G31G29G23G30G10
 -15176332.25848 -11784816.60947
                  20366462.7034                                   20366457.5864
                                                                        53.5004
        44.0004
  -5148163.20348  -3990654.04746
                  21256037.3914                                   21256034.5634
                                                                        52.2504
        40.0004
  -3104480.77347  -2374338.56245
                  23769917.9774                                   23769914.8634
                                                                        45.2504
        31.0004
 -17759776.10948 -13789940.13746
                  21252850.7424                                   21252847.2734
                                                                        51.5004
        37.0004
  -3486895.87546  -2712722.40644
                  24383630.3754                                   24383626.8094
                                                                        41.7504
        25.7504
 -10046638.88747  -7789571.98845
                  23227465.8524                                   23227463.2194
                                                                        44.0004
        30.7504
  -7871706.47348  -6104598.57045
                  22115368.7664                                   22115362.6454
                                                                        49.7504
        33.5004
  -4260433.32047  -3300877.93744
                  23413061.5864                                   23413058.4414
                                                                        43.5004
        27.5004
  -9192203.77047  -7146101.42245
                  22943396.3914                                   22943394.1684
                                                                        44.0004
        30.5004
 09 10  9  0 10  0.0000000  0  9G02G04G05G13G31G29G23G30G10
 -15284598.36748 -11869179.82447
                  20345860.4384                                   20345854.9654
                                                                        53.2504
        44.0004
  -5174841.35548  -4011442.22346
                  21250960.8754                                   21250957.9804
                                                                        51.0004
        41.0004
  -3311254.47747  -2535460.94545
                  23730569.8134                                   23730567.2934
                                                                        44.5004
        31.2504
 -17886363.24648 -13888579.44146
                  21228762.2114                                   21228758.4414
                                                                        51.0004
        37.0004
  -3512213.00446  -2732450.00844
                  24378812.5084                                   24378808.9104
                                                                        41.5004
        25.5004
 -10225494.21547  -7928939.71545
                  23193430.7814                                   23193428.2664
                                                                        42.7504
        31.5004
  -7914746.87948  -6138136.54745
                  22107178.4384                                   22107172.6174
                                                                        49.5004
        33.5004
  -4276235.10547  -3313191.01244
                  23410054.7734                                   23410051.7934
                                                                        43.2504
        27.7504
  -9395907.87147  -7304831.85945
                  22904633.3984                                   22904630.6454
                                                                        45.5004
        31.0004
 09 10  9  0 10 30.0000000  0  9G02G04G05G13G31G29G23G30G10
 -15392288.85948 -11953094.48047
                  20325367.2424                                   20325362.1454
                                                                        52.7504
        44.2504
  -5201074.03948  -4031883.27746
                  21245968.8444                                   21245965.9774
                                                                        50.5004
        39.5004
  -3517859.56247  -2696451.94145
                  23691254.3984                                   23691252.2274
                                                                        43.5004
        31.0004
 -18012299.23448 -13986711.40246
                  21204797.5944                                   21204793.6454
                                                                        51.0004
        37.2504
  -3537094.60247  -2751838.25444
                  24374077.9384                                   24374073.9844
                                                                        42.2504
        25.0004
 -10403963.43747  -8068006.60545
                  23159469.2424                                   23159466.0554
                                                                        42.7504
        30.5004
  -7957231.77748  -6171241.64145
                  22099093.5394                                   22099087.7114
                                                                        49.0004
        33.0004
  -4291575.13347  -3325144.25444
                  23407135.3594                                   23407132.7544
                                                                        44.0004
        27.2504
  -9599356.47747  -7463363.13745
                  22865918.3674                                   22865915.6644
                                                                        46.5004
        32.5004
 09 10  9  0 11  0.0000000  0  9G02G04G05G13G31G29G23G30G10
 -13923977.63348 -10808955.87147
                  20604777.7034                                   20604772.3094
                                                                        53.0004
        43.5004
  -3651439.96548  -2824376.23046
                  21540854.6414                                   21540851.5744
                                                                        50.2504
        40.0004
  -2148865.28147  -1629703.15245
                  23951765.4924                                   23951762.9024
                                                                        43.5004
        30.5004
 -16562156.19548 -12856729.76246
                  21480750.1254                                   21480746.5744
                                                                        50.5004
        36.7504
  -1986120.61746  -1543287.07443
                  24669218.5314                                   24669214.2234
                                                                        40.5004
        23.0004
  -9006616.66047  -6979164.94145
                  23425375.8134                                   23425372.2814
                                                                        44.5004
        31.7504
  -6423739.94548  -4976312.93045
                  22390907.2814                                   22390901.4454
                                                                        48.5004
        33.7504
  -2731034.41447  -2109138.49244
                  23704097.0084                                   23704094.3954
                                                                        42.0004
        26.0004
  -8227119.50847  -6394087.55545
                  23127046.1564                                   23127043.8554
                                                                        46.0004
        32.0004
 09 10  9  0 11 30.0000000  0  9G02G04G05G13G31G29G23G30G10
 -14030507.80148 -10891966.39847
                  20584505.8134                                   20584500.4804
                                                                        53.2504
        43.7504
  -3676778.95748  -2844120.91846
                  21536032.5864                                   21536030.0784
                                                                        50.2504
        39.5004
  -2355119.37147  -1790420.62945
                  23912516.2424                                   23912514.2464
                                                                        42.5004
        30.0004
 -16686777.94548 -12953837.59046
                  21457035.4224                                   21457031.5274
                                                                        51.2504
        36.7504
  -2010130.80547  -1561996.26243
                  24664649.4844                                   24664644.8524
                                                                        42.0004
        22.7504
  -9184299.09047  -7117618.75445
                  23391563.3284                                   23391560.9104
                                                                        43.2504
        31.5004
  -6465112.12148  -5008550.96545
                  22383034.7114                                   22383028.5314
                                                                        49.5004
        32.5004
  -2745452.84847  -2120373.65244
                  23701352.5864                                   23701350.4574
                                                                        42.7504
        27.0004
  -8430043.80547  -6552210.28545
                  23088430.9614                                   23088428.2934
                                                                        44.5004
        31.5004
 09 10  9  0 12  0.0000000  0  9G02G04G05G13G31G29G23G30G10
 -14136458.09848 -10974525.06247
                  20564344.2114                                   20564338.6994
                                                                        52.5004
        44.0004
  -3701674.89848  -2863520.35246
                  21531295.3444                                   21531292.5824
                                                                        50.2504
        40.5004
  -2561196.07847  -1950999.89545
                  23873301.6174                                   23873298.8284
                                                                        44.5004
        31.0004
 -16810742.52048 -13050433.31646
                  21433446.1024                                   21433441.9964
                                                                        51.2504
        36.7504
  -2033710.28946  -1580369.87543
                  24660161.6644                                   24660157.6214
                                                                        39.5004
        21.5004
  -9361585.54747  -7255764.00445
                  23357826.8914                                   23357824.3674
                                                                        44.2504
        31.5004
  -6505932.05548  -5040358.68745
                  22375266.6564                                   22375260.8984
                                                                        49.5004
        33.0004
  -2759416.51646  -2131254.43444
                  23698695.5394                                   23698693.3674
                                                                        41.7504
        27.0004
  -8632704.01247  -6710127.31245
                  23049865.7424                                   23049863.1994
                                                                        45.5004
        31.2504
 09 10  9  0 12 30.0000000  0  9G02G04G05G13G31G29G23G30G10
 -14241827.94548 -11056631.43747
                  20544292.9064                                   20544287.6954
                                                                        52.5004
        43.7504
  -3726129.44548  -2882575.83246
                  21526641.4064                                   21526638.6954
                                                                        50.7504
        40.0004
  -2767093.98447  -2111439.83245
                  23834120.5474                                   23834117.4494
                                                                        44.2504
        31.0004
 -16934048.89548 -13146516.18046
                  21409981.3524                                   21409977.5944
                                                                        51.2504
        36.2504
  -2056861.14146  -1598409.53143
                  24655755.0164                                   24655752.3524
                                                                        36.0004
        20.5004
  -9538474.27047  -7393599.35245
                  23324166.7424                                   23324163.3594
                                                                        43.5004
        31.7504
  -6546201.10948  -5071737.17645
                  22367603.9924                                   22367598.1294
                                                                        48.5004
        32.5004
  -2772928.73847  -2141783.46144
                  23696123.9694                                   23696122.4024
                                                                        42.2504
        28.0004
  -8835097.90247  -6867836.77345
                  23011351.5164                                   23011349.0474
                                                                        44.2504
        31.5004
 09 10  9  0 13  0.0000000  0  9G02G04G05G13G31G29G23G30G10
 -14346617.66048 -11138285.76247
                  20524352.2034                                   20524346.7814
                                                                        53.0004
        43.7504
  -3750146.15248  -2901290.15246
                  21522071.4304                                   21522068.4924
                                                                        50.0004
        40.0004
  -2972811.65647  -2271739.37145
                  23794973.9384                                   23794970.7114
                                                                        44.5004
        32.0004
 -17056697.40648 -13242086.45746
                  21386642.0314                                   21386638.6054
                                                                        50.7504
        37.2504
  -2079587.05546  -1616118.02343
                  24651431.9844                                   24651428.0354
                                                                        38.5004
        22.5004
  -9714963.28947  -7531123.23445
                  23290582.1254                                   23290578.8094
                                                                        44.0004
        32.2504
  -6585923.20348  -5102689.46545
                  22360044.9064                                   22360038.5314
                                                                        49.0004
        32.2504
  -2785992.67747  -2151963.15544
                  23693638.0864                                   23693635.7774
                                                                        42.7504
        28.0004
  -9037223.69547  -7025337.33245
                  22972888.3524                                   22972886.0274
                                                                        46.0004
        33.0004
 09 10  9  0 13 30.0000000  0 10G02G04G05G13G31G29G23G30G10G25
 -14450832.08248 -11219491.80147
                  20504520.6564                                   20504515.7734
                                                                        53.0004
        43.7504
  -3773731.11348  -2919668.05546
                  21517583.4224                                   21517580.3594
                                                                        50.5004
        39.7504
  -3178352.05947  -2431900.71945
                  23755860.7424                                   23755858.2114
                                                                        44.2504
        32.0004
 -17178692.10248 -13337147.23046
                  21363427.4064                                   21363423.7584
                                                                        51.0004
        37.2504
  -2101895.71146  -1633501.41044
                  24647187.6414                                   24647183.3794
                                                                        41.5004
        25.5004
  -9891055.16447  -7668337.60245
                  23257072.0864                                   23257069.6564
                                                                        44.5004
        32.2504
  -6625104.66448  -5133220.49245
                  22352588.6724                                   22352583.2894
                                                                        48.2504
        31.7504
  -2798617.12547  -2161800.40244
                  23691236.5314                                   23691233.5594
                                                                        43.5004
        28.0004
  -9239084.84447  -7182631.70345
                  22934475.5944                                   22934472.8444
                                                                        45.7504
        33.0004
   2884372.78556   2287010.46953
                  24262685.9774                                   24262682.6884
                                                                        40.2504
        19.2504
 09 10  9  0 14  0.0000000  0 10G02G04G05G13G31G29G23G30G10G25
 -14554474.88748 -11300252.42647
                  20484798.0864                                   20484792.8594
                                                                        52.7504
        44.0004
  -3796891.23448  -2937714.90246
                  21513175.6564                                   21513173.0554
                                                                        49.0004
        39.0004
  -3383718.26647  -2591926.34845
                  23716780.5554                                   23716778.0474
                                                                        43.7504
        31.7504
 -17300036.46148 -13431701.17246
                  21340336.2664                                   21340332.3244
                                                                        51.5004
        36.7504
  -2123794.19146  -1650565.14144
                  24643020.6174                                   24643016.0554
                                                                        40.2504
        26.7504
 -10066752.32447  -7805244.48445
                  23223638.6094                                   23223635.4574
                                                                        45.0004
        32.2504
  -6663751.63748  -5163335.02045
                  22345234.6174                                   22345229.2344
                                                                        49.2504
        33.0004
  -2810809.80547  -2171301.19944
                  23688915.9844                                   23688913.0984
                                                                        45.0004
        26.7504
  -9440683.59047  -7339721.62945
                  22896112.5394                                   22896108.9734
                                                                        46.0004
        31.0004
   2699667.80546   2143084.55543
                  24227537.1254                                   24227534.3524
                                                                        39.0004
        19.5004
 09 10  9  0 14 30.0000000  0 10G02G04G05G13G31G29G23G30G10G25
 -14657552.37548 -11380572.55147
                  20465183.1884                                   20465178.1414
                                                                        53.0004
        43.7504
  -3819635.24248  -2955437.50046
                  21508848.3984                                   21508845.2814
                                                                        49.5004
        39.7504
  -3588915.09847  -2751819.93045
                  23677732.8754                                   23677730.0314
                                                                        43.7504
        32.0004
 -17420736.78548 -13525753.32446
                  21317367.5084                                   21317364.0044
                                                                        51.2504
        36.7504
  -2145291.62147  -1667316.39144
                  24638928.6724                                   24638925.8204
                                                                        42.0004
        28.0004
 -10242059.29747  -7941847.30545
                  23190278.6334                                   23190275.5164
                                                                        44.5004
        31.5004
  -6701874.14148  -5193040.87545
                  22337980.6094                                   22337974.3874
                                                                        48.2504
        31.7504
  -2822580.09047  -2180472.82444
