     2.11           OBSERVATION DATA    G (GPS)             RINEX VERSION / TYPE
teqc  2019Feb25                         20221121 12:28:12UTCPGM / RUN BY / DATE
OSX ker:10.11.6|Core i5|gcc 4.3 -m64|OSX ker:10.10+|=+      COMMENT
BIT 2 OF LLI FLAGS DATA COLLECTED UNDER A/S CONDITION       COMMENT
04712831                                                    MARKER NAME
2831                                                        MARKER NUMBER
-Unknown-           -Unknown-                               OBSERVER / AGENCY
0220400471          TRIMBLE R7          2.30                REC # / TYPE / VERS
-Unknown-           TRM39105.00     NONE                    ANT # / TYPE
  1449460.3137 -1709241.0913  5952441.6439                  APPROX POSITION XYZ
        0.0000        0.0000        0.0000                  ANTENNA: DELTA H/E/N
     1     1                                                WAVELENGTH FACT L1/2
    20    L1    L2    L5    L6    L7    L8    C1    P1    C2# / TYPES OF OBSERV
          P2    C5    C6    C7    C8    S1    S2    S5    S6# / TYPES OF OBSERV
          S7    S8                                          # / TYPES OF OBSERV
    30.0000                                                 INTERVAL
    15                                                      LEAP SECONDS
Forced Modulo Decimation to 30 seconds                      COMMENT
 SNR is mapped to RINEX snr flag value [0-9]                COMMENT
  L1 & L2: min(max(int(snr_dBHz/6), 0), 9)                  COMMENT
teqc edited: Beidou # 1 - 37 excluded                       COMMENT
  2009    10    10    23    10    0.0000000     GPS         TIME OF FIRST OBS
                                                            END OF HEADER
 09 10 10 23 10  0.0000000  0  8G02G04G12G13G20G23G30G31
   -210242.34458   -112450.74656
                  21271974.2274                                   21271968.7854
                                                                        52.0004
        41.5004
   -105627.36758    -56080.21557
                  20526737.0234                                   20526733.5394
                                                                        50.7504
        42.5004
    -32581.03957    -17909.88355
                  23302154.3594                                   23302150.7384
                                                                        47.0004
        34.2504
   -239386.94957   -132616.28555
                  22569247.7814                                   22569243.9104
                                                                        46.5004
        30.2504
      9796.83657      3770.84454
                  23546608.5554                                   23546604.2584
                                                                        43.0004
        25.7504
   -139923.20758    -75455.67656
                  21809322.9224                                   21809316.8244
                                                                        49.0004
        36.2504
   -100613.29757    -54086.14155
                  22522390.7734                                   22522387.9104
                                                                        44.0004
        32.0004
   -103362.93757    -56281.74654
                  23635697.0474                                   23635693.4184
                                                                        43.7504
        29.2504
 09 10 10 23 10 30.0000000  0  8G02G04G12G13G20G23G30G31
   -375488.52548   -241214.02946
                  21240528.7034                                   21240523.2304
                                                                        51.5004
        40.7504
   -189220.68348   -121217.86947
                  20510829.7194                                   20510826.2974
                                                                        51.5004
        42.0004
    -59963.29347    -39246.71545
                  23296943.9064                                   23296939.7854
                                                                        46.5004
        34.5004
   -427222.49947   -278981.65745
                  22533503.9694                                   22533499.8634
                                                                        47.0004
        30.7504
     15313.89346      8069.79844
                  23547658.2974                                   23547653.7854
                                                                        41.5004
        25.0004
   -250427.98548   -161563.26045
                  21788294.5234                                   21788288.5704
                                                                        49.0004
        35.2504
   -180600.07247   -116413.49145
                  22507169.4844                                   22507166.5514
                                                                        47.0004
        31.5004
   -187221.05147   -121625.74944
                  23619739.4694                                   23619735.2704
                                                                        43.0004
        28.5004
 09 10 10 23 11  0.0000000  0  8G02G04G12G13G20G23G30G31
   -540575.91448   -369853.53946
                  21209113.5944                                   21209108.3244
                                                                        52.0004
        40.5004
   -272524.15648   -186129.66047
                  20494977.8204                                   20494974.3714
                                                                        52.5004
        42.0004
    -87166.63747    -60444.13745
                  23291767.3914                                   23291762.9734
                                                                        47.0004
        32.7504
   -614899.69547   -425223.65245
                  22497790.2734                                   22497786.1254
                                                                        47.0004
        30.5004
     20786.55146     12334.18843
                  23548698.3204                                   23548694.4344
                                                                        39.5004
        21.5004
   -360573.71548   -247391.11345
                  21767334.8134                                   21767328.5394
                                                                        49.2504
        35.0004
   -260190.37147   -178431.89145
                  22492024.0704                                   22492021.0474
                                                                        47.5004
        31.5004
   -270758.31647   -186719.75844
                  23603843.0784                                   23603838.9144
                                                                        43.7504
        29.2504
 09 10 10 23 11 30.0000000  0  8G02G04G12G13G20G23G30G31
   -705156.57048   -498098.24246
                  21177795.1804                                   21177789.4224
                                                                        50.7504
        41.0004
   -355191.82848   -250546.02746
                  20479246.5314                                   20479243.1724
                                                                        52.7504
        41.7504
   -113847.08247    -81234.12145
                  23286689.8284                                   23286685.8444
                                                                        46.0004
        31.7504
   -802069.01647   -571069.90645
                  22462172.9774                                   22462169.5274
                                                                        47.2504
        31.0004
     26559.04746     16832.23843
                  23549796.6414                                   23549793.0234
                                                                        36.2504
        19.0004
   -470012.92248   -332668.42245
                  21746509.0084                                   21746502.7424
                                                                        49.5004
        35.5004
   -339038.84847   -239872.25845
                  22477019.2734                                   22477016.9924
                                                                        46.5004
        31.0004
   -353628.52047   -251293.95344
                  23588073.0234                                   23588069.7894
                                                                        44.0004
        27.5004
 09 10 10 23 12  0.0000000  0  8G02G04G12G13G20G23G30G31
   -869107.14148   -625851.91446
                  21146596.3364                                   21146590.7584
                                                                        52.0004
        41.5004
   -437102.52048   -314372.55947
                  20463659.6884                                   20463656.1914
                                                                        52.5004
        42.0004
   -139885.80147   -101524.03145
                  23281734.4454                                   23281730.5474
                                                                        46.5004
        31.5004
   -988605.83647   -716423.32845
                  22426676.0634                                   22426672.1024
                                                                        47.0004
        30.7504
     32750.41046     21656.62143
                  23550975.7034                                   23550971.3754
                                                                        37.5004
        21.5004
   -578623.66448   -417300.17645
                  21725841.0394                                   21725834.8204
                                                                        49.5004
        35.2504
   -417024.85247   -300640.57045
                  22462179.5474                                   22462176.3984
                                                                        46.5004
        31.0004
   -435711.28147   -315254.57844
                  23572453.2504                                   23572449.5744
                                                                        43.2504
        28.5004
 09 10 10 23 12 30.0000000  0  8G02G04G12G13G20G23G30G31
  -1032365.18448   -753065.98446
                  21115529.6644                                   21115524.1094
                                                                        51.7504
        40.7504
   -518196.59448   -377562.77347
                  20448227.7424                                   20448224.4264
                                                                        52.5004
        42.2504
   -165224.70347   -121268.67245
                  23276912.8524                                   23276909.3404
                                                                        47.0004
        32.2504
  -1174447.56247   -861235.17245
                  22391311.8054                                   22391307.7734
                                                                        47.2504
        30.5004
     39418.62946     26852.58244
                  23552245.3364                                   23552240.7234
                                                                        39.7504
        25.5004
   -686345.31648   -501239.13345
                  21705342.0784                                   21705336.1604
                                                                        49.5004
        35.5004
   -494088.52347   -360690.14844
                  22447514.6724                                   22447512.0474
                                                                        46.5004
        29.7504
   -516946.30147   -378554.60944
                  23556994.9224                                   23556991.1024
                                                                        43.0004
        28.0004
 09 10 10 23 13  0.0000000  0  8G02G04G12G13G20G23G30G31
  -1194909.99248   -879724.26646
                  21084598.0394                                   21084592.9884
                                                                        52.2504
        41.0004
   -598455.77048   -440102.39147
                  20432955.0234                                   20432952.0904
                                                                        51.0004
        42.0004
   -189847.94947   -140455.67245
                  23272227.5394                                   23272223.5394
                                                                        46.0004
        32.7504
  -1359571.96947  -1005487.97745
                  22356084.0634                                   22356079.9884
                                                                        47.5004
        31.7504
     46580.17246     32432.98044
                  23553608.4384                                   23553604.5274
                                                                        41.7504
        26.5004
   -793158.71148   -584470.34445
                  21685016.1884                                   21685010.4774
                                                                        48.0004
        34.7504
   -570212.73847   -420007.70345
                  22433028.4304                                   22433026.0784
                                                                        44.5004
        31.2504
   -597315.81647   -441180.21944
                  23541700.9924                                   23541697.6334
                                                                        44.0004
        29.7504
 09 10 10 23 13 30.0000000  0  8G02G04G12G13G20G23G30G31
  -1356735.73048  -1005822.25046
                  21053803.6174                                   21053798.6884
                                                                        51.7504
        41.0004
   -677876.32848   -501988.55547
                  20417841.8444                                   20417838.7034
                                                                        52.7504
        42.0004
   -213753.39547   -159083.29345
                  23267678.3834                                   23267674.5044
                                                                        46.5004
        32.7504
  -1543972.47347  -1149176.60545
                  22320993.1254                                   22320989.8054
                                                                        47.5004
        32.0004
     54236.84846     38399.19144
                  23555065.1564                                   23555060.8554
                                                                        41.5004
        25.0004
   -899059.88748   -666990.74245
                  21664864.0704                                   21664857.7774
                                                                        49.5004
        35.5004
   -645393.67247   -478590.20345
                  22418721.8364                                   22418719.1054
                                                                        45.5004
        31.2504
   -676816.03547   -503128.45344
                  23526572.7274                                   23526568.0984
                                                                        44.0004
        28.5004
 09 10 10 23 14  0.0000000  0  8G02G04G12G13G20G23G30G31
     57594.87148     96253.53546
                  21322941.5634                                   21322936.3404
                                                                        51.2504
        41.0004
    818974.00848    664388.33246
                  20702682.8134                                   20702679.5904
                                                                        52.5004
        41.7504
   1338487.16047   1050454.78945
                  23563059.9144                                   23563056.0984
                                                                        47.5004
        32.7504
   -152209.81647    -64686.15645
                  22585836.6724                                   22585833.2544
                                                                        47.5004
        31.7504
   1637816.83646   1272357.62543
                  23856410.3134                                   23856405.7734
                                                                        40.2504
        22.7504
    571385.91848    478811.19145
                  21944680.1564                                   21944674.6644
                                                                        48.5004
        35.5004
    855799.69147    691170.87945
                  22704389.6644                                   22704386.8094
                                                                        45.7504
        30.5004
    819984.99647    663210.00844
                  23811404.9924                                   23811400.0204
                                                                        45.2504
        28.5004
 09 10 10 23 14 30.0000000  0  8G02G04G12G13G20G23G30G31
   -102769.54748    -28705.77046
                  21292425.4844                                   21292420.3164
                                                                        51.5004
        41.0004
    741246.79348    603821.66047
                  20687891.8914                                   20687888.4454
                                                                        52.2504
        42.2504
   1316027.21147   1032953.52345
                  23558786.0004                                   23558782.0594
                                                                        47.2504
        32.2504
   -335135.94147   -207225.93745
                  22551027.0314                                   22551022.8094
                                                                        47.2504
        30.7504
   1646475.06346   1279104.24643
                  23858057.0554                                   23858053.6954
                                                                        38.2504
        19.5004
    467328.98048    397727.87945
                  21924879.3284                                   21924873.1564
                                                                        48.7504
        34.7504
    782518.89847    634068.96145
                  22690444.6724                                   22690442.0704
                                                                        45.7504
        30.0004
    742238.50847    602628.33244
                  23796609.9304                                   23796606.3244
                                                                        44.0004
        29.5004
 09 10 10 23 15  0.0000000  0  8G02G04G12G13G20G23G30G31
   -262411.77348   -153102.32446
                  21262046.5704                                   21262041.3284
                                                                        50.7504
        41.0004
    664354.39848    543905.49247
                  20673259.7974                                   20673256.4804
                                                                        52.7504
        42.0004
   1294274.89848   1016003.66045
                  23554646.6174                                   23554643.0904
                                                                        48.0004
        33.5004
   -517331.54347   -349196.44944
                  22516356.4844                                   22516352.3714
                                                                        47.5004
        29.7504
   1655619.73446   1286229.87143
                  23859797.8674                                   23859793.7154
                                                                        40.0004
        19.7504
    364183.59848    317354.84845
                  21905251.2194                                   21905245.3284
                                                                        48.5004
        35.5004
    710175.80547    577697.71945
                  22676678.2734                                   22676675.4304
                                                                        44.5004
        30.5004
    665356.87147    542720.57044
                  23781980.0554                                   23781975.9574
                                                                        44.7504
        29.0004
 09 10 10 23 15 30.0000000  0  8G02G04G12G13G20G23G30G31
   -421330.52748   -276935.11746
                  21231805.5164                                   21231799.5044
                                                                        51.2504
        41.2504
    588294.72348    484638.20347
                  20658786.0164                                   20658782.8324
                                                                        53.0004
        42.2504
   1273226.51248    999602.31645
                  23550641.4694                                   23550637.2304
                                                                        48.0004
        32.5004
   -698795.57447   -490596.92245
                  22481825.0084                                   22481820.6884
                                                                        47.5004
        31.5004
   1665246.78547   1293731.52743
                  23861629.7734                                   23861624.9734
                                                                        42.5004
        21.2504
    261948.02348    237690.78145
                  21885796.2424                                   21885790.4184
                                                                        48.7504
        35.5004
    638768.15647    522055.39145
                  22663089.9304                                   22663087.1024
                                                                        44.7504
        30.7504
    589338.02347    483485.08644
                  23767514.1094                                   23767509.9264
                                                                        44.5004
        28.5004
 09 10 10 23 16  0.0000000  0  8G02G04G12G13G20G23G30G31
   -579531.77348   -400208.78946
                  21201700.7194                                   21201694.8444
                                                                        51.2504
        41.5004
    513060.25048    426013.95347
                  20644469.4454                                   20644466.2464
                                                                        53.0004
        42.2504
   1252871.96147    983741.63745
                  23546768.0394                                   23546764.0234
                                                                        47.5004
        32.0004
   -879532.02047   -631430.49245
                  22447432.0634                                   22447428.5434
                                                                        47.7504
        31.0004
   1675347.27347   1301602.03543
                  23863552.0704                                   23863547.3554
                                                                        43.7504
        22.7504
    160615.85948    158730.66045
                  21866513.2974                                   21866507.1844
                                                                        48.5004
        35.7504
    568287.32847    467135.25045
                  22649677.7584                                   22649674.8834
                                                                        44.7504
        30.2504
    514173.98047    424915.69144
                  23753210.9534                                   23753206.6764
                                                                        45.2504
        29.7504
 09 10 10 23 16 30.0000000  0  8G02G04G12G13G20G23G30G31
   -737021.58648   -522928.12146
                  21171731.2274                                   21171725.8634
                                                                        50.7504
        41.5004
    438642.09048    368025.74647
                  20630308.1644                                   20630305.1604
                                                                        52.7504
        42.0004
   1233201.32447    968413.85245
                  23543024.6414                                   23543020.9574
                                                                        47.0004
        31.5004
  -1059546.52748   -771701.53545
                  22413176.6334                                   22413172.6414
                                                                        48.7504
        32.2504
   1685910.68447   1309833.28143
                  23865562.3444                                   23865558.2544
                                                                        43.7504
        22.5004
     60179.25048     80468.38346
                  21847400.7584                                   21847394.8954
                                                                        48.5004
        36.0004
    498724.07047    412930.10545
                  22636440.6724                                   22636437.1134
                                                                        44.0004
        30.2504
    439856.06647    367005.62144
                  23739068.5704                                   23739064.0204
                                                                        45.2504
        28.7504
 09 10 10 23 17  0.0000000  0  8G02G04G12G13G20G23G30G31
   -893804.25848   -645096.43746
                  21141896.3754                                   21141890.9224
                                                                        51.0004
        41.7504
    365033.53948    310668.42647
                  20616300.8134                                   20616297.8324
                                                                        53.2504
        42.0004
   1214205.14847    953611.62145
                  23539410.1644                                   23539406.2464
                                                                        47.0004
        31.0004
  -1238842.41047   -911412.60945
                  22379057.1644                                   22379053.8164
                                                                        47.5004
        32.0004
   1696928.55547   1318418.68043
                  23867659.0234                                   23867655.4414
                                                                        42.5004
        22.7504
    -39368.09047      2899.03146
                  21828457.9384                                   21828451.7894
                                                                        47.7504
        36.0004
    430071.50847    359434.60545
                  22623376.1254                                   22623373.4884
                                                                        45.0004
        31.5004
    366377.07847    309749.27744
                  23725085.7894                                   23725081.2274
                                                                        45.2504
        28.5004
 09 10 10 23 17 30.0000000  0  8G02G04G12G13G20G23G30G31
  -1049883.74248   -766716.80146
                  21112195.5554                                   21112190.0354
                                                                        50.5004
        41.2504
    292228.54348    253937.26647
                  20602446.6954                                   20602443.5514
                                                                        53.5004
        42.2504
   1195875.60247    939328.83645
                  23535921.6954                                   23535918.3134
                                                                        46.5004
        30.5004
  -1417422.10247  -1050565.60245
                  22345074.7894                                   22345070.8714
                                                                        47.5004
        32.5004
   1708393.08646   1327351.99643
                  23869839.6094                                   23869836.6914
                                                                        40.5004
        21.5004
   -138031.19548    -73981.30146
                  21809682.9614                                   21809677.0234
                                                                        48.0004
        36.2504
    362322.56647    306643.23045
                  22610483.9694                                   22610481.0554
                                                                        43.5004
        31.0004
    293730.86347    253141.85244
                  23711261.7734                                   23711257.0514
                                                                        45.0004
        26.5004
 09 10 10 23 18  0.0000000  0  8G02G04G12G13G20G23G30G31
  -1205267.12148   -887794.74247
                  21082627.0864                                   21082621.7894
                                                                        50.0004
        42.0004
    220217.23448    197824.55147
                  20588743.3284                                   20588740.1764
                                                                        53.0004
        42.0004
   1178201.39547    925556.72745
                  23532558.5784                                   23532554.9804
                                                                        47.5004
        31.0004
  -1595292.01247  -1189165.52045
                  22311227.6414                                   22311223.9224
                                                                        47.7504
        32.2504
   1720292.94146   1336624.51243
                  23872104.8444                                   23872101.0204
                                                                        41.5004
        21.5004
   -235819.33647   -150179.84445
                  21791074.3834                                   21791068.3954
                                                                        47.0004
        35.0004
    295466.95347    254547.93845
                  22597761.8834                                   22597759.0514
                                                                        45.7504
        31.0004
    221907.14547    197175.34444
                  23697594.3754                                   23697589.3834
                                                                        45.5004
        28.0004
 09 10 10 23 18 30.0000000  0  8G02G04G12G13G20G23G30G31
  -1359960.52748  -1008334.98046
                  21053190.0234                                   21053184.5204
                                                                        51.5004
        41.7504
    148991.33248    142323.85547
                  20575189.4144                                   20575186.3054
                                                                        53.2504
        42.2504
   1161171.52747    912286.69145
                  23529317.8914                                   23529314.2074
                                                                        47.5004
        32.2504
  -1772457.18448  -1327216.33245
                  22277513.6254                                   22277509.9924
                                                                        48.0004
        32.0004
   1732618.27046   1346228.68043
                  23874450.1414                                   23874446.2854
                                                                        41.2504
        19.7504
   -332740.15248   -225702.55546
                  21772630.7274                                   21772624.8484
                                                                        48.0004
        36.0004
    229495.89547    203141.91445
                  22585207.8674                                   22585205.5984
                                                                        45.2504
        31.5004
    150897.64847    141843.27344
                  23684081.7344                                   23684077.3164
                                                                        45.7504
        28.2504
 09 10 10 23 19  0.0000000  0  8G02G04G12G13G20G23G30G31
  -1513969.26248  -1128341.75846
                  21023882.9924                                   21023877.4964
                                                                        51.5004
        41.5004
     78542.30948     87428.51646
                  20561783.3594                                   20561779.9264
                                                                        53.5004
        41.5004
   1144775.89147    899510.85545
                  23526197.4304                                   23526193.9064
                                                                        47.2504
        32.0004
  -1948922.38347  -1464721.71945
                  22243933.8754                                   22243929.9344
                                                                        47.5004
        32.2504
   1745359.15246   1356156.63743
                  23876874.6484                                   23876870.8054
                                                                        41.7504
        20.0004
   -428801.00448   -300555.18445
                  21754351.0234                                   21754345.3054
                                                                        48.7504
        35.5004
    164400.35947    152418.09845
                  22572820.9844                                   22572818.0824
                                                                        46.0004
        31.2504
     80693.76247     87138.93044
                  23670722.2274                                   23670717.7734
                                                                        45.0004
        28.2504
 09 10 10 23 19 30.0000000  0  8G02G04G12G13G20G23G30G31
  -1667292.88748  -1247814.70746
                  20994706.3674                                   20994700.9064
                                                                        50.0004
        41.5004
      8868.57848     33137.31346
                  20548525.1024                                   20548521.6334
                                                                        53.0004
        41.7504
   1129011.05947    887226.54345
                  23523198.1724                                   23523194.6334
                                                                        47.0004
        31.7504
  -2124686.44948  -1601680.75045
                  22210487.1334                                   22210483.1804
                                                                        48.0004
        31.7504
   1758512.15246   1366405.71143
                  23879378.1254                                   23879373.9304
                                                                        41.0004
        20.2504
   -524003.06647   -374738.62945
                  21736234.7664                                   21736228.9454
                                                                        47.7504
        35.5004
    100178.54747    102375.13745
                  22560599.7814                                   22560597.2344
                                                                        45.5004
        31.5004
     11293.63747     33060.90644
                  23657515.3204                                   23657511.3794
                                                                        45.0004
        28.0004
 09 10 10 23 20  0.0000000  0  8G02G04G12G13G20G23G30G31
  -1819935.84848  -1366757.25846
                  20965659.2114                                   20965653.8794
                                                                        51.0004
        41.5004
    -60036.72748    -20555.13746
                  20535412.7034                                   20535409.5474
                                                                        52.5004
        41.7504
   1113868.11347    875426.81645
                  23520316.6334                                   23520312.3204
                                                                        46.5004
        32.0004
  -2299752.28548  -1738095.70345
                  22177173.0084                                   22177168.8364
                                                                        48.0004
        31.7504
   1772069.21146   1376969.66843
                  23881958.0164                                   23881953.4774
                                                                        40.7504
        20.5004
   -618351.87148   -448257.17245
                  21718280.8754                                   21718274.7504
                                                                        48.2504
        35.7504
     36822.52747     53006.78945
                  22548543.6094                                   22548540.5514
                                                                        47.0004
        30.7504
    -57309.95747    -20396.44544
                  23644460.4534                                   23644456.7664
                                                                        44.0004
        26.7504
 09 10 10 23 20 30.0000000  0  8G02G04G12G13G20G23G30G31
  -1971909.96548  -1485178.61346
                  20936739.6804                                   20936733.8674
                                                                        51.0004
        41.5004
   -128188.04348    -73660.05947
                  20522443.9064                                   20522441.0634
                                                                        53.0004
        42.5004
   1099330.73047    864098.98445
                  23517550.0634                                   23517546.1954
                                                                        47.2504
        32.5004
  -2474131.06248  -1873975.28545
                  22143989.5554                                   22143985.6254
                                                                        48.7504
        32.0004
   1786014.12946   1387835.80543
                  23884611.4384                                   23884607.5354
                                                                        39.7504
        21.0004
   -711861.83247   -521122.07445
                  21700486.8984                                   21700480.7584
                                                                        47.7504
        35.5004
    -25682.84847      4301.27345
                  22536649.0634                                   22536646.5984
                                                                        45.7504
        30.2504
   -125131.48847    -73244.39144
                  23631555.2274                                   23631550.8364
                                                                        44.5004
        27.7504
 09 10 10 23 21  0.0000000  0  8G02G04G12G13G20G23G30G31
  -2123216.21148  -1603079.55146
                  20907946.9454                                   20907941.7774
                                                                        51.7504
        41.5004
   -195588.58248   -126179.94147
                  20509617.9144                                   20509614.7384
                                                                        53.0004
        42.0004
   1085393.43047    853238.75845
                  23514898.1024                                   23514894.0354
                                                                        46.7504
        31.2504
  -2647822.43748  -2009319.21145
                  22110937.4844                                   22110933.4734
                                                                        48.7504
        32.2504
   1800342.23046   1399000.53143
                  23887337.3054                                   23887333.9264
                                                                        38.7504
        19.5004
   -804535.67648   -593335.46945
                  21682851.0234                                   21682845.2854
                                                                        49.0004
        35.2504
    -87341.33647    -43744.32445
                  22524915.9694                                   22524912.7544
                                                                        45.7504
        30.5004
   -192174.75047   -125485.88744
                  23618796.4844                                   23618792.5394
                                                                        44.0004
        27.0004
 09 10 10 23 21 30.0000000  0  8G02G04G12G13G20G23G30G31
  -2273861.14848  -1720465.21146
                  20879280.3984                                   20879274.8164
                                                                        52.0004
        41.5004
   -262247.71948   -178122.11347
                  20496933.0784                                   20496929.9614
                                                                        53.0004
        42.0004
   1072045.53547    842837.80145
                  23512357.8914                                   23512354.5354
                                                                        46.5004
        32.0004
  -2820832.55948  -2144132.28145
                  22078014.7504                                   22078010.7344
                                                                        48.5004
        32.2504
   1815042.64546   1410455.44143
                  23890134.9224                                   23890130.8594
                                                                        40.2504
        21.2504
   -896381.62148   -664903.73845
                  21665373.5634                                   21665367.4614
                                                                        49.2504
        35.5004
   -148162.62547    -91137.53945
                  22513342.0634                                   22513339.3914
                                                                        45.5004
        30.7504
   -258449.22347   -177128.34844
                  23606185.1334                                   23606181.3364
                                                                        43.0004
        26.7504
 09 10 10 23 22  0.0000000  0  8G02G04G12G13G20G23G30G31
  -2423848.37548  -1837338.32846
                  20850738.6564                                   20850733.1454
                                                                        51.2504
        41.5004
   -328171.42648   -229491.20347
                  20484388.2584                                   20484385.4064
                                                                        52.2504
        42.0004
   1059278.52747    832889.47745
                  23509928.5314                                   23509924.8244
                                                                        46.5004
        32.0004
  -2993163.70748  -2278416.25845
                  22045220.9534                                   22045217.1764
                                                                        48.5004
        31.5004
   1830107.97746   1422194.61343
                  23893002.8054                                   23892998.2114
                                                                        40.7504
        21.7504
   -987404.96548   -735831.00445
                  21648052.1094                                   21648046.0554
                                                                        48.0004
        35.0004
   -208154.09847   -137884.16845
                  22501926.1174                                   22501923.4264
                                                                        45.5004
        30.5004
   -323961.18447   -228176.66044
                  23593718.6334                                   23593714.3244
                                                                        44.7504
        27.2504
 09 10 10 23 22 30.0000000  0  8G02G04G12G13G20G23G30G31
   -997751.60248   -726094.02746
                  21122115.8204                                   21122110.7034
                                                                        51.5004
        41.5004
   1182060.68848    947313.02346
                  20771775.9384                                   20771772.8594
                                                                        53.0004
        41.5004
   2622509.95747   2050991.84045
                  23807401.1414                                   23807398.0204
                                                                        45.7504
        31.7504
  -1589388.52048  -1184565.41845
                  22312350.9304                                   22312347.0234
                                                                        48.7504
        32.7504
   3420954.98046   2661815.62143
                  24195729.2344                                   24195726.1174
                                                                        38.5004
        20.7504
    497816.45748    421484.39845
                  21930680.5864                                   21930674.3164
                                                                        48.5004
        34.7504
   1308104.74247   1043616.23445
                  22790460.4614                                   22790457.5474
                                                                        45.2504
        30.5004
   1186710.34847    948970.01644
                  23881190.1174                                   23881185.5864
                                                                        44.0004
        26.5004
 09 10 10 23 23  0.0000000  0  8G02G04G12G13G20G23G30G31
  -1146425.10948   -841943.48046
                  21093824.1884                                   21093818.7154
                                                                        52.5004
        41.5004
   1117598.42248    897082.70346
                  20759509.1804                                   20759505.7034
                                                                        52.5004
        41.2504
   2610890.49247   2041937.69544
                  23805190.2274                                   23805186.7894
                                                                        45.0004
        29.7504
  -1760361.08648  -1317790.78145
                  22279815.7974                                   22279811.9414
                                                                        49.5004
        33.0004
   3436736.97746   2674113.19143
                  24198733.0554                                   24198729.5164
                                                                        39.7504
        19.7504
    408431.33648    351833.65645
                  21913671.1414                                   21913665.2584
                                                                        49.7504
        35.0004
   1249762.84847    998155.00044
                  22779357.9924                                   22779355.4384
                                                                        45.2504
        29.2504
   1122714.08647    899102.79744
                  23869011.8054                                   23869007.2664
                                                                        43.5004
        26.0004
 09 10 10 23 23 30.0000000  0  8G02G04G12G13G20G23G30G31
  -1294449.17648   -957286.87946
                  21065656.2194                                   21065650.6884
                                                                        52.2504
        41.2504
   1053855.70748    847413.07447
                  20747379.4774                                   20747376.5354
                                                                        52.2504
        42.2504
   2599830.56347   2033319.56645
                  23803085.8204                                   23803081.7074
                                                                        46.0004
        30.2504
  -1930660.40648  -1450491.52345
                  22247409.1094                                   22247405.1724
                                                                        49.0004
        33.7504
   3452864.00446   2686679.72743
                  24201802.4224                                   24201798.3594
                                                                        41.2504
        20.0004
    319854.75848    282812.95745
                  21896815.5634                                   21896809.2384
                                                                        49.5004
        35.7504
   1192233.41447    953326.87945
                  22768410.6254                                   22768407.7424
                                                                        45.7504
        30.5004
   1059463.51247    849816.63344
                  23856975.6804                                   23856971.6024
                                                                        43.5004
        27.2504
 09 10 10 23 24  0.0000000  0  8G02G04G12G13G20G23G30G31
  -1441830.03148  -1072129.08247
                  21037610.0474                                   21037604.5904
                                                                        52.2504
        42.0004
    990823.34448    798296.97346
                  20735384.5474                                   20735381.3404
                                                                        52.7504
        41.7504
   2589319.50847   2025129.14145
                  23801085.5234                                   23801081.5004
                                                                        46.0004
        30.5004
  -2100292.02348  -1582672.02045
                  22215129.2194                                   22215125.6024
                                                                        49.0004
        33.5004
   3469325.48046   2699506.83643
                  24204934.7194                                   24204930.8054
                                                                        40.7504
        21.0004
    232078.52048    214415.88745
                  21880112.1334                                   21880106.1954
                                                                        49.5004
        35.2504
   1135506.88347    909124.42244
                  22757616.0394                                   22757612.8524
                                                                        45.0004
        29.2504
    996949.57447    801104.46944
                  23845079.5234                                   23845075.8524
                                                                        42.5004
        28.0004
 09 10 10 23 24 30.0000000  0  8G02G04G12G13G20G23G30G31
  -1588569.06248  -1186471.18747
                  21009686.6414                                   21009681.1374
                                                                        52.5004
        42.0004
    928497.94548    749731.71946
                  20723524.4774                                   20723521.1804
                                                                        52.5004
        41.5004
   2579351.96147   2017362.23445
                  23799188.8834                                   23799184.4924
                                                                        45.5004
        30.2504
  -2269256.01648  -1714332.26245
                  22182976.1954                                   22182972.3364
                                                                        48.7504
        32.2504
   3486116.73046   2712590.92243
                  24208129.8364                                   24208126.4574
                                                                        40.2504
        21.5004
    145099.93448    146640.37945
                  21863561.2344                                   21863555.1994
                                                                        49.5004
        35.2504
   1079578.86747    865544.18044
                  22746973.6334                                   22746970.1844
                                                                        45.7504
        29.7504
    935168.62147    752963.47344
                  23833322.9534                                   23833319.1174
                                                                        43.2504
        27.0004
 09 10 10 23 25  0.0000000  0  8G02G04G12G13G20G23G30G31
  -1734671.31648  -1300317.09047
                  20981884.0314                                   20981879.1484
                                                                        52.5004
        42.0004
    866871.37948    701711.01646
                  20711797.4454                                   20711794.1644
                                                                        52.7504
        41.5004
   2569917.84847   2010010.95744
                  23797393.6414                                   23797389.6844
                                                                        46.2504
        29.7504
  -2437557.11748  -1845475.98845
                  22150949.5164                                   22150945.4384
                                                                        48.5004
        32.5004
   3503228.09046   2725924.38343
                  24211385.4534                                   24211382.8984
                                                                        38.7504
        19.2504
     58911.44148     79480.52345
                  21847160.2274                                   21847153.4304
                                                                        49.7504
        35.0004
   1024440.69947    822579.35544
                  22736480.7194                                   22736477.4804
                                                                        45.7504
        29.7504
    874112.12547    705386.98444
                  23821704.6724                                   23821700.6334
                                                                        42.5004
        27.7504
 09 10 10 23 25 30.0000000  0  8G02G04G12G13G20G23G30G31
  -1880140.19148  -1413669.44947
                  20954202.5554                                   20954197.1564
                                                                        51.5004
        42.5004
    805937.81648    654230.32046
                  20700202.0394                                   20700198.9454
                                                                        52.5004
        41.7504
   2561009.11347   2003069.06645
                  23795698.5164                                   23795694.6214
                                                                        45.5004
        30.5004
  -2605197.36348  -1976104.70745
                  22119048.5864                                   22119045.0474
                                                                        48.5004
        33.0004
   3520652.56646   2739501.87543
                  24214702.1954                                   24214698.9654
                                                                        40.5004
        20.7504
    -26492.23448     12932.20345
                  21830907.6254                                   21830901.7274
                                                                        49.7504
        34.7504
    970085.39147    780224.57044
                  22726137.6414                                   22726134.4024
                                                                        44.7504
        29.5004
    813773.98447    658370.25044
                  23810222.5164                                   23810218.5594
                                                                        42.5004
        27.5004
 09 10 10 23 26  0.0000000  0  8G02G04G12G13G20G23G30G31
  -2024979.31648  -1526531.09447
                  20926640.5704                                   20926635.0474
                                                                        52.5004
        42.5004
    745691.59048    607285.24247
                  20688737.7194                                   20688734.3554
                                                                        52.7504
        42.0004
   2552618.68847   1996531.05544
                  23794101.4694                                   23794097.9224
                                                                        45.2504
        29.5004
  -2772179.36348  -2106220.52345
                  22087273.0634                                   22087268.9414
                                                                        49.5004
        33.5004
   3538382.93846   2753317.70743
                  24218075.9614                                   24218072.2974
                                                                        40.0004
        19.5004
   -111116.21148    -53008.53945
                  21814804.1564                                   21814798.6644
                                                                        50.0004
        34.7504
    916506.70747    738474.95344
                  22715941.9224                                   22715938.8204
                                                                        46.0004
        29.5004
    754148.07446    611908.50444
                  23798876.1174                                   23798871.7114
                                                                        40.7504
        28.5004
 09 10 10 23 26 30.0000000  0  8G02G04G12G13G20G23G30G31
  -2169191.49248  -1638904.21546
                  20899198.2584                                   20899192.5904
                                                                        53.0004
        41.7504
    686126.85948    560871.14846
                  20677402.6484                                   20677399.3674
                                                                        52.5004
        41.5004
   2544738.95347   1990391.03145
                  23792601.9844                                   23792598.6764
                                                                        45.5004
        31.0004
  -2938505.47748  -2235825.29745
                  22055622.1174                                   22055618.2344
                                                                        49.5004
        33.5004
   3556412.74646   2767366.94543
                  24221506.7814                                   24221503.1604
                                                                        38.5004
        18.2504
   -194965.48848   -118345.63745
                  21798848.5864                                   21798842.4184
