     2.11           OBSERVATION DATA    G (GPS)             RINEX VERSION / TYPE
teqc  2019Feb25                         20221121 12:28:24UTCPGM / RUN BY / DATE
OSX ker:10.11.6|Core i5|gcc 4.3 -m64|OSX ker:10.10+|=+      COMMENT
BIT 2 OF LLI FLAGS DATA COLLECTED UNDER A/S CONDITION       COMMENT
04712881                                                    MARKER NAME
2881                                                        MARKER NUMBER
-Unknown-           -Unknown-                               OBSERVER / AGENCY
0220400471          TRIMBLE R7          2.30                REC # / TYPE / VERS
-Unknown-           TRM39105.00     NONE                    ANT # / TYPE
  1449460.7045 -1709241.4146  5952439.8719                  APPROX POSITION XYZ
        0.0000        0.0000        0.0000                  ANTENNA: DELTA H/E/N
     1     1                                                WAVELENGTH FACT L1/2
    20    L1    L2    L5    L6    L7    L8    C1    P1    C2# / TYPES OF OBSERV
          P2    C5    C6    C7    C8    S1    S2    S5    S6# / TYPES OF OBSERV
          S7    S8                                          # / TYPES OF OBSERV
    30.0000                                                 INTERVAL
    15                                                      LEAP SECONDS
Forced Modulo Decimation to 30 seconds                      COMMENT
 SNR is mapped to RINEX snr flag value [0-9]                COMMENT
  L1 & L2: min(max(int(snr_dBHz/6), 0), 9)                  COMMENT
teqc edited: Beidou # 1 - 37 excluded                       COMMENT
  2009    10    15    23    10   30.0000000     GPS         TIME OF FIRST OBS
                                                            END OF HEADER
 09 10 15 23 10 30.0000000  0  7G02G04G12G13G23G30G31
   -243209.47758   -163857.62557
                  20888564.7664                                   20888558.9184
                                                                        51.5004
        42.5004
    -95562.54758    -66294.00456
                  20817869.1414                                   20817865.7894
                                                                        52.7504
        41.0004
    -10419.69557     -7415.56654
                  24020552.7194                                   24020548.6334
                                                                        45.0004
        29.7504
   -279086.97758   -187890.00855
                  22003103.6954                                   22003099.6684
                                                                        48.7504
        32.7504
   -137691.99657    -93336.97755
                  21884149.5394                                   21884143.4304
                                                                        47.5004
        34.0004
    -84186.10257    -56708.35955
                  22848184.3914                                   22848181.8404
                                                                        46.0004
        31.2504
    -81470.82057    -56472.28154
                  23927315.4454                                   23927311.1454
                                                                        42.2504
        27.2504
 09 10 15 23 11  0.0000000  0  8G02G04G29G12G13G23G30G31
   -385482.44948   -274719.59447
                  20861490.8834                                   20861485.3404
                                                                        51.0004
        42.0004
   -151901.02048   -110194.10946
                  20807148.2424                                   20807145.0554
                                                                        52.5004
        41.0004
   -293214.63357   -214059.30154
                  24421355.2274                                   24421350.9804
                                                                        43.0004
        26.0004
    -17226.91347    -12719.92745
                  24019257.4224                                   24019253.8204
                                                                        44.5004
        30.0004
   -442859.20748   -315504.80545
                  21971939.0394                                   21971934.8674
                                                                        49.5004
        33.2504
   -218560.27747   -156351.20745
                  21868760.5164                                   21868754.5434
                                                                        47.2504
        34.2504
   -133559.22447    -95180.94445
                  22838788.9774                                   22838786.0984
                                                                        44.5004
        31.5004
   -137101.34046    -99820.76644
                  23916729.2584                                   23916725.2934
                                                                        41.7504
        28.0004
 09 10 15 23 11 30.0000000  0  8G02G04G29G12G13G23G30G31
   -526773.78548   -384816.69947
                  20834603.9924                                   20834598.3364
                                                                        50.5004
        42.7504
   -207232.35548   -153309.47746
                  20796619.3444                                   20796615.8914
                                                                        51.2504
        40.5004
   -490542.21147   -367821.04744
                  24383804.6724                                   24383801.1174
                                                                        42.0004
        27.2504
    -23219.07047    -17389.19945
                  24018116.5944                                   24018112.9264
                                                                        45.2504
        30.5004
   -605610.25048   -442323.84445
                  21940968.9534                                   21940964.8554
                                                                        49.0004
        33.0004
   -298320.68448   -218502.19945
                  21853582.6484                                   21853576.6254
                                                                        48.2504
        34.7504
   -181844.16447   -132805.60945
                  22829600.6484                                   22829597.9184
                                                                        46.2504
        30.5004
   -191703.51247   -142367.93744
                  23906338.8674                                   23906334.4574
                                                                        43.0004
        28.2504
 09 10 15 23 12  0.0000000  0  8G02G04G29G12G13G23G30G31
   -666933.50048   -494032.00847
                  20807932.6094                                   20807926.8094
                                                                        51.0004
        42.5004
   -261409.19148   -195525.19946
                  20786309.4304                                   20786306.5314
                                                                        53.2504
        40.7504
   -687008.48846   -520911.60244
                  24346418.1564                                   24346415.5664
                                                                        41.2504
        27.5004
    -28250.26247    -21309.63745
                  24017159.8754                                   24017155.8404
                                                                        45.5004
        31.0004
   -767189.43048   -568229.72345
                  21910221.3134                                   21910216.5164
                                                                        48.7504
        32.5004
   -376825.25448   -279674.58645
                  21838644.0704                                   21838637.8754
                                                                        48.5004
        35.2504
   -228894.32847   -169468.15645
                  22820647.1954                                   22820644.4614
                                                                        44.0004
        31.0004
   -245131.13747   -183999.86744
                  23896171.5474                                   23896167.7424
                                                                        43.2504
        27.0004
 09 10 15 23 12 30.0000000  0  8G02G04G29G12G13G23G30G31
   -805918.86748   -602332.28147
                  20781484.3674                                   20781479.0514
                                                                        50.0004
        42.5004
   -314390.78548   -236809.54746
                  20776227.3984                                   20776224.5124
                                                                        52.0004
        40.5004
   -882569.48046   -673296.74644
                  24309204.3364                                   24309201.4534
                                                                        39.7504
        28.0004
    -32282.16847    -24451.39145
                  24016392.2504                                   24016388.5824
                                                                        45.5004
        31.2504
   -927552.17648   -693187.68445
                  21879704.8284                                   21879700.9924
                                                                        48.7504
        31.5004
   -454032.77047   -339836.32445
                  21823952.2504                                   21823946.0784
                                                                        46.0004
        33.7504
   -274670.73847   -205138.16445
                  22811936.4694                                   22811933.8364
                                                                        46.0004
        31.7504
   -297343.80147   -224685.07444
                  23886236.0474                                   23886232.2504
                                                                        42.2504
        29.0004
 09 10 15 23 13  0.0000000  0  8G02G04G29G12G13G23G30G31
   -943728.66848   -709716.51647
                  20755259.8284                                   20755254.3834
                                                                        50.5004
        42.5004
   -366179.96148   -277164.78546
                  20766372.4694                                   20766369.0084
                                                                        52.0004
        40.5004
  -1077221.76646   -824973.84044
                  24272162.0864                                   24272160.4304
                                                                        40.0004
        26.7504
    -35317.25847    -26816.42645
                  24015814.5784                                   24015810.8954
                                                                        46.0004
        31.2504
  -1086698.65648   -817197.93045
                  21849420.6024                                   21849416.1604
                                                                        49.2504
        32.7504
   -529945.55147   -398989.15645
                  21809506.2114                                   21809500.1094
                                                                        47.5004
        34.5004
   -319174.04747   -239816.02045
                  22803467.9454                                   22803464.9184
                                                                        45.5004
        31.0004
   -348343.10546   -264424.80144
                  23876531.1954                                   23876526.9734
                                                                        40.7504
        28.5004
 09 10 15 23 13 30.0000000  0  8G02G04G29G12G13G23G30G31
  -1080381.72348   -816199.43047
                  20729255.7194                                   20729249.9774
                                                                        51.0004
        42.5004
   -416796.79748   -316606.42246
                  20756740.1724                                   20756736.6954
                                                                        51.5004
        40.5004
  -1270985.48446   -975958.54744
                  24235290.7664                                   24235288.3954
                                                                        40.2504
        26.5004
    -37380.50047    -28424.23044
                  24015422.4774                                   24015418.1684
                                                                        45.2504
        29.2504
  -1244644.85248   -940272.90245
                  21819364.4144                                   21819359.9494
                                                                        49.0004
        31.2504
   -604583.14848   -457148.31645
                  21795302.7194                                   21795296.9104
                                                                        48.2504
        34.0004
   -362429.11747   -273521.28945
                  22795236.7894                                   22795233.6644
                                                                        45.0004
        30.2504
   -398152.30147   -303237.16844
                  23867053.2034                                   23867048.8284
                                                                        42.0004
        28.5004
 09 10 15 23 14  0.0000000  0  9G02G04G29G12G13G10G23G30G31
  -1215908.89148   -921805.03547
                  20703465.8284                                   20703460.4224
                                                                        50.5004
        42.5004
   -466276.09848   -355161.69946
                  20747324.5234                                   20747321.3284
                                                                        52.2504
        40.7504
  -1463888.43047  -1126272.48844
                  24198583.0314                                   24198579.1374
                                                                        43.0004
        29.0004
    -38505.29047    -29300.75744
                  24015208.1334                                   24015203.9144
                                                                        45.0004
        28.7504
  -1401422.59448  -1062437.38745
                  21789530.1954                                   21789526.0434
                                                                        48.2504
        32.5004
   -312044.09057   -227765.30154
                  24065471.7034                                   24065468.3554
                                                                        43.0004
        24.7504
   -677979.77047   -514340.48045
                  21781335.9614                                   21781330.1024
                                                                        47.0004
        33.7504
   -404468.36747   -306279.14845
                  22787237.0944                                   22787234.0124
                                                                        44.0004
        30.7504
   -446803.85547   -341147.44544
                  23857794.7274                                   23857790.8164
                                                                        42.5004
        28.0004
 09 10 15 23 14 30.0000000  0  9G02G04G29G12G13G10G23G30G31
  -1350343.65248  -1026559.39547
                  20677883.6884                                   20677877.9654
                                                                        50.0004
        43.0004
   -514653.54348   -392858.47746
                  20738118.8054                                   20738115.6454
                                                                        51.7504
        41.2504
  -1655963.45347  -1275941.34844
                  24162032.2894                                   24162028.6604
                                                                        43.5004
        26.7504
    -38729.81647    -29475.73444
                  24015164.9534                                   24015160.9224
                                                                        44.0004
        28.7504
  -1557063.94148  -1183716.36345
                  21759912.8674                                   21759908.4964
                                                                        48.2504
        33.0004
   -522092.29747   -391439.18744
                  24025499.8914                                   24025497.6454
                                                                        42.0004
        24.5004
   -750170.90647   -570593.29745
                  21767598.3984                                   21767592.4414
                                                                        47.0004
        33.5004
   -445329.38747   -338118.88745
                  22779460.7114                                   22779457.9024
                                                                        45.0004
        30.5004
   -494335.03947   -378184.72744
                  23848750.1564                                   23848745.4804
                                                                        43.2504
        27.5004
 09 10 15 23 15  0.0000000  0  9G02G04G29G12G13G10G23G30G31
  -1483712.91848  -1130483.49647
                  20652504.2894                                   20652498.7154
                                                                        50.0004
        42.7504
   -561957.96548   -429719.02746
                  20729117.2274                                   20729113.7624
                                                                        52.0004
        41.0004
  -1847237.33647  -1424985.97344
                  24125634.0474                                   24125629.9804
                                                                        42.7504
        26.2504
    -38086.39847    -28974.45744
                  24015287.9064                                   24015283.8634
                                                                        44.5004
        29.0004
  -1711593.83648  -1304129.25845
                  21730506.9304                                   21730502.4574
                                                                        49.2504
        33.0004
   -731446.71147   -554572.50044
                  23985661.2814                                   23985658.3014
                                                                        43.0004
        26.0004
   -821184.60547   -625928.64145
                  21754085.1094                                   21754079.1174
                                                                        47.0004
        33.5004
   -485043.21947   -369064.75445
                  22771903.5784                                   22771900.5664
                                                                        45.5004
        30.2504
   -540775.58647   -414372.16044
                  23839912.6804                                   23839907.8834
                                                                        43.0004
        28.0004
 09 10 15 23 15 30.0000000  0  9G02G04G29G12G13G10G23G30G31
  -1616045.91048  -1233600.10247
                  20627322.2894                                   20627316.4414
                                                                        51.0004
        42.7504
   -608222.59048   -465769.39846
                  20720313.3524                                   20720310.1334
                                                                        51.7504
        40.5004
  -2037737.55547  -1573427.66444
                  24089382.5004                                   24089379.5744
                                                                        43.0004
        26.5004
    -36607.72347    -27822.27344
                  24015568.9924                                   24015565.4734
                                                                        45.5004
        29.7504
  -1865042.80948  -1423699.89145
                  21701306.2584                                   21701302.2774
                                                                        48.5004
        33.5004
   -940135.59847   -717187.17644
                  23945949.5474                                   23945946.2974
                                                                        44.0004
        26.0004
   -891054.08647   -680372.36345
                  21740789.1564                                   21740783.8524
                                                                        47.5004
        34.0004
   -523641.91047   -399141.64145
                  22764558.8204                                   22764555.2584
                                                                        45.5004
        30.0004
   -586158.39147   -449735.40644
                  23831276.7424                                   23831272.1764
                                                                        42.2504
        27.0004
 09 10 15 23 16  0.0000000  0  9G02G04G29G12G13G10G23G30G31
  -1747360.42648  -1335923.10547
                  20602333.9924                                   20602327.9264
                                                                        50.0004
        42.5004
   -653466.82848   -501024.60946
                  20711703.5394                                   20711700.2464
                                                                        51.5004
        40.5004
  -2227480.77746  -1721279.49644
                  24053274.8284                                   24053272.6024
                                                                        40.2504
        26.0004
    -34315.69547    -26036.23045
                  24016005.7584                                   24016001.8874
                                                                        46.2504
        30.7504
  -2017426.59848  -1542440.48045
                  21672309.1414                                   21672304.8014
                                                                        49.2504
        33.7504
  -1148175.55147   -879296.09044
                  23906360.1564                                   23906357.7074
                                                                        44.2504
        26.5004
   -959797.98047   -733939.00845
                  21727708.0944                                   21727702.0084
                                                                        45.7504
        33.5004
   -561146.60547   -428365.99245
                  22757421.7734                                   22757419.0394
                                                                        45.0004
        30.0004
   -630503.48047   -484290.02744
                  23822837.5314                                   23822833.7344
                                                                        42.5004
        26.5004
 09 10 15 23 16 30.0000000  0  9G02G04G29G12G13G10G23G30G31
  -1877676.71948  -1437468.29747
                  20577535.3524                                   20577529.8404
                                                                        49.7504
        42.5004
   -697713.52748   -535502.50846
                  20703283.5164                                   20703280.2344
                                                                        50.7504
        41.0004
  -2416486.08246  -1868556.27044
                  24017308.5554                                   24017306.5124
                                                                        39.0004
        25.5004
    -31235.15647    -23635.77345
                  24016591.6094                                   24016588.3324
                                                                        47.0004
        31.0004
  -2168764.28148  -1660365.88745
                  21643510.2114                                   21643506.0514
                                                                        48.7504
        34.0004
  -1355586.40647  -1040914.87544
                  23866891.7894                                   23866888.6604
                                                                        43.2504
        27.5004
  -1027438.39547   -786645.76245
                  21714836.4304                                   21714830.0164
                                                                        46.2504
        33.5004
   -597581.66847   -456757.00045
                  22750488.3284                                   22750485.6134
                                                                        45.5004
        30.5004
   -673833.93046   -518054.01644
                  23814592.3674                                   23814587.4574
                                                                        40.5004
        25.7504
 09 10 15 23 17  0.0000000  0  9G02G04G29G12G13G10G23G30G31
   -431590.17248   -310647.63347
                  20852716.4694                                   20852710.4184
                                                                        52.0004
        42.0004
    834435.91448    658380.22746
                  20994842.0164                                   20994838.5944
                                                                        52.0004
        41.0004
  -1029346.39146   -787668.17244
                  24281272.7894                                   24281270.5904
                                                                        40.7504
        26.0004
   1548029.19947   1206959.82045
                  24317115.9694                                   24317112.1994
                                                                        45.7504
        30.7504
   -743650.61748   -549887.69945
                  21914700.1254                                   21914695.8404
                                                                        49.2504
        34.0004
     13039.45747     25546.89844
                  24127332.4224                                   24127329.5084
                                                                        42.5004
        24.7504
    481424.02048    389091.22745
                  22001963.4844                                   22001956.9964
                                                                        48.5004
        34.7504
    942450.53947    743268.08245
                  23043546.6724                                   23043544.2154
                                                                        44.0004
        30.0004
    859247.82446    676555.14544
                  24106328.5634                                   24106323.6454
                                                                        40.5004
        26.0004
 09 10 15 23 17 30.0000000  0  9G02G04G29G12G13G10G23G30G31
   -559970.00448   -410683.85547
                  20828286.7894                                   20828280.9694
                                                                        51.0004
        42.0004
    792114.88748    625402.82846
                  20986788.5164                                   20986784.9184
                                                                        51.5004
        40.7504
  -1216932.24647   -933838.85544
                  24245576.9384                                   24245574.2234
                                                                        42.0004
        28.7504
   1552613.55947   1210532.02044
                  24317987.8984                                   24317984.1804
                                                                        44.0004
        29.2504
   -892956.00948   -666229.53645
                  21886287.9924                                   21886284.0434
                                                                        48.7504
        34.0004
   -193170.84847   -135136.38744
                  24088091.7034                                   24088088.7734
                                                                        42.5004
        26.0004
    415921.39847    338050.23845
                  21989498.3594                                   21989492.4384
                                                                        47.7504
        33.2504
    908084.65647    716489.41645
                  23037006.9224                                   23037003.8404
                                                                        45.0004
        30.0004
    817875.89847    644317.26244
                  24098455.1484                                   24098450.3324
                                                                        42.2504
        26.0004
 09 10 15 23 18  0.0000000  0  9G02G04G29G12G13G10G23G30G31
   -687409.60548   -509987.37147
                  20804035.8444                                   20804030.2934
                                                                        51.7504
        42.2504
    750725.65648    593151.50846
                  20978912.2734                                   20978909.0704
                                                                        52.2504
        41.5004
  -1403836.16447  -1079478.22744
                  24210010.2424                                   24210006.7424
                                                                        43.0004
        29.5004
   1557914.73447   1214662.73844
                  24318996.2664                                   24318993.0274
                                                                        43.0004
        28.0004
  -1041270.75047   -781799.44945
                  21858064.8054                                   21858060.5394
                                                                        47.5004
        33.7504
   -398807.65247   -295372.82444
                  24048959.9774                                   24048957.3404
                                                                        43.2504
        27.0004
    351457.50047    287818.65645
                  21977231.3134                                   21977225.5314
                                                                        47.7504
        34.0004
    874719.07847    690490.28545
                  23030657.9774                                   23030654.8404
                                                                        46.2504
        30.2504
    777450.10247    612816.68044
                  24090761.8914                                   24090757.9144
                                                                        42.7504
        25.5004
 09 10 15 23 18 30.0000000  0  9G02G04G29G12G13G10G23G30G31
   -813926.90648   -608572.25047
                  20779960.2664                                   20779954.8094
                                                                        51.7504
        42.5004
    710246.55548    561609.32446
                  20971209.3364                                   20971205.9304
                                                                        51.5004
        40.0004
  -1590072.63747  -1224597.54344
                  24174570.2424                                   24174567.2934
                                                                        44.5004
        29.2504
   1563912.06647   1219335.96544
                  24320137.4614                                   24320134.3794
                                                                        42.5004
        27.0004
  -1188613.67248   -896612.05145
                  21830026.4064                                   21830022.2274
                                                                        48.2504
        33.2504
   -603888.02347   -455175.63344
                  24009935.0004                                   24009932.0664
                                                                        43.5004
        26.5004
    288010.96147    238379.82045
                  21965157.9924                                   21965151.9614
                                                                        47.5004
        34.2504
    842333.93447    665255.11345
                  23024495.2974                                   23024492.0864
                                                                        46.0004
        30.0004
    737950.85547    582038.03944
                  24083245.9064                                   24083241.0554
                                                                        42.0004
        25.2504
 09 10 15 23 19  0.0000000  0  9G02G04G29G12G13G10G23G30G31
   -939537.80548   -706450.85947
                  20756057.5084                                   20756051.6024
                                                                        50.7504
        42.2504
    670659.87148    530762.57446
                  20963676.0634                                   20963673.0124
                                                                        52.0004
        40.5004
  -1775658.31647  -1369209.76644
                  24139254.7344                                   24139251.2034
                                                                        43.5004
        28.5004
   1570584.19147   1224534.96544
                  24321407.6094                                   24321404.1254
                                                                        43.5004
        27.5004
  -1334998.77748  -1010678.35545
                  21802170.4614                                   21802166.1374
                                                                        48.5004
        33.7504
   -808427.14547   -614556.70744
                  23971012.0784                                   23971009.2974
                                                                        43.2504
        26.7504
    225564.33647    189720.12945
                  21953274.3524                                   21953268.3094
                                                                        47.5004
        33.0004
    810907.93447    640767.31645
                  23018514.8984                                   23018512.1214
                                                                        45.2504
        30.0004
    699357.67646    551965.41444
                  24075902.3054                                   24075897.1524
                                                                        41.5004
        25.5004
 09 10 15 23 19 30.0000000  0  9G02G04G29G12G13G10G23G30G31
  -1064257.75448   -803635.27747
                  20732324.0474                                   20732318.1024
                                                                        51.7504
        42.5004
    631947.27348    500596.94946
                  20956309.4454                                   20956306.0824
                                                                        51.2504
        40.2504
  -1960606.42647  -1513325.18744
                  24104059.3984                                   24104056.5274
                                                                        43.5004
        26.5004
   1577912.03547   1230244.94144
                  24322802.5474                                   24322798.0744
                                                                        45.0004
        28.5004
  -1480440.93448  -1124009.90245
                  21774493.5554                                   21774489.2464
                                                                        48.2504
        33.2504
  -1012439.40647   -773527.23444
                  23932190.0784                                   23932186.8634
                                                                        44.0004
        27.0004
    164100.09048    141825.93045
                  21941578.5084                                   21941572.0594
                                                                        48.0004
        33.5004
    780423.04747    617012.86745
                  23012713.8134                                   23012711.1604
                                                                        45.7504
        30.0004
    661653.12146    522585.23844
                  24068727.4144                                   24068722.4804
                                                                        40.0004
        25.0004
 09 10 15 23 20  0.0000000  0  9G02G04G29G12G13G10G23G30G31
  -1188095.33248   -900132.07047
                  20708758.2974                                   20708752.7074
                                                                        51.0004
        43.0004
    594096.91848    471103.19946
                  20949106.7034                                   20949103.2194
                                                                        51.7504
        40.5004
  -2144924.29347  -1656949.54344
                  24068985.2814                                   24068981.9064
                                                                        42.0004
        24.0004
   1585882.29347   1236455.50044
                  24324318.9454                                   24324314.8634
                                                                        45.2504
        28.5004
  -1624948.81247  -1236613.35945
                  21746994.6484                                   21746989.9344
                                                                        47.7504
        33.0004
  -1215932.57047   -932093.34044
                  23893466.4224                                   23893463.5744
                                                                        43.7504
        27.0004
    103606.35548     94687.96145
                  21930066.8984                                   21930060.6954
                                                                        48.2504
        33.5004
    750867.19947    593982.37945
                  23007089.3834                                   23007087.1134
                                                                        45.7504
        31.0004
    624824.69946    493887.75444
                  24061719.2274                                   24061714.0824
                                                                        40.2504
        27.5004
 09 10 15 23 20 30.0000000  0  9G02G04G29G12G13G10G23G30G31
  -1311065.41848   -995952.93747
                  20685358.2894                                   20685352.3674
                                                                        52.2504
        42.5004
    557092.00448    442268.19946
                  20942065.0394                                   20942061.5084
                                                                        52.0004
        40.2504
  -2328625.88746  -1800093.66844
                  24034027.8444                                   24034024.9924
                                                                        40.7504
        25.5004
   1594476.30147   1243152.12944
                  24325954.2424                                   24325950.0944
                                                                        45.2504
        29.5004
  -1768536.00848  -1348499.39845
                  21719670.4694                                   21719666.3054
                                                                        48.5004
        33.7504
  -1418920.42247  -1090265.60944
                  23854838.8204                                   23854835.7384
                                                                        43.5004
        27.2504
     44066.41847     48293.21145
                  21918736.6254                                   21918730.1884
                                                                        47.5004
        33.0004
    722221.55147    571661.05145
                  23001638.6174                                   23001635.6994
                                                                        46.5004
        31.0004
    588854.96547    465859.39544
                  24054874.1174                                   24054869.6994
                                                                        42.5004
        27.0004
 09 10 15 23 21  0.0000000  0  9G02G04G29G12G13G10G23G30G31
  -1433187.52748  -1091113.02747
                  20662119.1334                                   20662112.9384
                                                                        51.2504
        42.5004
    520909.98848    414074.44546
                  20935179.7974                                   20935176.3094
                                                                        51.7504
        40.2504
  -2511729.09446  -1942771.48044
                  23999184.8914                                   23999181.8674
                                                                        41.5004
        28.0004
   1603669.93047   1250315.93044
                  24327704.0314                                   24327700.0514
                                                                        43.7504
        29.5004
  -1911221.53948  -1459682.88745
                  21692518.1174                                   21692513.6884
                                                                        48.2504
        33.0004
  -1621421.80547  -1248058.81244
                  23816304.6414                                   23816300.8594
                                                                        43.5004
        27.5004
    -14541.33248      2624.83645
                  21907583.6334                                   21907577.8014
                                                                        48.0004
        34.0004
    694463.24247    550031.20345
                  22996356.4064                                   22996353.5084
                                                                        47.0004
        30.7504
    553721.24247    438482.45744
                  24048187.8284                                   24048184.1484
                                                                        42.2504
        27.0004
 09 10 15 23 21 30.0000000  0  9G02G04G29G12G13G10G23G30G31
  -1554472.73448  -1185620.96547
                  20639039.0864                                   20639033.2234
                                                                        51.7504
        42.2504
    485537.04348    386511.11746
                  20928448.5084                                   20928445.3914
                                                                        51.7504
        40.2504
  -2694244.32846  -2084991.10244
                  23964453.1414                                   23964450.4804
                                                                        41.7504
        29.5004
   1613447.98047   1257935.11344
                  24329564.3594                                   24329561.3364
                                                                        43.5004
        29.5004
  -2053015.98448  -1570172.06645
                  21665535.9534                                   21665531.4104
                                                                        49.5004
        33.0004
  -1823447.21547  -1405481.16444
                  23777860.0314                                   23777857.1994
                                                                        43.5004
        27.7504
    -72230.57848    -42327.80545
                  21896606.1804                                   21896600.1094
                                                                        48.0004
        33.5004
    667577.04347    529080.94145
                  22991240.4534                                   22991237.4804
                                                                        46.2504
        30.5004
    519409.05147    411745.68044
                  24041659.0474                                   24041654.9104
                                                                        42.0004
        27.0004
 09 10 15 23 22  0.0000000  0  9G02G04G29G12G13G10G23G30G31
  -1674931.42248  -1279484.87947
                  20616116.8204                                   20616111.1414
                                                                        51.0004
        42.5004
    450960.42648    359568.29746
                  20921868.5234                                   20921865.1524
                                                                        52.0004
        40.0004
  -2876180.25447  -2226759.33245
                  23929832.1024                                   23929829.5394
                                                                        42.0004
        31.5004
   1623795.81347   1265998.24244
                  24331533.5864                                   24331530.6054
                                                                        42.5004
        27.5004
  -2193928.43448  -1679973.94145
                  21638721.1644                                   21638716.8484
                                                                        49.0004
        33.5004
  -2025006.20347  -1562540.03544
                  23739504.5084                                   23739501.4774
                                                                        43.5004
        27.0004
   -129013.97348    -86574.60945
                  21885800.6094                                   21885794.1294
                                                                        48.5004
        33.0004
    641549.00447    508799.37545
                  22986287.1254                                   22986284.4844
                                                                        45.0004
        30.2504
    485904.75047    385638.40644
                  24035283.1804                                   24035279.0314
                                                                        42.0004
        27.2504
 09 10 15 23 22 30.0000000  0  9G02G04G29G12G13G10G23G30G31
  -1794578.09048  -1372716.05147
                  20593348.5554                                   20593343.0314
                                                                        51.5004
        42.2504
    417162.85948    333232.54346
                  20915437.0474                                   20915433.7814
                                                                        51.5004
        40.0004
  -3057550.59446  -2368086.82844
                  23895318.2734                                   23895315.8444
                                                                        41.5004
        29.7504
   1634694.82446   1274490.82444
                  24333607.3834                                   24333604.6024
                                                                        41.7504
        27.0004
  -2333973.07848  -1789099.63345
                  21612071.8054                                   21612067.3244
                                                                        49.2504
        34.5004
  -2226111.93747  -1719245.77344
                  23701235.3914                                   23701232.2704
                                                                        42.5004
        26.5004
   -184908.25448   -130128.60945
                  21875164.1954                                   21875158.0594
                                                                        48.5004
        34.5004
    616360.79347    489172.09844
                  22981493.3674                                   22981491.1764
                                                                        45.2504
        29.5004
    453190.89147    360147.10244
                  24029058.6174                                   24029054.3284
                                                                        42.0004
        29.5004
 09 10 15 23 23  0.0000000  0  9G02G04G29G12G13G10G23G30G31
  -1913422.23448  -1465321.86747
                  20570733.4224                                   20570727.7154
                                                                        51.5004
        42.5004
    384132.02048    307494.20746
                  20909151.7664                                   20909148.0314
                                                                        51.0004
        40.0004
  -3238362.84846  -2508979.41044
                  23860910.5474                                   23860908.0434
                                                                        40.7504
        28.2504
   1646131.75047   1283402.71144
                  24335784.1174                                   24335780.6334
                                                                        43.5004
        27.2504
  -2473158.75448  -1897555.99245
                  21585585.7894                                   21585581.3134
                                                                        49.5004
        34.7504
  -2426772.70347  -1875604.76244
                  23663051.2034                                   23663048.1214
                                                                        43.7504
        27.7504
   -239925.10548   -172998.91045
                  21864694.8984                                   21864688.3054
                                                                        49.2504
        34.7504
    592000.17647    470189.80544
                  22976858.2424                                   22976855.1604
                                                                        45.5004
        28.7504
    421255.30547    335262.21544
                  24022981.3054                                   24022976.8014
                                                                        42.2504
        28.0004
 09 10 15 23 23 30.0000000  0  9G02G04G29G12G13G10G23G30G31
  -2031473.65648  -1557309.99647
                  20548268.7664                                   20548262.9104
                                                                        51.7504
        42.5004
    351855.48448    282343.63346
                  20903009.5554                                   20903006.1334
                                                                        51.5004
        40.2504
  -3418626.34846  -2649444.37544
                  23826608.5944                                   23826604.6644
                                                                        40.7504
        27.5004
   1658092.16047   1292722.49644
                  24338060.5864                                   24338056.3794
                                                                        44.7504
        27.7504
  -2611494.80948  -2005350.31245
                  21559260.6094                                   21559256.4734
                                                                        49.0004
        34.5004
  -2626997.38347  -2031623.94944
                  23624949.6884                                   23624946.7704
                                                                        43.0004
        28.2504
   -294077.29747   -215195.39545
                  21854390.0944                                   21854383.6524
                                                                        47.7504
        34.0004
    568452.65647    451841.04345
                  22972377.8594                                   22972374.7584
                                                                        45.7504
        30.5004
    390084.04747    310972.91444
                  24017049.7814                                   24017045.1374
                                                                        42.5004
        28.0004
 09 10 15 23 24  0.0000000  0  9G02G04G29G12G13G10G23G30G31
  -2148742.48448  -1648688.32447
                  20525953.1414                                   20525947.7344
                                                                        52.0004
        43.0004
    320321.28548    257771.52746
                  20897008.8674                                   20897005.8134
                                                                        52.0004
        40.2504
  -3598350.14847  -2789488.84444
                  23792407.0554                                   23792404.1524
                                                                        42.2504
        26.5004
   1670561.01647   1302438.48844
                  24340433.3134                                   24340428.9614
                                                                        45.7504
        27.0004
  -2748989.40248  -2112488.93445
                  21533096.6564                                   21533092.4344
                                                                        49.0004
        34.7504
  -2826795.97747  -2187311.06244
                  23586928.7034                                   23586925.6914
                                                                        42.5004
        28.7504
   -347376.34048   -256727.12945
                  21844247.7504                                   21844241.1134
                                                                        48.0004
        34.0004
    545704.46947    434115.18845
                  22968048.2814                                   22968046.3134
                                                                        45.5004
        30.2504
    359664.25047    287269.19144
                  24011260.5554                                   24011256.1054
                                                                        42.2504
        27.0004
 09 10 15 23 24 30.0000000  0  9G02G04G29G12G13G10G23G30G31
  -2265232.12948  -1739459.46947
                  20503786.1174                                   20503780.5984
                                                                        52.0004
        43.0004
    289522.35548    233772.36746
                  20891148.2424                                   20891144.5704
                                                                        51.5004
        40.0004
  -3777534.97747  -2929113.38344
                  23758309.7114                                   23758305.8874
                                                                        42.7504
        26.5004
   1683532.31647   1312546.04744
                  24342901.4694                                   24342897.3094
                                                                        45.0004
        26.0004
  -2885647.10548  -2218975.47745
                  21507091.5234                                   21507087.2814
                                                                        48.7504
        34.0004
  -3026170.22347  -2342667.58244
                  23548988.7814                                   23548986.2154
                                                                        42.5004
        27.2504
   -399828.80948   -297599.15645
                  21834266.1954                                   21834260.0474
                                                                        48.0004
        33.5004
    523749.88747    417007.71544
                  22963870.5474                                   22963867.4804
                                                                        45.7504
        28.7504
    329990.01247    264146.40244
                  24005613.8054                                   24005609.6024
                                                                        43.0004
        25.7504
 09 10 15 23 25  0.0000000  0  9G02G04G29G12G13G10G23G30G31
  -2380952.62148  -1829631.30547
                  20481765.0784                                   20481759.7664
                                                                        51.5004
        42.7504
    259446.28148    210336.46546
                  20885425.0864                                   20885421.5904
                                                                        51.5004
        39.7504
  -3956190.19147  -3068325.27344
                  23724312.7814                                   23724309.3874
                                                                        42.7504
        29.2504
   1696991.03947   1323033.36744
                  24345462.3524                                   24345458.6604
                                                                        42.7504
        28.0004
  -3021476.48448  -2324816.55145
                  21481244.2894                                   21481239.7464
                                                                        48.7504
        34.0004
  -3225129.15247  -2497700.45744
                  23511128.5234                                   23511125.1524
                                                                        42.7504
        28.0004
   -451446.98848   -337821.10545
                  21824443.5554                                   21824437.7504
                                                                        48.0004
        33.0004
    502574.24647    400507.18444
                  22959841.1724                                   22959838.0784
                                                                        46.0004
        29.7504
    301047.61347    241593.90644
                  24000105.3284                                   24000101.7774
                                                                        43.0004
        25.7504
 09 10 15 23 25 30.0000000  0  9G02G04G29G12G13G10G23G30G31
  -2495911.59448  -1919209.72747
                  20459889.2974                                   20459883.8094
                                                                        51.7504
        42.5004
    230082.76648    187455.79746
                  20879837.0474                                   20879833.8404
                                                                        52.0004
        39.5004
  -4134321.94547  -3207129.27744
                  23690415.4454                                   23690412.5084
                                                                        43.2504
        29.7504
   1710925.39146   1333891.21144
                  24348114.0704                                   24348110.8204
                                                                        41.7504
        26.7504
  -3156484.62548  -2430017.70745
                  21455552.7894                                   21455548.6884
                                                                        49.2504
        33.7504
  -3423679.33247  -2652414.80944
                  23473345.6564                                   23473341.9144
                                                                        43.7504
        28.0004
   -502240.68448   -377400.58645
                  21814777.7114                                   21814771.5984
                                                                        48.0004
        33.5004
    482166.41847    384605.05144
                  22955957.4534                                   22955954.5594
                                                                        44.5004
        27.7504
