     2.11           OBSERVATION DATA    G (GPS)             RINEX VERSION / TYPE
teqc  2019Feb25                         20221121 12:27:55UTCPGM / RUN BY / DATE
OSX ker:10.11.6|Core i5|gcc 4.3 -m64|OSX ker:10.10+|=+      COMMENT
BIT 2 OF LLI FLAGS DATA COLLECTED UNDER A/S CONDITION       COMMENT
04712741                                                    MARKER NAME
2741                                                        MARKER NUMBER
-Unknown-           -Unknown-                               OBSERVER / AGENCY
0220400471          TRIMBLE R7          2.30                REC # / TYPE / VERS
-Unknown-           TRM39105.00     NONE                    ANT # / TYPE
  1449461.2933 -1709240.1546  5952443.2645                  APPROX POSITION XYZ
        0.0000        0.0000        0.0000                  ANTENNA: DELTA H/E/N
     1     1                                                WAVELENGTH FACT L1/2
    20    L1    L2    L5    L6    L7    L8    C1    P1    C2# / TYPES OF OBSERV
          P2    C5    C6    C7    C8    S1    S2    S5    S6# / TYPES OF OBSERV
          S7    S8                                          # / TYPES OF OBSERV
    30.0000                                                 INTERVAL
    15                                                      LEAP SECONDS
Forced Modulo Decimation to 30 seconds                      COMMENT
 SNR is mapped to RINEX snr flag value [0-9]                COMMENT
  L1 & L2: min(max(int(snr_dBHz/6), 0), 9)                  COMMENT
teqc edited: Beidou # 1 - 37 excluded                       COMMENT
  2009    10     1    23     9   30.0000000     GPS         TIME OF FIRST OBS
                                                            END OF HEADER
 09 10  1 23  9 30.0000000  0 10G02G04G12G13G17G20G23G30G31G32
   -359595.20758   -244761.66456
                  22264009.9064                                   22264004.9494
                                                                        49.0004
        37.2504
   -234246.77758   -158970.98457
                  20483136.9454                                   20483134.3014
                                                                        50.7504
        42.0004
   -120871.75857    -82689.28155
                  22418023.2664                                   22418020.3714
                                                                        46.5004
        35.5004
   -369565.31657   -213954.78553
                  23887462.3134                                   23887457.6884
                                                                        43.0004
        22.7504
     19013.10958     12169.48455
                  22744031.6174                                   22744028.3134
                                                                        48.5004
        34.5004
    -22890.50458    -16304.91855
                  22102010.2274                                   22102006.5204
                                                                        48.0004
        31.5004
   -287599.93057   -195193.27055
                  22149772.6414                                   22149767.5944
                                                                        46.0004
        33.5004
   -242229.93757   -165069.94954
                  22481563.8984                                   22481561.2624
                                                                        45.2504
        29.0004
   -235711.27757   -163652.27754
                  23599093.1334                                   23599089.0234
                                                                        44.0004
        27.0004
     14534.12957      9124.39553
                  24099713.4064                                   24099711.0704
                                                                        42.0004
        22.5004
 09 10  1 23 10  0.0000000  0 10G02G04G12G13G17G20G23G30G31G32
   1027384.30948    836001.63746
                  22527942.8984                                   22527938.4064
                                                                        49.2504
        37.5004
   1217429.78548    972205.49647
                  20759381.9774                                   20759379.1414
                                                                        51.5004
        42.0004
   1389609.15647   1094308.85246
                  22705458.5394                                   22705455.5044
                                                                        47.5004
        36.0004
    997433.99647    851239.47743
                  24147593.7114                                   24147589.5084
                                                                        44.0004
        22.0004
   1601508.92248   1245283.03145
                  23045170.1954                                   23045167.3594
                                                                        48.0004
        34.5004
   1538065.17248   1200024.23445
                  22399050.4304                                   22399046.6174
                                                                        49.0004
        31.5004
   1136921.38747    914823.42645
                  22420850.6564                                   22420845.2344
                                                                        46.0004
        33.5004
   1205885.65247    963331.87145
                  22757131.2664                                   22757128.7774
                                                                        44.0004
        31.0004
   1215238.37946    966957.80144
                  23875199.4454                                   23875195.4614
                                                                        41.7504
        27.7504
   1594528.68446   1240288.96943
                  24400376.3444                                   24400374.3484
                                                                        37.7504
        21.7504
 09 10  1 23 10 30.0000000  0 10G02G04G12G13G17G20G23G30G31G32
    838674.18848    688954.79746
                  22492032.8204                                   22492027.8484
                                                                        49.2504
        37.5004
   1093684.70748    875780.66446
                  20735833.9454                                   20735831.3524
                                                                        52.5004
        41.7504
   1324717.37547   1043743.84846
                  22693109.8134                                   22693107.0474
                                                                        47.0004
        36.0004
    788662.04747    688559.97743
                  24107865.3754                                   24107861.1174
                                                                        42.5004
        22.7504
   1608318.62948   1250589.27345
                  23046465.9064                                   23046463.0234
                                                                        48.0004
        35.2504
   1523454.83648   1188639.59845
                  22396270.2034                                   22396266.4144
                                                                        48.0004
        31.0004
    986010.38748    797230.50045
                  22392133.2114                                   22392127.8914
                                                                        48.0004
        34.0004
   1078683.37547    864213.26644
                  22732925.0864                                   22732922.8164
                                                                        43.5004
        29.2504
   1090788.45346    869983.81344
                  23851516.9844                                   23851513.6804
                                                                        41.5004
        27.2504
   1598735.64146   1243567.10943
                  24401175.9304                                   24401174.8954
                                                                        41.2504
        21.5004
 09 10  1 23 11  0.0000000  0 10G02G04G12G13G17G20G23G30G31G32
    649913.15248    541868.29746
                  22456112.8984                                   22456108.2974
                                                                        50.0004
        37.5004
    970153.59448    779522.66047
                  20712326.7034                                   20712324.0864
                                                                        52.5004
        42.2504
   1260083.00047    993379.40646
                  22680810.2734                                   22680807.2584
                                                                        47.2504
        36.5004
    579759.85546    525779.16043
                  24068111.9144                                   24068108.2624
                                                                        40.0004
        21.5004
   1615070.15248   1255850.14845
                  23047750.9924                                   23047747.8404
                                                                        48.7504
        34.5004
   1508907.19947   1177303.78945
                  22393501.5944                                   22393498.1024
                                                                        47.5004
        31.2504
    835304.35948    679797.09845
                  22363454.7344                                   22363449.5704
                                                                        48.5004
        33.7504
    951799.65647    765342.91044
                  22708780.2504                                   22708777.4224
                                                                        43.5004
        29.5004
    966574.62147    773193.73844
                  23827880.6254                                   23827877.4414
                                                                        43.2504
        27.0004
   1602782.88747   1246720.78543
                  24401947.1024                                   24401944.6844
                                                                        42.2504
        21.0004
 09 10  1 23 11 30.0000000  0 10G02G04G12G13G17G20G23G30G31G32
    461230.64548    394842.96946
                  22420207.6954                                   22420203.2234
                                                                        49.5004
        37.0004
    846964.38348    683531.07447
                  20688884.6484                                   20688881.8754
                                                                        51.5004
        42.2504
   1195833.06647    943314.50846
                  22668583.6644                                   22668581.0084
                                                                        46.5004
        36.0004
    370857.80946    362998.46143
                  24028358.9144                                   24028356.1214
                                                                        39.7504
        23.5004
   1621888.79347   1261163.27745
                  23049048.5314                                   23049045.3284
                                                                        47.5004
        34.0004
   1494547.73847   1166114.59845
                  22390769.2194                                   22390765.2854
                                                                        47.2504
        30.7504
    684933.41048    562624.77745
                  22334840.3054                                   22334834.7344
                                                                        48.5004
        34.7504
    825362.56647    666820.51644
                  22684719.4384                                   22684717.2734
                                                                        44.5004
        29.7504
    842725.58247    676687.95744
                  23804312.5554                                   23804309.3984
                                                                        43.5004
        28.2504
   1606796.37147   1249848.24243
                  24402710.1414                                   24402707.3554
                                                                        43.7504
        20.7504
 09 10  1 23 12  0.0000000  0 10G02G04G12G13G17G20G23G30G31G32
    272709.64548    247943.50846
                  22384333.2274                                   22384328.3874
                                                                        49.5004
        37.2504
    724199.03948    587869.79747
                  20665523.2504                                   20665520.3714
                                                                        52.2504
        42.5004
   1132047.55147    893611.52746
                  22656446.1644                                   22656443.1604
                                                                        47.2504
        36.0004
    162039.95746    200283.34444
                  23988622.5864                                   23988619.7074
                                                                        40.5004
        25.7504
   1628853.68447   1266590.51645
                  23050373.7894                                   23050370.7734
                                                                        47.5004
        34.2504
   1480454.77347   1155133.01645
                  22388087.2114                                   22388083.5514
                                                                        47.7504
        30.7504
    534979.54348    445777.28945
                  22306305.4694                                   22306299.9494
                                                                        48.7504
        34.5004
    699454.74247    568710.64544
                  22660760.1804                                   22660757.8984
                                                                        44.5004
        28.2504
    719323.21947    580530.27344
                  23780829.8054                                   23780826.7194
                                                                        42.7504
        27.5004
   1610854.43447   1253010.44543
                  24403483.0784                                   24403479.2154
                                                                        43.0004
        21.0004
 09 10  1 23 12 30.0000000  0 10G02G04G12G13G17G20G23G30G31G32
     84400.74248    101209.31346
                  22348499.2734                                   22348494.5664
                                                                        49.5004
        37.5004
    601906.67248    492577.01647
                  20642251.7424                                   20642249.2774
                                                                        52.0004
        42.5004
   1068774.18047    844307.61746
                  22644405.3204                                   22644402.3554
                                                                        47.0004
        36.5004
    -46642.16047     37673.95344
                  23948912.4774                                   23948908.5594
                                                                        42.0004
        26.0004
   1636010.48847   1272167.18445
                  23051735.8594                                   23051732.6604
                                                                        47.7504
        34.5004
   1466674.62547   1144395.23845
                  22385465.0634                                   22385461.4844
                                                                        47.5004
        30.7504
    385494.60248    329295.43845
                  22277859.6334                                   22277853.7774
                                                                        48.5004
        34.7504
    574125.74247    471051.82844
                  22636910.7814                                   22636908.3404
                                                                        44.5004
        28.5004
    596417.51647    484759.63744
                  23757441.9614                                   23757438.4344
                                                                        44.5004
        27.0004
   1615003.82846   1256243.80543
                  24404271.9614                                   24404269.1954
                                                                        41.2504
        22.0004
 09 10  1 23 13  0.0000000  0 10G02G04G12G13G17G20G23G30G31G32
   -103651.71148    -45325.08246
                  22312714.4774                                   22312709.4024
                                                                        51.2504
        37.5004
    480130.00848    397686.05946
                  20619078.4384                                   20619075.7154
                                                                        53.0004
        41.7504
   1006053.19948    795434.17246
                  22632469.7504                                   22632467.0394
                                                                        48.0004
        36.0004
   -255143.28147   -124794.45744
                  23909235.5784                                   23909232.0234
                                                                        42.0004
        24.2504
   1643399.40248   1277924.74245
                  23053142.6094                                   23053138.9024
                                                                        48.2504
        34.0004
   1453247.22747   1133932.34845
                  22382909.7344                                   22382906.5704
                                                                        47.7504
        30.7504
    236522.31347    213213.19145
                  22249510.5084                                   22249505.3554
                                                                        47.7504
        34.5004
    449419.23047    373878.16044
                  22613179.4694                                   22613177.2544
                                                                        45.7504
        28.5004
    474051.27747    389409.33644
                  23734156.1564                                   23734152.6374
                                                                        43.5004
        27.2504
   1619284.46946   1259579.35243
                  24405086.5004                                   24405084.1914
                                                                        40.7504
        21.5004
 09 10  1 23 13 30.0000000  0 10G02G04G12G13G17G20G23G30G31G32
   -291418.24648   -191636.70746
                  22276983.2274                                   22276979.0354
                                                                        50.7504
        38.0004
    358898.03148    303219.53946
                  20596008.7504                                   20596005.8134
                                                                        49.7504
        41.5004
    943911.36747    747012.02046
                  22620644.7664                                   22620641.7344
                                                                        47.5004
        36.5004
   -463431.98046   -287097.28143
                  23869598.9384                                   23869595.5744
                                                                        41.5004
        23.0004
   1651046.34047   1283883.57445
                  23054597.4384                                   23054594.0004
                                                                        47.7504
        34.5004
   1440198.25047   1123764.32045
                  22380426.7664                                   22380423.8954
                                                                        47.5004
        32.0004
     88092.77347     97554.04345
                  22221265.3754                                   22221260.1414
                                                                        47.5004
        34.0004
    325363.62147    277211.64144
                  22589572.3674                                   22589570.3284
                                                                        42.7504
        29.0004
    352253.85947    294502.26244
                  23710979.1564                                   23710975.8834
                                                                        43.7504
        28.0004
   1623722.42646   1263037.40243
                  24405930.4064                                   24405929.4734
                                                                        38.0004
        21.2504
 09 10  1 23 14  0.0000000  0 10G02G04G12G13G17G20G23G30G31G32
   -478879.62548   -337710.49246
                  22241310.6804                                   22241306.0394
                                                                        50.5004
        37.7504
    238227.89848    209190.85547
                  20573045.8984                                   20573043.1884
                                                                        52.0004
        42.0004
    882363.66447    699052.73045
                  22608932.5314                                   22608929.3204
                                                                        47.5004
        35.7504
   -671488.98846   -449219.60943
                  23830006.8134                                   23830003.5474
                                                                        40.7504
        21.7504
   1658965.10547   1290054.15245
                  23056103.7664                                   23056100.3634
                                                                        47.2504
        33.0004
   1427541.55547   1113901.93845
                  22378018.0634                                   22378014.9494
                                                                        47.7504
        30.5004
    -59776.23848    -17668.32445
                  22193126.9384                                   22193121.0434
                                                                        48.0004
        34.5004
    201976.71947    181066.14544
                  22566092.6094                                   22566089.9734
                                                                        44.0004
        29.7504
    231042.54746    200051.80144
                  23687913.3364                                   23687910.2304
                                                                        41.7504
        27.0004
   1628332.22746   1266629.45343
                  24406808.2034                                   24406806.6844
                                                                        40.0004
        22.5004
 09 10  1 23 14 30.0000000  0 10G02G04G12G13G17G20G23G30G31G32
   -666016.39548   -483531.30546
                  22205699.6334                                   22205695.3324
                                                                        51.5004
        38.0004
    118137.75448    115614.14847
                  20550193.4774                                   20550190.6254
                                                                        53.0004
        42.2504
    821426.59047    651569.25446
                  22597336.7894                                   22597333.7544
                                                                        47.0004
        36.2504
   -879293.61346   -611145.35243
                  23790463.9844                                   23790460.0004
                                                                        40.0004
        21.5004
   1667171.35947   1296448.68845
                  23057665.3204                                   23057662.0554
                                                                        47.0004
        32.5004
   1415292.59447   1104357.25045
                  22375687.5314                                   22375683.5204
                                                                        46.7504
        31.0004
   -207065.35947   -132438.99645
                  22165098.4384                                   22165092.6844
                                                                        47.5004
        34.0004
     79277.06647     85456.25845
                  22542743.3754                                   22542740.7344
                                                                        45.7504
        30.0004
    110436.02347    106072.66844
                  23664962.6644                                   23664959.7424
                                                                        43.5004
        27.5004
   1633129.17647   1270367.34843
                  24407721.7584                                   24407719.6334
                                                                        42.2504
        22.5004
 09 10  1 23 15  0.0000000  0 10G02G04G12G13G17G20G23G30G31G32
   -852813.35548   -629087.37546
                  22170153.2584                                   22170148.6094
                                                                        50.5004
        37.7504
     -1358.80548     22499.89847
                  20527454.2424                                   20527451.4534
                                                                        51.7504
        42.5004
    761112.04747    604570.87946
                  22585859.4774                                   22585856.1724
                                                                        47.5004
        36.0004
  -1086829.76246   -772861.84444
                  23750971.2664                                   23750967.0084
                                                                        40.5004
        24.5004
   1675675.37547   1303075.19145
                  23059283.5704                                   23059280.2704
                                                                        47.5004
        34.2504
   1403462.19547   1095138.75044
                  22373436.1644                                   22373432.8054
                                                                        47.0004
        29.5004
   -353759.28947   -246745.83245
                  22137183.2664                                   22137178.0234
                                                                        47.7504
        34.0004
    -42721.16047     -9607.16844
                  22519527.7664                                   22519525.4534
                                                                        44.0004
        29.5004
     -9551.77347     12575.65644
                  23642129.6174                                   23642126.7504
                                                                        42.7504
        28.2504
   1638124.23447   1274259.62943
                  24408672.1484                                   24408670.0514
                                                                        42.2504
        22.5004
 09 10  1 23 15 30.0000000  0 10G02G04G12G13G17G20G23G30G31G32
  -1039259.50848   -774370.04346
                  22134673.6094                                   22134669.0204
                                                                        51.2504
        37.5004
   -120251.93448    -70144.11347
                  20504829.7194                                   20504826.8714
                                                                        51.2504
        42.2504
    701427.37947    558063.31645
                  22574501.6954                                   22574498.5314
                                                                        47.5004
        35.5004
  -1294084.83646   -934359.24644
                  23711531.6094                                   23711528.1724
                                                                        41.0004
        25.5004
   1684483.28947   1309938.47745
                  23060959.8284                                   23060956.4844
                                                                        47.2504
        34.2504
   1392056.85547   1086251.48444
                  22371265.8204                                   22371262.1884
                                                                        46.5004
        28.5004
   -499847.80948   -360581.03545
                  22109383.6484                                   22109378.3164
                                                                        48.5004
        34.7504
   -164008.21547   -104116.47345
                  22496447.8984                                   22496445.7114
                                                                        45.5004
        30.0004
   -128910.93047    -80431.50044
                  23619416.1174                                   23619413.3634
                                                                        44.0004
        28.2504
   1643324.00846   1278311.32443
                  24409661.8284                                   24409659.4454
                                                                        41.0004
        22.0004
 09 10  1 23 16  0.0000000  0 10G02G04G12G13G17G20G23G30G31G32
  -1225340.35948   -919368.07446
                  22099263.8914                                   22099259.0744
                                                                        51.5004
        38.0004
   -238528.37148   -162307.57847
                  20482322.0474                                   20482319.5944
                                                                        52.5004
        42.2504
    642384.08647    512055.58645
                  22563265.8914                                   22563262.8914
                                                                        47.5004
        35.7504
  -1501043.14546  -1095625.41044
                  23672148.3134                                   23672145.1524
                                                                        41.2504
        25.2504
   1693606.36747   1317047.44145
                  23062696.0554                                   23062692.9384
                                                                        47.2504
        34.5004
   1381087.26247   1077703.87944
                  22369178.0554                                   22369174.8204
                                                                        46.7504
        28.7504
   -645315.78948   -473932.77745
                  22081701.9694                                   22081696.2234
                                                                        48.7504
        34.2504
   -284569.99247   -198060.59045
                  22473505.8834                                   22473502.8444
                                                                        45.2504
        30.0004
   -247627.67247   -172938.07444
                  23596825.4614                                   23596821.9344
                                                                        42.2504
        27.5004
   1648739.90646   1282531.46943
                  24410692.0234                                   24410690.2624
                                                                        39.5004
        18.5004
 09 10  1 23 16 30.0000000  0 10G02G04G12G13G17G20G23G30G31G32
  -1411052.58248  -1064078.89146
                  22063923.9454                                   22063918.9964
                                                                        51.0004
        38.0004
   -356186.42248   -253989.12947
                  20459932.8054                                   20459930.0744
                                                                        51.5004
        42.0004
    583982.00447    466547.44946
                  22552152.6334                                   22552149.2774
                                                                        47.5004
        36.5004
  -1707700.88746  -1256657.42644
                  23632822.8834                                   23632819.3834
                                                                        41.2504
        26.7504
   1703043.25047   1324401.03545
                  23064491.4614                                   23064488.0594
                                                                        46.7504
        33.0004
   1370551.55147   1069494.20344
                  22367173.4384                                   22367169.6844
                                                                        47.0004
        29.7504
   -790161.01247   -586799.40245
                  22054138.8754                                   22054133.8714
                                                                        47.2504
        34.5004
   -404404.74247   -291438.28144
                  22450701.4924                                   22450698.8754
                                                                        45.0004
        29.5004
   -365699.95747   -264942.39544
                  23574356.9924                                   23574353.2464
                                                                        44.0004
        27.2504
   1654370.34446   1286918.79743
                  24411763.5704                                   24411760.9694
                                                                        39.2504
        19.0004
 09 10  1 23 17  0.0000000  0 10G02G04G12G13G17G20G23G30G31G32
  -1596387.48848  -1208495.70746
                  22028655.7504                                   22028650.8984
                                                                        50.7504
        38.0004
   -473218.77048   -345183.08247
                  20437662.0704                                   20437659.7584
                                                                        52.2504
        42.2504
    526226.03947    421542.78146
                  22541161.7194                                   22541158.9804
                                                                        47.2504
        36.0004
  -1914047.95747  -1417447.17644
                  23593556.2274                                   23593552.7894
                                                                        43.0004
        25.5004
   1712797.91847   1332002.17245
                  23066347.5554                                   23066344.0634
                                                                        46.5004
        32.0004
   1360454.09847   1061626.03545
                  22365252.1954                                   22365248.4884
                                                                        46.5004
        31.2504
   -934374.41848   -699173.62545
                  22026696.1414                                   22026690.7934
                                                                        48.5004
        34.5004
   -523504.54347   -384243.24245
                  22428037.5004                                   22428035.4494
                                                                        45.2504
        30.2504
   -483120.46147   -356438.90244
                  23552012.3834                                   23552008.5124
                                                                        43.5004
        27.7504
   1660220.32046   1291477.30942
                  24412876.4454                                   24412873.7774
                                                                        38.0004
        17.2504
 09 10  1 23 17 30.0000000  0 10G02G04G12G13G17G20G23G30G31G32
  -1781338.89148  -1352613.66046
                  21993460.4774                                   21993455.9454
                                                                        51.2504
        38.5004
   -589620.73048   -435885.92247
                  20415511.4454                                   20415508.9414
                                                                        51.5004
        42.0004
    469119.04347    377043.80946
                  22530294.8834                                   22530291.7974
                                                                        47.0004
        36.0004
  -2120076.95347  -1577989.28944
                  23554350.4924                                   23554346.3754
                                                                        42.5004
        24.0004
   1722872.27347   1339852.21945
                  23068264.6724                                   23068261.2584
                                                                        46.0004
        33.2504
   1350797.35947   1054101.24645
                  22363414.3984                                   22363411.3914
                                                                        47.5004
        30.7504
  -1077949.26247   -811050.10545
                  21999374.4384                                   21999369.6604
                                                                        47.7504
        34.5004
   -641864.39147   -476471.65645
                  22405514.3444                                   22405511.7934
                                                                        45.0004
        30.5004
   -599883.85947   -447423.35944
                  23529793.3984                                   23529789.6024
                                                                        43.2504
        26.7504
   1666292.04346   1296208.50843
                  24414031.9224                                   24414029.9654
                                                                        37.2504
        20.0004
 09 10  1 23 18  0.0000000  0 10G02G04G12G13G17G20G23G30G31G32
   -390472.94548   -268821.99646
                  22258133.7344                                   22258129.1604
                                                                        51.5004
        38.2504
    870037.66848    701510.25447
                  20693275.1954                                   20693272.4264
                                                                        51.5004
        42.0004
   1988086.96948   1560655.21146
                  22819345.0944                                   22819341.6564
                                                                        48.0004
        36.0004
   -750353.02047   -510671.96144
                  23815000.0004                                   23814995.8874
                                                                        42.7504
        24.2504
   3308688.89547   2575553.34845
                  23370035.3204                                   23370032.3634
                                                                        46.2504
        32.2504
   2917003.81347   2274521.78144
                  22661453.8914                                   22661450.4534
                                                                        46.5004
        29.7504
    354545.38347    305179.55945
                  22271969.4064                                   22271964.1334
                                                                        47.0004
        35.0004
    815945.81347    659484.38745
                  22682926.0784                                   22682923.6254
                                                                        43.7504
        30.5004
    859439.94147    689712.09444
                  23807493.2814                                   23807489.9144
                                                                        43.2504
        28.2504
   3248008.35246   2528714.72343
                  24715023.4304                                   24715020.8284
                                                                        38.5004
        21.5004
 09 10  1 23 18 30.0000000  0 10G02G04G12G13G17G20G23G30G31G32
   -574637.22748   -412326.64846
                  22223088.5474                                   22223083.8444
                                                                        51.0004
        39.0004
    754911.66048    611801.66447
                  20671367.3754                                   20671364.7934
                                                                        52.5004
        42.0004
   1932287.12947   1517174.82446
                  22808726.4384                                   22808722.8364
                                                                        47.7504
        36.0004
   -955723.87547   -670701.28143
                  23775918.4384                                   23775915.3444
                                                                        42.0004
        22.5004
   3319409.43047   2583906.92645
                  23372075.8594                                   23372072.3054
                                                                        46.0004
        33.0004
   2908234.03947   2267688.32444
                  22659784.6414                                   22659781.0314
                                                                        46.5004
        29.5004
    212264.43447    194311.37945
                  22244894.3524                                   22244889.0824
                                                                        46.5004
        34.5004
    699081.36347    568421.14545
                  22660687.5394                                   22660685.4494
                                                                        45.2504
        30.2504
    744006.17247    599763.70744
                  23785526.9534                                   23785523.5824
                                                                        43.0004
        27.2504
   3254530.19146   2533796.69943
                  24716264.2114                                   24716261.8284
                                                                        41.0004
        23.7504
 09 10  1 23 19  0.0000000  0 10G02G04G12G13G17G20G23G30G31G32
   -758404.54348   -555521.98046
                  22188118.7504                                   22188113.7854
                                                                        50.7504
        39.0004
    640425.02748    522591.23047
                  20649581.3914                                   20649578.4414
                                                                        50.2504
        42.0004
   1877139.30948   1474202.47345
                  22798232.1644                                   22798229.4184
                                                                        48.0004
        35.7504
  -1160760.38747   -830470.08644
                  23736901.9924                                   23736898.4804
                                                                        42.5004
        25.7504
   3330450.01247   2592509.88345
                  23374177.2504                                   23374173.6604
                                                                        47.2504
        33.7504
   2899905.04347   2261198.41044
                  22658199.5234                                   22658195.9104
                                                                        46.5004
        28.2504
     70633.84447     83949.99245
                  22217942.6334                                   22217937.6024
                                                                        47.5004
        35.2504
    582966.51247    477941.90645
                  22638591.4924                                   22638589.4384
                                                                        43.2504
        30.5004
    629239.29347    510334.96944
                  23763687.4064                                   23763683.7464
                                                                        43.7504
        26.5004
   3261274.69146   2539052.11343
                  24717547.2504                                   24717545.2934
                                                                        39.7504
        22.7504
 09 10  1 23 19 30.0000000  0 10G02G04G12G13G17G20G23G30G31G32
   -941768.76248   -698403.15646
                  22153225.2424                                   22153221.0234
                                                                        51.0004
        38.0004
    526582.61748    433882.89847
                  20627917.8674                                   20627915.2734
                                                                        50.0004
        42.0004
   1822645.87548   1431740.05546
                  22787862.4064                                   22787859.2624
                                                                        48.0004
        36.2504
  -1365454.85247   -989972.27744
                  23697950.3834                                   23697946.8244
                                                                        43.0004
        25.7504
   3341812.36347   2601363.48845
                  23376339.4304                                   23376335.9344
                                                                        47.0004
        33.2504
   2892018.37947   2255053.14544
                  22656698.3674                                   22656694.9534
                                                                        46.7504
        29.2504
    -70340.66047    -25900.20345
                  22191116.1484                                   22191110.4774
                                                                        47.5004
        34.5004
    467606.74247    388051.21145
                  22616639.4534                                   22616637.2424
                                                                        43.2504
        30.7504
    515144.02047    421429.55544
                  23741976.1724                                   23741972.2304
                                                                        44.2504
        27.5004
   3268244.17646   2544482.94943
                  24718874.0164                                   24718871.4384
                                                                        39.7504
        22.0004
 09 10  1 23 20  0.0000000  0 10G02G04G12G13G17G20G23G30G31G32
  -1124725.55948   -840966.89146
                  22118410.0944                                   22118405.3594
                                                                        51.7504
        38.0004
    413387.02748    345678.60247
                  20606377.5554                                   20606374.9494
                                                                        52.2504
        42.0004
   1768807.48448   1389788.07446
                  22777617.4224                                   22777614.1334
                                                                        49.0004
        36.5004
  -1569802.13347  -1149203.94144
                  23659064.1484                                   23659060.5904
                                                                        43.0004
        26.2504
   3353496.65647   2610468.10245
                  23378562.3444                                   23378559.4344
                                                                        45.5004
        31.0004
   2884573.10547   2249251.66844
                  22655281.6884                                   22655277.9804
                                                                        46.2504
        28.5004
   -210655.39548   -135236.31645
                  22164415.2424                                   22164409.6644
                                                                        48.7504
        35.0004
    353004.62547    298750.92245
                  22594831.4224                                   22594829.0354
                                                                        44.0004
        31.7504
    401723.13347    333049.60944
                  23720393.1804                                   23720389.4264
                                                                        43.2504
        28.5004
   3275438.62546   2550089.09043
                  24720242.2664                                   24720240.5474
                                                                        36.7504
        20.0004
 09 10  1 23 20 30.0000000  0 10G02G04G12G13G17G20G23G30G31G32
  -1307272.26648   -983211.05146
                  22083672.6174                                   22083667.6524
                                                                        51.0004
        38.7504
    300839.18048    257978.98446
                  20584960.3594                                   20584957.6804
                                                                        50.5004
        41.7504
   1715623.04347   1348345.70746
                  22767496.4774                                   22767493.4224
                                                                        47.7504
        36.2504
  -1773798.59047  -1308162.27044
                  23620245.1724                                   23620241.6214
                                                                        42.5004
        26.0004
   3365501.27747   2619822.29745
                  23380846.6724                                   23380844.2854
                                                                        44.5004
        31.5004
   2877568.66847   2243793.78944
                  22653949.0474                                   22653945.4384
                                                                        46.5004
        29.5004
   -350307.61347   -244056.18445
                  22137840.0004                                   22137834.7464
                                                                        46.7504
        35.2504
    239160.67647    210041.30145
                  22573167.7974                                   22573164.9224
                                                                        46.2504
        30.7504
    288978.06647    245196.33244
                  23698938.2114                                   23698934.4654
                                                                        43.7504
        28.7504
   3282856.52046   2555869.23443
                  24721653.2034                                   24721652.4344
                                                                        37.2504
        18.2504
 09 10  1 23 21  0.0000000  0 10G02G04G12G13G17G20G23G30G31G32
  -1489404.95748  -1125132.61346
                  22049013.5784                                   22049008.8204
                                                                        51.0004
        38.7504
    188941.49648    170785.99247
                  20563667.0704                                   20563664.2854
                                                                        51.7504
        42.2504
   1663093.27348   1307413.50846
                  22757500.4224                                   22757497.4654
                                                                        48.7504
        36.2504
  -1977439.55547  -1466843.58244
                  23581492.8984                                   23581489.6134
                                                                        42.0004
        25.0004
   3377825.32047   2629425.50845
                  23383192.0084                                   23383188.7074
                                                                        45.5004
        31.7504
   2871003.47747   2238677.96144
                  22652699.7274                                   22652695.7114
                                                                        46.5004
        28.7504
   -489294.79748   -352357.82845
                  22111391.5084                                   22111386.0004
                                                                        48.0004
        34.5004
    126078.43847    121925.27045
                  22551648.8204                                   22551646.1024
                                                                        46.0004
        30.5004
    176911.41447    157871.64844
                  23677612.7734                                   23677609.5784
                                                                        44.2504
        27.5004
   3290497.55946   2561823.30542
                  24723107.3444                                   24723106.0634
                                                                        39.5004
        17.2504
 09 10  1 23 21 30.0000000  0  9G02G04G12G13G17G20G23G30G31
  -1671124.99248  -1266732.65246
                  22014433.8834                                   22014428.9654
                                                                        51.0004
        39.2504
     77690.79748     84097.14147
                  20542496.6724                                   20542494.2734
                                                                        50.0004
        42.5004
   1611212.59847   1266986.97746
                  22747627.6884                                   22747624.6764
                                                                        47.0004
        36.0004
  -2180725.03546  -1625247.84044
                  23542809.3134                                   23542805.9454
                                                                        40.7504
        24.5004
   3390462.77047   2639272.81345
                  23385597.1804                                   23385593.3134
                                                                        45.7504
        31.0004
   2864872.29747   2233900.27744
                  22651533.4304                                   22651529.8754
                                                                        46.5004
        29.0004
   -627617.96947   -460142.14545
                  22085069.6484                                   22085064.1374
                                                                        47.5004
        34.5004
     13754.70747     34400.21944
                  22530274.6334                                   22530271.7734
                                                                        43.5004
        29.2504
     65520.44147     71073.43844
                  23656415.9774                                   23656412.5044
                                                                        43.2504
        28.2504
 09 10  1 23 22  0.0000000  0  9G02G04G12G13G17G20G23G30G31
  -1852432.47748  -1408011.14846
                  21979932.1804                                   21979927.2814
                                                                        51.0004
        39.0004
    -32914.59048     -2088.85947
                  20521449.0234                                   20521446.6524
                                                                        50.5004
        42.0004
   1559977.38347   1227063.51645
                  22737878.6254                                   22737874.9964
                                                                        47.5004
        35.7504
  -2383654.20346  -1783374.39144
                  23504193.1954                                   23504189.8754
                                                                        41.0004
        25.2504
   3403409.52747   2649361.35545
                  23388060.9144                                   23388057.6644
                                                                        43.7504
        32.0004
   2859170.40247   2229457.21144
                  22650448.1174                                   22650444.6484
                                                                        45.7504
        29.0004
   -765278.09848   -567409.75445
                  22058874.1564                                   22058868.3554
                                                                        48.0004
        35.5004
    -97812.41447    -52535.27745
                  22509043.8914                                   22509041.7584
                                                                        43.7504
        30.5004
    -45196.66847    -15199.62544
                  23635346.3984                                   23635343.2734
                                                                        42.5004
        28.2504
 09 10  1 23 22 30.0000000  0  9G02G04G12G13G17G20G23G30G31
  -2033312.57048  -1548956.59046
                  21945511.4844                                   21945506.4534
                                                                        51.0004
        38.7504
   -142861.46948    -87761.71147
                  20500526.6174                                   20500524.1604
                                                                        50.0004
        42.5004
   1509398.84448   1187651.68445
                  22728253.2894                                   22728250.5394
                                                                        48.0004
        35.7504
  -2586211.04747  -1941210.84044
                  23465648.0004                                   23465643.8554
                                                                        42.2504
        27.2504
   3416676.34447   2659699.31345
                  23390585.0784                                   23390582.0164
                                                                        44.5004
        32.5004
   2853908.32447   2225356.89144
                  22649446.5554                                   22649443.9414
                                                                        45.7504
        28.7504
   -902260.98448   -674149.76645
                  22032806.7894                                   22032801.1524
                                                                        48.0004
        35.2504
   -208608.76247   -138870.08645
                  22487960.2664                                   22487957.4924
                                                                        43.7504
        30.0004
   -155226.33247   -100937.01644
                  23614408.1884                                   23614404.8984
                                                                        43.0004
        29.0004
 09 10  1 23 23  0.0000000  0  9G02G04G12G13G17G20G23G30G31
  -2213761.98048  -1689566.48046
                  21911173.1804                                   21911168.1454
                                                                        51.0004
        38.0004
   -252147.82448   -172919.86347
                  20479730.3444                                   20479727.7504
                                                                        50.7504
        42.0004
   1459476.91047   1148751.51246
                  22718753.5944                                   22718750.5864
                                                                        46.7504
        36.0004
  -2788390.94147  -2098753.53144
