     2.11           OBSERVATION DATA    G (GPS)             RINEX VERSION / TYPE
teqc  2019Feb25                         20221121 12:28:07UTCPGM / RUN BY / DATE
OSX ker:10.11.6|Core i5|gcc 4.3 -m64|OSX ker:10.10+|=+      COMMENT
BIT 2 OF LLI FLAGS DATA COLLECTED UNDER A/S CONDITION       COMMENT
04712801                                                    MARKER NAME
2801                                                        MARKER NUMBER
-Unknown-           -Unknown-                               OBSERVER / AGENCY
0220400471          TRIMBLE R7          2.30                REC # / TYPE / VERS
-Unknown-           TRM39105.00     NONE                    ANT # / TYPE
  1449461.1358 -1709240.7211  5952444.2218                  APPROX POSITION XYZ
        0.0000        0.0000        0.0000                  ANTENNA: DELTA H/E/N
     1     1                                                WAVELENGTH FACT L1/2
    20    L1    L2    L5    L6    L7    L8    C1    P1    C2# / TYPES OF OBSERV
          P2    C5    C6    C7    C8    S1    S2    S5    S6# / TYPES OF OBSERV
          S7    S8                                          # / TYPES OF OBSERV
    30.0000                                                 INTERVAL
    15                                                      LEAP SECONDS
Forced Modulo Decimation to 30 seconds                      COMMENT
 SNR is mapped to RINEX snr flag value [0-9]                COMMENT
  L1 & L2: min(max(int(snr_dBHz/6), 0), 9)                  COMMENT
teqc edited: Beidou # 1 - 37 excluded                       COMMENT
  2009    10     7    23    10    0.0000000     GPS         TIME OF FIRST OBS
                                                            END OF HEADER
 09 10  7 23 10  0.0000000  0  9G02G04G12G13G17G20G23G30G31
   -325162.89158   -199354.31656
                  21578648.1094                                   21578642.3874
                                                                        52.2504
        40.5004
   -180305.16858   -110993.82857
                  20463753.1564                                   20463749.3594
                                                                        51.0004
        42.2504
    -69256.53957    -42832.00455
                  22968999.2814                                   22968995.2544
                                                                        45.5004
        34.5004
   -367453.71157   -224057.98054
                  22986222.5084                                   22986218.0354
                                                                        46.5004
        28.7504
     34833.87557     20163.84455
                  23881084.3284                                   23881080.8134
                                                                        45.7504
        31.5004
      4966.95757      2005.22354
                  23059219.1884                                   23059214.2774
                                                                        44.7504
        27.5004
   -231996.92258   -145621.47756
                  21875599.5784                                   21875592.8794
                                                                        48.5004
        36.2504
   -169977.14157   -109161.32055
                  22451049.1094                                   22451045.8524
                                                                        45.0004
        32.0004
   -180109.05957   -111511.94554
                  23576169.7114                                   23576165.1214
                                                                        42.7504
        28.5004
 09 10  7 23 10 30.0000000  0  9G02G04G12G13G17G20G23G30G31
   -499360.44948   -335092.65646
                  21545499.7734                                   21545493.5784
                                                                        51.7504
        40.5004
   -277299.18448   -186573.57847
                  20445295.9144                                   20445292.0704
                                                                        50.5004
        42.5004
   -107808.84447    -72872.77745
                  22961663.1954                                   22961658.7854
                                                                        46.0004
        34.2504
   -564059.79747   -377257.53144
                  22948809.8984                                   22948804.7934
                                                                        45.5004
        29.5004
     50724.61747     32546.49245
                  23884107.7344                                   23884104.5164
                                                                        44.5004
        30.0004
      5225.82047      2206.91044
                  23059268.7344                                   23059263.6414
                                                                        44.5004
        26.2504
   -356591.61748   -242708.23445
                  21851889.8444                                   21851883.3204
                                                                        48.0004
        35.7504
   -265668.09047   -183725.70745
                  22432839.5784                                   22432836.2194
                                                                        43.5004
        31.5004
   -277933.10246   -187738.48444
                  23557554.5784                                   23557549.8594
                                                                        41.5004
        28.5004
 09 10  7 23 11  0.0000000  0  9G02G04G12G13G17G20G23G30G31
   -673503.05148   -470788.19146
                  21512361.3054                                   21512355.3244
                                                                        52.5004
        40.2504
   -374053.13748   -261966.27746
                  20426884.3914                                   20426880.3094
                                                                        50.0004
        41.7504
   -146179.91847   -102772.31245
                  22954361.7664                                   22954357.2194
                                                                        46.5004
        34.5004
   -760636.52047   -530434.16044
                  22911402.0234                                   22911397.5744
                                                                        45.5004
        28.7504
     66450.85247     44800.62944
                  23887100.2974                                   23887096.8204
                                                                        44.0004
        29.0004
      5440.82847      2374.41044
                  23059309.2274                                   23059304.6604
                                                                        44.0004
        26.2504
   -480900.57848   -339572.35945
                  21828234.7034                                   21828227.9184
                                                                        49.5004
        35.7504
   -361006.36347   -258015.27045
                  22414697.6884                                   22414693.8914
                                                                        43.5004
        32.0004
   -375485.30547   -263753.20744
                  23538991.0314                                   23538986.1134
                                                                        43.2504
        28.5004
 09 10  7 23 11 30.0000000  0  9G02G04G12G13G17G20G23G30G31
   -847387.47348   -606282.54346
                  21479272.1024                                   21479266.0354
                                                                        52.7504
        40.2504
   -470366.05548   -337015.32447
                  20408556.4454                                   20408552.6914
                                                                        51.7504
        42.2504
   -184171.32047   -132376.03145
                  22947132.0004                                   22947127.1684
                                                                        45.5004
        33.7504
   -956979.99647   -683429.05544
                  22874038.8524                                   22874034.2114
                                                                        45.7504
        29.0004
     82211.94947     57081.93844
                  23890099.8134                                   23890095.8284
                                                                        43.5004
        28.0004
      5810.54347      2662.48044
                  23059379.3594                                   23059374.8324
                                                                        44.0004
        25.5004
   -604721.13748   -436055.91845
                  21804672.2814                                   21804665.2894
                                                                        48.0004
        35.5004
   -455790.89147   -331873.34845
                  22396660.9144                                   22396656.6804
                                                                        45.7504
        32.5004
   -472564.44547   -339399.29744
                  23520517.4224                                   23520512.2584
                                                                        44.5004
        28.5004
 09 10  7 23 12  0.0000000  0  9G02G04G12G13G17G20G23G30G31
  -1020908.78148   -741493.93746
                  21446251.9534                                   21446245.7114
                                                                        52.2504
        40.0004
   -566135.08648   -411640.54747
                  20390331.9534                                   20390328.2584
                                                                        52.5004
        42.2504
   -221682.37147   -161605.43745
                  22939993.3674                                   22939988.9614
                                                                        45.5004
        33.0004
  -1152984.11347   -836159.49644
                  22836740.7814                                   22836736.3324
                                                                        45.7504
        29.2504
     98108.19547     69468.34844
                  23893125.0394                                   23893121.0554
                                                                        44.7504
        29.0004
      6435.31647      3149.28544
                  23059498.4534                                   23059493.8714
                                                                        43.7504
        26.5004
   -727949.62548   -532078.11745
                  21781223.0704                                   21781216.0234
                                                                        49.5004
        35.7504
   -549919.12147   -405220.03545
                  22378748.7664                                   22378744.9224
                                                                        45.7504
        30.7504
   -569068.42047   -414597.21144
                  23502153.4224                                   23502148.3404
                                                                        43.7504
        28.0004
 09 10  7 23 12 30.0000000  0  9G02G04G12G13G17G20G23G30G31
  -1194006.49248   -876375.25846
                  21413312.7114                                   21413306.7734
                                                                        52.5004
        40.0004
   -661301.80948   -485796.44147
                  20372222.7974                                   20372218.9884
                                                                        49.5004
        43.0004
   -258656.44947   -190416.40245
                  22932957.5314                                   22932953.1174
                                                                        45.2504
        33.7504
  -1348587.35547   -988577.57044
                  22799518.5944                                   22799514.0784
                                                                        46.5004
        28.5004
    114196.10947     82004.33644
                  23896187.2814                                   23896182.5904
                                                                        45.7504
        28.2504
      7371.29747      3878.61744
                  23059676.8984                                   23059671.2034
                                                                        43.7504
        25.7504
   -850526.71948   -627592.72346
                  21757897.2814                                   21757890.5474
                                                                        48.2504
        36.0004
   -643332.75447   -478009.88745
                  22360972.6564                                   22360968.9654
                                                                        43.7504
        31.7504
   -664937.73047   -489300.59044
                  23483910.3594                                   23483905.4024
                                                                        43.5004
        28.7504
 09 10  7 23 13  0.0000000  0  9G02G04G12G13G17G20G23G30G31
  -1366635.93748  -1010891.71546
                  21380462.4304                                   21380456.2234
                                                                        52.5004
        40.0004
   -755823.51248   -559449.71946
                  20354235.4844                                   20354231.9304
                                                                        50.5004
        41.7504
   -295053.03947   -218777.41045
                  22926031.4614                                   22926027.1914
                                                                        45.5004
        34.7504
  -1543743.96947  -1140647.66844
                  22762382.0004                                   22762376.8324
                                                                        46.2504
        29.2504
    130516.48447     94721.75444
                  23899292.2974                                   23899288.1604
                                                                        44.7504
        28.7504
      8659.09047      4882.08644
                  23059921.3834                                   23059916.8634
                                                                        43.5004
        25.5004
   -972408.79748   -722565.76246
                  21734703.5004                                   21734696.8984
                                                                        48.7504
        36.0004
   -735989.40647   -550209.87945
                  22343340.5634                                   22343336.7154
                                                                        44.0004
        32.5004
   -760129.90647   -563476.32844
                  23465796.0944                                   23465791.4884
                                                                        42.7504
        28.7504
 09 10  7 23 13 30.0000000  0  9G02G04G12G13G17G20G23G30G31
     36655.75448     82582.33246
                  21647500.1724                                   21647493.8054
                                                                        52.7504
        40.5004
    725747.69948    595021.34847
                  20636169.2114                                   20636165.7074
                                                                        49.7504
        42.0004
   1244571.84447    980930.28545
                  23219012.6094                                   23219008.3054
                                                                        46.5004
        34.0004
   -162999.33247    -64742.76644
                  23025128.8444                                   23025124.1134
                                                                        46.7504
        29.7504
   1722510.48447   1335236.47344
                  24202238.2274                                   24202234.5904
                                                                        43.2504
        26.7504
   1585741.09047   1233777.15644
                  23360030.1484                                   23360025.2854
                                                                        42.0004
        27.0004
    481854.15247    410626.14545
                  22011440.7504                                   22011433.8834
                                                                        47.0004
        35.0004
    747558.78147    605801.68445
                  22625650.8284                                   22625646.9534
                                                                        46.2504
        31.5004
    720802.94547    590497.29344
                  23747607.6724                                   23747603.0434
                                                                        42.7504
        28.5004
 09 10  7 23 14  0.0000000  0  9G02G04G12G13G17G20G23G30G31
   -134966.83248    -51149.55946
                  21614841.7194                                   21614835.0204
                                                                        52.2504
        40.7504
    632579.80948    522422.98447
                  20618440.4144                                   20618436.1094
                                                                        49.5004
        42.5004
   1209387.98847    953514.28545
                  23212317.4694                                   23212313.3164
                                                                        47.5004
        35.0004
   -357189.31247   -216059.62945
                  22988175.7194                                   22988171.3134
                                                                        47.2504
        30.7504
   1739351.70747   1348359.62144
                  24205442.5864                                   24205439.7464
                                                                        42.7504
        27.7504
   1587789.36747   1235373.19544
                  23360420.1954                                   23360415.0784
                                                                        42.7504
        26.0004
    361429.16048    316788.47745
                  21988524.4844                                   21988517.8754
                                                                        48.5004
        35.7504
    656479.24247    534830.60545
                  22608318.6954                                   22608315.0664
                                                                        44.0004
        31.2504
    627028.07847    517425.93844
                  23729762.8594                                   23729758.4414
                                                                        42.0004
        28.0004
 09 10  7 23 14 30.0000000  0  9G02G04G12G13G17G20G23G30G31
   -306066.37948   -184473.88346
                  21582282.3444                                   21582276.2424
                                                                        52.5004
        40.5004
    540105.04748    450364.71947
                  20600842.7034                                   20600839.0824
                                                                        50.7504
        42.5004
   1174823.23447    926580.70345
                  23205739.8054                                   23205735.7114
                                                                        46.0004
        34.2504
   -550874.87947   -366983.42645
                  22951318.3754                                   22951314.0274
                                                                        46.5004
        30.2504
   1756465.03547   1361693.89144
                  24208699.7424                                   24208696.9224
                                                                        43.5004
        29.0004
   1590230.94547   1237275.71944
                  23360884.3284                                   23360879.7194
                                                                        42.0004
        26.2504
    241750.61347    223532.45745
                  21965750.4304                                   21965743.7894
                                                                        47.7504
        35.2504
    566204.46547    464486.60245
                  22591139.1414                                   22591136.3444
                                                                        47.7504
        31.5004
    533979.25047    444920.34044
                  23712056.7424                                   23712052.1914
                                                                        43.7504
        28.5004
 09 10  7 23 15  0.0000000  0  9G02G04G12G13G17G20G23G30G31
   -476631.93448   -317382.10546
                  21549824.4924                                   21549818.6524
                                                                        53.0004
        39.7504
    448332.68448    378853.78547
                  20583378.8364                                   20583374.9454
                                                                        50.5004
        42.2504
   1140884.77747    900135.14545
                  23199281.6094                                   23199277.8204
                                                                        45.0004
        33.7504
   -744043.80547   -517504.63344
                  22914559.1334                                   22914554.9534
                                                                        46.0004
        29.0004
   1773860.10947   1375248.52344
                  24212010.4534                                   24212006.9804
                                                                        43.7504
        28.5004
   1593072.75446   1239490.06644
                  23361425.5004                                   23361420.8834
                                                                        41.0004
        26.2504
    122828.56348    130865.91846
                  21943120.3054                                   21943114.1524
                                                                        48.5004
        36.2504
    476743.24647    394776.55145
                  22574116.2424                                   22574112.3524
                                                                        46.5004
        31.2504
    441664.91047    372987.05144
                  23694489.5164                                   23694485.0744
                                                                        43.7504
        29.2504
 09 10  7 23 15 30.0000000  0  9G02G04G12G13G17G20G23G30G31
   -646655.53948   -449868.02346
                  21517470.2344                                   21517463.9384
                                                                        52.2504
        40.0004
    357268.30548    307894.52746
                  20566049.8134                                   20566046.4184
                                                                        51.2504
        41.7504
   1107576.47347    874180.61745
                  23192942.9384                                   23192938.6254
                                                                        45.5004
        33.5004
   -936687.26247   -667616.39844
                  22877900.5944                                   22877895.9734
                                                                        46.5004
        29.7504
   1791539.88747   1389025.24244
                  24215373.8754                                   24215371.1564
                                                                        43.5004
        29.2504
   1596318.32047   1242019.05544
                  23362043.0474                                   23362038.8594
                                                                        42.0004
        25.7504
      4670.14148     38794.43045
                  21920636.0704                                   21920628.5554
                                                                        48.5004
        35.5004
    388101.25847    325704.85545
                  22557248.1254                                   22557244.6374
                                                                        47.0004
        31.7504
    350090.44147    301630.30544
                  23677063.8754                                   23677059.0124
                                                                        43.5004
        29.0004
 09 10  7 23 16  0.0000000  0  9G02G04G12G13G17G20G23G30G31
   -816136.78548   -581931.32846
                  21485219.0004                                   21485213.1024
                                                                        52.7504
        40.5004
    266910.27748    237485.68046
                  20548855.5004                                   20548851.5044
                                                                        51.0004
        41.5004
   1074894.62147    848714.23445
                  23186724.1174                                   23186720.1684
                                                                        45.2504
        33.5004
  -1128803.86347   -817317.64545
                  22841342.0394                                   22841336.8094
                                                                        47.7504
        30.0004
   1809499.97347   1403020.39544
                  24218792.1484                                   24218788.6764
                                                                        44.0004
        28.0004
   1599963.66047   1244859.57044
                  23362737.0784                                   23362732.4024
                                                                        42.5004
        26.2504
   -112725.97348    -52683.05946
                  21898295.9384                                   21898289.1374
                                                                        48.0004
        36.0004
    300276.57047    257270.02345
                  22540535.7584                                   22540532.1914
                                                                        46.5004
        31.7504
    259254.41047    230848.95744
                  23659778.0164                                   23659773.8164
                                                                        44.2504
        28.5004
 09 10  7 23 16 30.0000000  0  9G02G04G12G13G17G20G23G30G31
   -985067.80548   -713565.88346
                  21453072.3524                                   21453066.5124
                                                                        52.7504
        40.0004
    177264.20348    167631.59047
                  20531796.5704                                   20531792.4104
                                                                        52.0004
        42.2504
   1042842.46147    823738.51645
                  23180624.5314                                   23180620.4304
                                                                        45.0004
        33.7504
  -1320384.56647   -966601.28945
                  22804885.6724                                   22804880.8404
                                                                        47.7504
        30.5004
   1827742.27047   1417234.89144
                  24222263.8444                                   24222260.4104
                                                                        43.7504
        28.0004
   1604012.33247   1248014.38744
                  23363507.3984                                   23363502.1884
                                                                        42.5004
        25.0004
   -229353.03148   -143561.28945
                  21876102.6564                                   21876095.5164
                                                                        49.7504
        35.5004
    213274.08647    189475.87545
                  22523979.5164                                   22523976.1884
                                                                        46.5004
        31.2504
    169162.25447    160647.25044
                  23642633.9384                                   23642629.7734
                                                                        43.7504
        29.0004
 09 10  7 23 17  0.0000000  0  9G02G04G12G13G17G20G23G30G31
  -1153447.19948   -844770.59046
                  21421031.0394                                   21421024.7624
                                                                        52.2504
        40.5004
     88329.22748     98331.62147
                  20514872.4924                                   20514868.6054
                                                                        51.2504
        42.7504
   1011417.05147    799251.18445
                  23174644.4694                                   23174640.0824
                                                                        45.5004
        34.0004
  -1511427.20347  -1115465.66444
                  22768531.3594                                   22768526.6764
                                                                        47.7504
        29.5004
   1846265.75847   1431668.71144
                  24225788.1414                                   24225784.9804
                                                                        42.2504
        27.2504
   1608461.49646   1251481.26644
                  23364354.2194                                   23364348.5234
                                                                        41.2504
        24.7504
   -345210.58248   -233839.89145
                  21854055.7504                                   21854048.6644
                                                                        49.5004
        35.5004
    127093.29747    122322.01245
                  22507580.1174                                   22507576.6254
                                                                        46.2504
        31.0004
     79813.38746     91024.73044
                  23625631.9844                                   23625626.6914
                                                                        41.2504
        29.2504
 09 10  7 23 17 30.0000000  0  9G02G04G12G13G17G20G23G30G31
  -1321272.18748   -975543.30546
                  21389094.9144                                   21389088.9414
                                                                        52.5004
        40.7504
       106.19148     29586.40647
                  20498084.2274                                   20498080.1414
                                                                        51.2504
        42.5004
    980617.37147    775251.43045
                  23168783.5164                                   23168779.2034
                                                                        45.2504
        34.0004
  -1701927.69147  -1263907.58244
                  22732279.9844                                   22732275.6954
                                                                        47.2504
        29.7504
   1865068.88747   1446320.57444
                  24229366.5554                                   24229362.3324
                                                                        43.0004
        26.0004
   1613309.86746   1255259.21544
                  23365276.7034                                   23365270.9614
                                                                        41.2504
        24.0004
   -460297.22348   -323517.79345
                  21832155.5234                                   21832148.6024
                                                                        49.7504
        35.7504
     41734.52347     55808.68045
                  22491336.5394                                   22491333.0784
                                                                        44.0004
        31.5004
     -8791.35247     21982.07044
                  23608770.6564                                   23608765.5274
                                                                        43.5004
        28.5004
 09 10  7 23 18  0.0000000  0  9G02G04G12G13G17G20G23G30G31
  -1488536.77748  -1105879.34846
                  21357265.3594                                   21357259.2584
                                                                        52.7504
        40.5004
    -87401.16848    -38601.14847
                  20481432.2584                                   20481428.1294
                                                                        50.7504
        42.0004
    950445.04347    751740.50445
                  23163042.1024                                   23163037.9384
                                                                        46.0004
        33.2504
  -1891879.02347  -1411921.58245
                  22696133.2814                                   22696129.0824
                                                                        47.2504
        30.0004
   1884153.32447   1461191.78144
                  24232997.6884                                   24232994.0434
                                                                        43.7504
        28.7504
   1618558.91046   1259349.38344
                  23366275.3524                                   23366270.2814
                                                                        40.5004
        24.5004
   -574608.41848   -412591.46145
                  21810402.5784                                   21810396.2464
                                                                        50.5004
        35.5004
    -42798.89547    -10061.53145
                  22475250.3914                                   22475246.7194
                                                                        44.5004
        31.0004
    -96648.44147    -46478.01244
                  23592052.5004                                   23592047.0704
                                                                        44.2504
        28.7504
 09 10  7 23 18 30.0000000  0  8G02G04G12G13G20G23G30G31
  -1655242.13748  -1235779.62546
                  21325542.2814                                   21325536.1524
                                                                        52.5004
        40.5004
   -174196.63348   -106233.97347
                  20464915.3984                                   20464911.8134
                                                                        52.0004
        43.0004
    920894.25447    728713.91445
                  23157418.7664                                   23157414.7424
                                                                        45.0004
        33.0004
  -2081281.46547  -1559507.89545
                  22660091.4064                                   22660086.7074
                                                                        47.0004
        30.5004
   1624202.92646   1263747.29344
                  23367349.4694                                   23367344.6644
                                                                        41.0004
        26.2504
   -688146.43748   -501062.64846
                  21788796.8594                                   21788789.8914
                                                                        49.5004
        36.5004
   -126510.52747    -75291.37545
                  22459320.2974                                   22459317.1094
                                                                        46.2504
        30.5004
   -183761.53547   -114358.36744
                  23575474.7114                                   23575470.0824
                                                                        43.0004
        29.0004
 09 10  7 23 19  0.0000000  0  8G02G04G12G13G20G23G30G31
  -1821382.57848  -1365239.69946
                  21293926.8204                                   21293920.7544
                                                                        52.7504
        40.5004
   -260276.34048   -173309.07047
                  20448534.8594                                   20448531.2974
                                                                        52.2504
        42.0004
    891966.59047    706172.87545
                  23151914.0394                                   23151909.7034
                                                                        46.2504
        33.7504
  -2270128.50447  -1706661.40245
                  22624154.6024                                   22624150.1484
                                                                        46.2504
        30.5004
   1630243.54346   1268454.21944
                  23368499.9694                                   23368494.4884
                                                                        40.2504
        26.2504
   -800906.69548   -588927.78146
                  21767339.8754                                   21767332.3204
                                                                        50.0004
        36.0004
   -209397.43047   -139878.59045
                  22443547.6254                                   22443544.1414
                                                                        47.5004
        31.2504
   -270127.05947   -181656.20745
                  23559040.0634                                   23559035.0004
                                                                        43.5004
        30.0004
 09 10  7 23 19 30.0000000  0  8G02G04G12G13G20G23G30G31
  -1986953.26648  -1494255.81646
                  21262419.8364                                   21262413.4494
                                                                        52.2504
        40.7504
   -345637.91448   -239824.59047
                  20432291.4304                                   20432287.5904
                                                                        52.0004
        42.2504
    863662.59047    684117.78945
                  23146527.8054                                   23146523.8014
                                                                        45.5004
        33.5004
  -2458413.92647  -1853377.29345
                  22588325.4774                                   22588320.6644
                                                                        46.2504
        31.5004
   1636681.60246   1273470.85944
                  23369724.2894                                   23369719.6954
                                                                        40.7504
        27.0004
   -912885.78948   -676184.22345
                  21746030.4064                                   21746023.9734
                                                                        50.0004
        35.7504
   -291457.24647   -203821.31245
                  22427932.2734                                   22427928.2154
                                                                        44.0004
        31.0004
   -355742.27747   -248369.39144
                  23542747.8054                                   23542743.1214
                                                                        42.2504
        28.0004
 09 10  7 23 20  0.0000000  0  8G02G04G12G13G20G23G30G31
  -2151949.30948  -1622824.16046
                  21231022.3594                                   21231015.7304
                                                                        52.2504
        41.0004
   -430278.83248   -305778.55147
                  20416184.8364                                   20416180.7894
                                                                        50.7504
        42.2504
    835982.72347    662549.05545
                  23141260.6094                                   23141256.4024
                                                                        45.5004
        34.0004
  -2646132.04347  -1999651.13345
                  22552604.1174                                   22552599.0744
                                                                        47.2504
        30.5004
   1643517.10546   1278797.21144
                  23371025.1804                                   23371020.4104
                                                                        40.7504
        25.7504
  -1024080.49247   -762829.45746
                  21724870.7424                                   21724864.3054
                                                                        47.2504
        36.0004
   -372687.80947   -267117.84445
                  22412474.5004                                   22412471.0124
                                                                        46.2504
        32.0004
   -440604.79347   -314496.06244
                  23526599.2424                                   23526594.4304
                                                                        42.2504
        29.0004
 09 10  7 23 20 30.0000000  0  8G02G04G12G13G20G23G30G31
  -2316379.14848  -1750951.30546
                  21199732.1644                                   21199726.3324
                                                                        52.5004
        41.0004
   -514209.13348   -371178.79347
                  20400213.6024                                   20400209.3364
                                                                        51.0004
        42.5004
    808914.57047    641456.96945
                  23136109.8674                                   23136105.2274
                                                                        45.7504
        33.5004
  -2833289.91847  -2145488.45345
                  22516989.1954                                   22516983.7854
                                                                        47.2504
        30.7504
   1650738.06646   1284423.94144
                  23372399.1724                                   23372394.3984
                                                                        40.5004
        24.7504
  -1134499.92248   -848870.57446
                  21703858.7344                                   21703852.2774
                                                                        48.2504
        36.5004
   -453099.53547   -329776.32045
                  22397172.6334                                   22397168.9734
                                                                        47.0004
        31.0004
   -524725.28147   -380044.53144
                  23510592.1024                                   23510586.8054
                                                                        43.7504
        27.7504
 09 10  7 23 21  0.0000000  0  8G02G04G12G13G20G23G30G31
  -2480242.80148  -1878637.26646
                  21168549.7894                                   21168544.0204
                                                                        52.7504
        40.7504
   -597431.78148   -436027.60547
                  20384376.4064                                   20384372.9414
                                                                        52.0004
        42.0004
    782453.42647    620837.89845
                  23131074.3914                                   23131069.8634
                                                                        46.0004
        33.0004
  -3019887.05947  -2290888.82445
                  22481480.3984                                   22481476.0864
                                                                        47.5004
        30.5004
   1658339.85746   1290347.36943
                  23373845.6094                                   23373841.3054
                                                                        40.5004
        22.5004
  -1244145.91848   -934309.01245
                  21682993.6644                                   21682986.8874
                                                                        49.5004
        35.7504
   -532695.57847   -391799.21145
                  22382026.1884                                   22382022.9344
                                                                        45.7504
        31.7504
   -608106.35547   -445016.81644
                  23494724.6954                                   23494720.0274
                                                                        42.7504
        28.2504
 09 10  7 23 21 30.0000000  0  8G02G04G12G13G20G23G30G31
  -1068119.58248   -778281.50446
                  21437267.8204                                   21437261.8794
                                                                        51.7504
        40.5004
    895468.94548    727271.66447
                  20668466.1954                                   20668462.3364
                                                                        52.5004
        42.0004
   2332011.01247   1828285.36345
                  23425945.2814                                   23425941.0274
                                                                        45.7504
        32.7504
  -1630501.08247  -1208250.37545
                  22745871.7194                                   22745867.2424
                                                                        45.5004
        30.2504
   3241733.22746   2524160.38343
                  23675155.4774                                   23675150.2664
                                                                        40.5004
        22.0004
    222398.91848    208453.18045
                  21962068.2814                                   21962061.5434
                                                                        49.2504
        35.7504
    963939.23047    774409.73045
                  22666825.9614                                   22666822.9454
                                                                        46.5004
        30.5004
    884667.52347    718183.59444
                  23778790.5944                                   23778785.3484
                                                                        43.5004
        28.5004
 09 10  7 23 22  0.0000000  0  8G02G04G12G13G20G23G30G31
  -1230863.63748   -905095.03946
                  21406298.6644                                   21406293.0784
                                                                        52.5004
        40.5004
    813642.41448    663510.72747
                  20652895.0634                                   20652890.9804
                                                                        52.0004
        42.5004
   2306738.46947   1808592.47345
                  23421135.9224                                   23421131.4884
                                                                        47.0004
        32.2504
  -1815986.11347  -1352784.14845
                  22710575.1884                                   22710571.0744
                                                                        46.2504
        31.0004
   3250071.53146   2530657.75443
                  23676742.1174                                   23676736.7934
                                                                        41.5004
        22.2504
    114282.98048    124206.98446
                  21941494.7664                                   21941488.1914
                                                                        50.0004
        36.2504
    885953.94947    713641.96545
                  22651986.2034                                   22651982.8094
                                                                        46.5004
        31.5004
    802745.84847    654348.48845
                  23763201.5164                                   23763196.8794
                                                                        43.0004
        30.2504
 09 10  7 23 22 30.0000000  0  8G02G04G12G13G20G23G30G31
  -1393050.84848  -1031474.68446
                  21375435.7424                                   21375429.7934
                                                                        52.5004
        41.0004
    732507.37548    600288.62147
                  20637455.8984                                   20637451.8754
                                                                        52.7504
        42.2504
   2282050.55947   1789355.12945
                  23416438.4694                                   23416434.1454
                                                                        46.2504
        33.0004
  -2000916.53547  -1496885.75845
                  22675384.5944                                   22675379.7974
                                                                        47.5004
        32.0004
   3258768.30147   2537434.42644
                  23678397.1254                                   23678392.2814
                                                                        42.7504
        24.0004
      6926.88748     40552.87546
                  21921064.9144                                   21921058.7504
                                                                        51.0004
        36.5004
    808767.03547    653496.32045
                  22637297.8284                                   22637295.1094
                                                                        47.0004
        31.5004
    721547.28147    591076.85944
                  23747749.0704                                   23747744.9064
                                                                        44.5004
        28.0004
 09 10  7 23 23  0.0000000  0  8G02G04G12G13G20G23G30G31
  -1554683.51248  -1157422.21546
                  21344677.9614                                   21344671.7074
                                                                        52.7504
        41.0004
    652059.32448    537601.82447
                  20622146.7814                                   20622142.8874
                                                                        53.0004
        42.0004
   2257940.87947   1770568.34845
                  23411850.1254                                   23411846.2704
                                                                        46.5004
        32.5004
  -2185293.67248  -1640556.25845
                  22640299.0234                                   22640293.9654
                                                                        48.0004
        33.0004
   3267817.60247   2544485.78944
                  23680119.3594                                   23680114.6214
                                                                        42.0004
        25.0004
    -99672.79348    -42511.81246
                  21900779.7814                                   21900773.3484
                                                                        50.0004
        36.5004
    732373.44147    593968.84445
                  22622761.0474                                   22622757.4694
                                                                        47.0004
        31.7504
    641067.11747    528365.00444
                  23732434.4304                                   23732429.8954
                                                                        44.2504
        28.0004
 09 10  7 23 23 30.0000000  0  8G02G04G12G13G20G23G30G31
  -1715758.66048  -1282935.30546
                  21314026.5474                                   21314020.6094
                                                                        52.2504
        41.5004
    572299.18848    475451.07446
                  20606969.2194                                   20606965.2774
                                                                        52.0004
        41.7504
   2234408.14547   1752231.13745
                  23407371.9614                                   23407368.2344
                                                                        46.2504
        33.2504
  -2369113.48847  -1783792.45745
                  22605318.9144                                   22605313.9304
                                                                        47.2504
        32.0004
   3277218.27747   2551810.96944
                  23681908.2734                                   23681903.7894
                                                                        42.5004
        25.2504
   -205514.68048   -124986.01246
                  21880638.8984                                   21880632.4964
                                                                        49.7504
        36.2504
    656773.41047    535059.71145
                  22608374.3134                                   22608371.1374
                                                                        45.2504
        30.5004
    561305.97347    466213.48844
                  23717256.0394                                   23717251.8674
                                                                        45.0004
        28.0004
 09 10  7 23 24  0.0000000  0  8G02G04G12G13G20G23G30G31
  -1876283.14148  -1408019.32446
                  21283479.5554                                   21283473.4734
                                                                        52.0004
        41.2504
    493217.37948    413828.89847
                  20591920.1804                                   20591916.6024
                                                                        52.0004
        42.2504
   2211440.64147   1734334.35245
                  23403001.3674                                   23402997.1954
                                                                        46.2504
        32.2504
  -2552382.15647  -1926599.19945
                  22570443.4454                                   22570439.2074
                                                                        47.0004
        31.5004
   3286958.77346   2559400.93443
                  23683761.2504                                   23683756.7854
                                                                        40.0004
        23.5004
   -310607.40248   -206876.44545
                  21860640.9454                                   21860633.7074
                                                                        49.5004
        35.7504
    581956.97747    476761.19545
                  22594137.4064                                   22594134.3594
                                                                        44.7504
        31.5004
    482254.31647    404614.72344
                  23702213.5784                                   23702208.8014
                                                                        45.0004
        29.5004
 09 10  7 23 24 30.0000000  0  8G02G04G12G13G20G23G30G31
  -2036255.45348  -1532673.06646
                  21253038.0944                                   21253032.0354
                                                                        51.5004
        41.5004
    414813.16848    352734.71147
                  20577000.4144                                   20576997.1024
                                                                        52.5004
        42.7504
   2189035.66047   1716875.87945
                  23398737.7734                                   23398733.9844
                                                                        45.5004
        31.5004
  -2735096.93047  -2068974.34045
                  22535673.9534                                   22535669.9344
                                                                        46.2504
        32.0004
   3297036.84046   2567253.94543
                  23685679.1414                                   23685674.7624
                                                                        41.2504
        22.7504
   -414950.65648   -288182.88345
                  21840784.6564                                   21840778.1524
                                                                        50.0004
        35.7504
    507923.35247    419072.64545
                  22580048.9924                                   22580045.8404
                                                                        47.2504
        31.0004
    403911.36347    343568.23844
                  23687305.5704                                   23687300.8244
                                                                        45.0004
        29.2504
 09 10  7 23 25  0.0000000  0  8G02G04G12G13G20G23G30G31
  -2195676.16448  -1656896.99646
                  21222701.1254                                   21222695.6844
                                                                        51.2504
        41.2504
    337083.57048    292166.18447
                  20562208.8834                                   20562205.4774
                                                                        53.0004
        42.5004
   2167188.44947   1699852.04345
                  23394580.9064                                   23394576.7584
                                                                        46.2504
        32.2504
  -2917257.32047  -2210917.48845
                  22501010.0394                                   22501005.7304
                                                                        47.2504
        31.5004
   3307447.55546   2575366.18043
                  23687660.6804                                   23687655.8874
                                                                        38.2504
        22.7504
   -518546.40248   -368906.84045
                  21821071.1484                                   21821064.6764
                                                                        50.5004
        35.7504
    434669.32047    361991.56645
                  22566109.4694                                   22566106.1564
                                                                        46.2504
        31.7504
    326274.12947    283071.66444
                  23672531.6024                                   23672527.3834
                                                                        44.5004
        29.5004
 09 10  7 23 25 30.0000000  0  8G02G04G12G13G20G23G30G31
  -2354545.16048  -1780691.01646
                  21192469.4224                                   21192463.7664
                                                                        51.2504
        40.7504
    260026.53548    232121.73847
                  20547545.3834                                   20547541.7544
                                                                        52.2504
        42.2504
   2145894.82847   1683259.57445
                  23390528.8984                                   23390524.0044
                                                                        47.0004
        31.5004
  -3098862.13747  -2352427.72345
                  22466451.9924                                   22466447.8794
                                                                        47.2504
        32.0004
   3318186.96546   2583734.53143
                  23689703.5164                                   23689699.0124
