     2.11           OBSERVATION DATA    G (GPS)             RINEX VERSION / TYPE
teqc  2019Feb25                         20221121 12:28:02UTCPGM / RUN BY / DATE
OSX ker:10.11.6|Core i5|gcc 4.3 -m64|OSX ker:10.10+|=+      COMMENT
BIT 2 OF LLI FLAGS DATA COLLECTED UNDER A/S CONDITION       COMMENT
04712780                                                    MARKER NAME
2780                                                        MARKER NUMBER
-Unknown-           -Unknown-                               OBSERVER / AGENCY
0220400471          TRIMBLE R7          2.30                REC # / TYPE / VERS
-Unknown-           TRM39105.00     NONE                    ANT # / TYPE
  1449460.7568 -1709239.8610  5952440.8517                  APPROX POSITION XYZ
        0.0000        0.0000        0.0000                  ANTENNA: DELTA H/E/N
     1     1                                                WAVELENGTH FACT L1/2
    20    L1    L2    L5    L6    L7    L8    C1    P1    C2# / TYPES OF OBSERV
          P2    C5    C6    C7    C8    S1    S2    S5    S6# / TYPES OF OBSERV
          S7    S8                                          # / TYPES OF OBSERV
    30.0000                                                 INTERVAL
    15                                                      LEAP SECONDS
Forced Modulo Decimation to 30 seconds                      COMMENT
 SNR is mapped to RINEX snr flag value [0-9]                COMMENT
  L1 & L2: min(max(int(snr_dBHz/6), 0), 9)                  COMMENT
teqc edited: Beidou # 1 - 37 excluded                       COMMENT
  2009    10     5     0     0    0.0000000     GPS         TIME OF FIRST OBS
                                                            END OF HEADER
 09 10  5  0  0  0.0000000  0  8G02G04G12G13G29G23G30G31
 -15611098.54748 -12092610.22747
                  20882862.6884                                   20882857.2504
                                                                        51.2504
        42.0004
  -7472592.26248  -5778117.03946
                  20942202.7664                                   20942199.7584
                                                                        52.5004
        41.2504
  -1767911.47747  -1358072.94544
                  24227179.1724                                   24227174.8324
                                                                        44.7504
        27.7504
 -17913601.37548 -13879346.14845
                  21970980.7584                                   21970976.8014
                                                                        50.0004
        35.0004
  -1523575.23846  -1143855.50044
                  24398061.3284                                   24398059.7034
                                                                        39.7504
        24.5004
 -10048618.25848  -7775585.89145
                  22003426.0704                                   22003420.1684
                                                                        48.0004
        35.7504
  -7050991.86747  -5454780.07044
                  23010430.8134                                   23010427.8954
                                                                        44.0004
        27.2504
  -7404657.83246  -5727092.72744
                  24070676.3204                                   24070671.4184
                                                                        40.7504
        25.2504
 09 10  5  0  0 30.0000000  0  8G02G04G12G13G29G23G30G31
 -15735112.69948 -12189244.63747
                  20859263.1564                                   20859257.6054
                                                                        51.0004
        42.2504
  -7512464.26248  -5809186.21146
                  20934615.8914                                   20934612.6844
                                                                        53.0004
        41.5004
  -1759286.33647  -1351352.17644
                  24228820.8834                                   24228815.8954
                                                                        44.5004
        27.5004
 -18059419.59048 -13992970.80545
                  21943232.4304                                   21943228.2304
                                                                        50.0004
        34.2504
  -1706586.28946  -1286461.23444
                  24363235.8284                                   24363232.5824
                                                                        40.5004
        24.0004
 -10109539.69148  -7823056.89845
                  21991832.9144                                   21991826.9804
                                                                        48.5004
        35.7504
  -7081903.27047  -5478866.94944
                  23004549.7664                                   23004546.5944
                                                                        44.2504
        28.0004
  -7442560.98847  -5756627.87144
                  24063463.5784                                   24063459.2814
                                                                        44.0004
        25.0004
 09 10  5  0  1  0.0000000  0  8G02G04G12G13G29G23G30G31
 -15858564.11348 -12285440.49246
                  20835771.7034                                   20835766.0904
                                                                        51.0004
        41.7504
  -7551769.82448  -5839813.91846
                  20927136.3524                                   20927132.8834
                                                                        51.5004
        41.5004
  -1750299.81247  -1344349.77344
                  24230530.6024                                   24230526.6414
                                                                        44.2504
        27.5004
 -18204630.37548 -14106122.07445
                  21915599.8444                                   21915595.6484
                                                                        49.7504
        34.5004
  -1889301.84847  -1428837.02744
                  24328466.5554                                   24328463.3244
                                                                        42.5004
        25.5004
 -10169794.00448  -7870008.21545
                  21980366.4694                                   21980360.7034
                                                                        48.5004
        35.0004
  -7112177.72347  -5502457.36744
                  22998788.0084                                   22998785.1684
                                                                        44.5004
        29.5004
  -7479881.54346  -5785708.56244
                  24056361.9844                                   24056357.2074
                                                                        40.5004
        27.2504
 09 10  5  0  1 30.0000000  0  8G02G04G12G13G29G23G30G31
 -15981454.96948 -12381199.62947
                  20812386.0784                                   20812380.6914
                                                                        51.0004
        42.7504
  -7590513.96148  -5870004.24246
                  20919763.5314                                   20919760.2074
                                                                        52.5004
        41.0004
  -1740957.51647  -1337070.07844
                  24232308.6724                                   24232304.8364
                                                                        43.2504
        27.7504
 -18349235.60948 -14218801.58245
                  21888082.3204                                   21888078.5354
                                                                        48.7504
        34.7504
  -2071722.55547  -1570983.22944
                  24293753.0084                                   24293750.1954
                                                                        42.5004
        26.0004
 -10229385.39548  -7916442.99645
                  21969026.7894                                   21969020.7424
                                                                        48.5004
        35.2504
  -7141821.00047  -5525556.02344
                  22993147.0864                                   22993144.1134
                                                                        45.0004
        29.2504
  -7516625.21547  -5814339.88744
                  24049369.5084                                   24049365.0904
                                                                        42.0004
        27.0004
 09 10  5  0  2  0.0000000  0  9G02G04G12G13G29G10G23G30G31
 -16103782.49248 -12476519.78547
                  20789108.1334                                   20789103.0514
                                                                        51.5004
        43.0004
  -7628696.47348  -5899756.98446
                  20912497.5234                                   20912494.3984
                                                                        52.5004
        41.0004
  -1731261.35947  -1329514.66844
                  24234153.6724                                   24234150.1524
                                                                        43.0004
        27.7504
 -18493231.23848 -14331005.98445
                  21860680.9614                                   21860677.0164
                                                                        49.2504
        34.0004
  -2253843.38346  -1712895.60244
                  24259096.0234                                   24259093.9884
                                                                        41.7504
        24.5004
   -254563.18057   -178501.36754
                  24211371.4694                                   24211368.1254
                                                                        43.0004
        26.5004
 -10288313.73448  -7962361.06645
                  21957812.8834                                   21957807.1174
                                                                        48.2504
        35.7504
  -7170834.40647  -5548164.00844
                  22987626.1094                                   22987623.2384
                                                                        44.0004
        29.5004
  -7552792.73046  -5842522.34844
                  24042487.0394                                   24042482.7664
                                                                        40.5004
        27.0004
 09 10  5  0  2 30.0000000  0  9G02G04G12G13G29G10G23G30G31
 -16225549.20748 -12571402.86747
                  20765936.3204                                   20765931.2814
                                                                        51.5004
        42.7504
  -7666322.43048  -5929075.97746
                  20905337.6954                                   20905334.5704
                                                                        52.5004
        41.5004
  -1721218.21147  -1321688.79344
                  24236065.1414                                   24236061.0744
                                                                        44.0004
        28.5004
 -18636619.44948 -14442737.07845
                  21833394.8134                                   21833391.3444
                                                                        48.5004
        34.5004
  -2435666.87946  -1854576.12943
                  24224495.8054                                   24224493.2974
                                                                        40.7504
        22.2504
   -455480.73447   -335060.48044
                  24173138.2114                                   24173135.3094
                                                                        42.5004
        25.5004
 -10346583.70748  -8007766.02745
                  21946724.4534                                   21946718.2664
                                                                        49.0004
        35.2504
  -7199223.50847  -5570285.42245
                  22982224.0944                                   22982221.3014
                                                                        44.5004
        30.0004
  -7588389.72746  -5870260.20344
                  24035712.6484                                   24035708.6024
                                                                        39.5004
        26.0004
 09 10  5  0  3  0.0000000  0  9G02G04G12G13G29G10G23G30G31
 -16346757.85948 -12665851.21547
                  20742871.4844                                   20742866.0314
                                                                        51.0004
        42.2504
  -7703396.81648  -5957965.16046
                  20898282.9384                                   20898279.4804
                                                                        53.0004
        41.5004
  -1710835.30147  -1313598.26244
                  24238040.8754                                   24238036.8674
                                                                        44.2504
        29.2504
 -18779401.55948 -14553995.79745
                  21806224.3524                                   21806220.8134
                                                                        49.5004
        35.0004
  -2617194.25846  -1996025.91844
                  24189952.3594                                   24189950.0164
                                                                        39.7504
        24.2504
   -656221.44147   -491481.80944
                  24134937.9844                                   24134935.0554
                                                                        43.2504
        25.2504
 -10404199.86748  -8052661.65645
                  21935760.6724                                   21935754.2114
                                                                        49.0004
        35.5004
  -7226994.23447  -5591924.96145
                  22976939.5704                                   22976935.9024
                                                                        45.0004
        30.0004
  -7623420.94547  -5897557.15644
                  24029046.2974                                   24029042.4224
                                                                        42.0004
        27.2504
 09 10  5  0  3 30.0000000  0  9G02G04G12G13G29G10G23G30G31
 -16467403.80548 -12759861.00447
                  20719913.0004                                   20719907.5594
                                                                        52.0004
        42.2504
  -7739918.38348  -5986423.56246
                  20891333.0084                                   20891329.8014
                                                                        53.0004
        41.5004
  -1700112.42247  -1305242.83644
                  24240082.0164                                   24240077.2544
                                                                        44.0004
        28.7504
 -18921572.77348 -14664778.52345
                  21779170.5704                                   21779166.5744
                                                                        50.0004
        35.0004
  -2798420.46947  -2137241.23044
                  24155466.4064                                   24155465.0864
                                                                        42.0004
        25.7504
   -856780.34046   -647761.43044
                  24096772.5864                                   24096769.7304
                                                                        41.5004
        24.0004
 -10461161.00848  -8097047.07845
                  21924921.0864                                   21924914.7154
                                                                        48.0004
        34.5004
  -7254146.70747  -5613082.94944
                  22971773.0704                                   22971769.2424
                                                                        45.5004
        28.0004
  -7657885.52346  -5924412.40244
                  24022487.8834                                   24022484.0664
                                                                        40.2504
        26.0004
 09 10  5  0  4  0.0000000  0  9G02G04G12G13G29G10G23G30G31
 -16587484.89148 -12853430.65646
                  20697062.6804                                   20697056.7774
                                                                        51.0004
        41.7504
  -7775887.39548  -6014451.52346
                  20884488.4384                                   20884485.3094
                                                                        53.2504
        41.5004
  -1689051.38347  -1296623.89144
                  24242186.2194                                   24242182.2304
                                                                        42.5004
        28.0004
 -19063130.14148 -14775082.92245
                  21752232.5554                                   21752228.4774
                                                                        48.7504
        35.2504
  -2979340.96147  -2278218.10244
                  24121039.0314                                   24121036.4964
                                                                        43.5004
        27.7504
  -1057154.64146   -803897.16844
                  24058642.6094                                   24058639.5704
                                                                        40.5004
        24.2504
 -10517467.44148  -8140922.71145
                  21914206.6414                                   21914200.5634
                                                                        49.2504
        34.5004
  -7280681.22347  -5633759.16844
                  22966723.0864                                   22966719.8444
                                                                        43.7504
        28.2504
  -7691785.16047  -5950827.69944
                  24016036.8364                                   24016033.0164
                                                                        42.0004
        25.7504
 09 10  5  0  4 30.0000000  0  9G02G04G12G13G29G10G23G30G31
 -16706997.43448 -12946557.30147
                  20674319.9774                                   20674314.1214
                                                                        52.0004
        42.2504
  -7811302.63348  -6042047.85246
                  20877749.2274                                   20877745.9144
                                                                        53.0004
        41.5004
  -1677652.23047  -1287741.43044
                  24244355.1254                                   24244351.1994
                                                                        42.2504
        27.2504
 -19204069.35248 -14884905.65645
                  21725413.0084                                   21725408.4774
                                                                        49.5004
        35.5004
  -3159951.46947  -2418953.40244
                  24086669.5944                                   24086667.0984
                                                                        43.0004
        28.2504
  -1257339.69947   -959885.45344
                  24020549.3754                                   24020546.4344
                                                                        43.7504
        27.2504
 -10573116.27348  -8184285.69545
                  21903617.4384                                   21903611.2544
                                                                        49.5004
        34.5004
  -7306597.90247  -5653953.92644
                  22961791.4304                                   22961788.1524
                                                                        44.0004
        28.0004
  -7725118.82447  -5976801.95344
                  24009693.9614                                   24009689.9224
                                                                        42.5004
        27.5004
 09 10  5  0  5  0.0000000  0  9G02G04G12G13G29G10G23G30G31
 -16825938.49648 -13039238.59047
                  20651686.5474                                   20651680.9654
                                                                        52.0004
        42.0004
  -7846163.30948  -6069212.10946
                  20871115.6884                                   20871112.2234
                                                                        52.5004
        41.0004
  -1665916.65646  -1278596.83644
                  24246588.2734                                   24246584.6054
                                                                        41.5004
        27.5004
 -19344386.59048 -14994243.67245
                  21698711.3204                                   21698707.5394
                                                                        49.5004
        35.5004
  -3340247.87146  -2559444.14144
                  24052359.7664                                   24052358.0234
                                                                        41.7504
        27.2504
  -1457331.10247  -1115722.89844
                  23982491.9304                                   23982488.3954
                                                                        43.2504
        27.2504
 -10628106.59048  -8227135.13345
                  21893153.1094                                   21893147.2814
                                                                        50.0004
        35.0004
  -7331897.18747  -5673667.60244
                  22956976.4224                                   22956973.7734
                                                                        45.0004
        27.7504
  -7757886.03546  -6002334.85244
                  24003458.6954                                   24003454.2974
                                                                        40.0004
        27.2504
 09 10  5  0  5 30.0000000  0  9G02G04G12G13G29G10G23G30G31
 -16944308.00048 -13131474.52347
                  20629161.4144                                   20629155.3714
                                                                        52.0004
        42.0004
  -7880472.52348  -6095946.58246
                  20864586.7344                                   20864583.6484
                                                                        53.0004
        41.5004
  -1653849.35947  -1269193.82444
                  24248884.7734                                   24248880.5664
                                                                        42.2504
        27.5004
 -19484080.96548 -15103096.44145
                  21672128.5084                                   21672124.1484
                                                                        49.5004
        35.0004
  -3520228.91446  -2699689.17643
                  24018109.9534                                   24018107.8984
                                                                        41.2504
        23.0004
  -1657128.37947  -1271409.08644
                  23944471.9774                                   23944468.7424
                                                                        44.0004
        26.7504
 -10682441.91448  -8269474.34045
                  21882813.3754                                   21882806.8914
                                                                        50.0004
        35.0004
  -7356583.15247  -5692903.39144
                  22952278.8134                                   22952275.8834
                                                                        44.5004
        28.5004
  -7790090.17647  -6027428.93744
                  23997330.3444                                   23997326.5664
                                                                        42.2504
        25.5004
 09 10  5  0  6  0.0000000  0  9G02G04G12G13G29G10G23G30G31
 -17062105.83248 -13223264.94547
                  20606744.7034                                   20606739.1524
                                                                        52.2504
        42.0004
  -7914233.02348  -6122253.52046
                  20858162.2664                                   20858159.1174
                                                                        53.0004
        41.7504
  -1641454.30547  -1259535.41444
                  24251243.4924                                   24251239.8404
                                                                        43.7504
        26.5004
 -19623152.04348 -15211463.54745
                  21645664.1024                                   21645660.1414
                                                                        50.2504
        35.2504
  -3699893.32446  -2839687.44143
                  23983921.1564                                   23983918.8634
                                                                        39.0004
        23.0004
  -1856730.75446  -1426943.34843
                  23906488.3054                                   23906485.1214
                                                                        41.0004
        22.5004
 -10736124.87948  -8311305.40245
                  21872598.0314                                   21872592.2234
                                                                        49.0004
        34.2504
  -7380659.69947  -5711664.34444
                  22947697.8444                                   22947694.3444
                                                                        44.0004
        29.0004
  -7821734.84447  -6052087.23844
                  23991309.1174                                   23991304.7034
                                                                        43.0004
        27.0004
 09 10  5  0  6 30.0000000  0  9G02G04G12G13G29G10G23G30G31
 -17179332.20748 -13314610.11747
                  20584437.5704                                   20584431.8364
                                                                        52.0004
        42.5004
  -7947446.83648  -6148134.40646
                  20851841.4614                                   20851838.6604
                                                                        53.0004
        41.5004
  -1628735.17247  -1249624.43444
                  24253664.4844                                   24253660.1954
                                                                        43.0004
        27.5004
 -19761598.96148 -15319344.35545
                  21619318.4064                                   21619314.4104
                                                                        49.5004
        35.2504
  -3879239.71946  -2979437.86744
                  23949792.5474                                   23949790.5984
                                                                        38.5004
        24.0004
  -2056137.43746  -1582325.16044
                  23868542.6954                                   23868539.3054
                                                                        40.5004
        24.5004
 -10789156.79348  -8352629.09845
                  21862506.0314                                   21862500.4414
                                                                        49.5004
        34.7504
  -7404129.55147  -5729952.44544
                  22943231.2584                                   22943228.5664
                                                                        44.2504
        28.5004
  -7852822.54347  -6076311.51644
                  23985393.1804                                   23985388.7234
                                                                        42.2504
        25.2504
 09 10  5  0  7  0.0000000  0  9G02G04G12G13G29G10G23G30G31
 -17295984.26248 -13405507.82847
                  20562239.2584                                   20562233.6724
                                                                        52.0004
        42.5004
  -7980113.92648  -6173589.20346
                  20845625.7584                                   20845622.2814
                                                                        53.0004
        41.2504
  -1615693.77047  -1239462.34044
                  24256145.7734                                   24256141.6764
                                                                        43.2504
        27.2504
 -19899417.91448 -15426735.76245
                  21593092.6024                                   21593088.5204
                                                                        49.5004
        35.2504
  -4058263.86746  -3118937.19944
                  23915725.9844                                   23915723.6484
                                                                        41.5004
        27.0004
  -2255344.18446  -1737551.16444
                  23830634.8914                                   23830631.5864
                                                                        41.0004
        26.5004
 -10841537.80548  -8393445.76245
                  21852538.8674                                   21852532.8284
                                                                        49.7504
        34.2504
  -7426994.14147  -5747768.94544
                  22938880.4844                                   22938877.2974
                                                                        43.7504
        29.0004
  -7883354.28546  -6100102.97344
                  23979582.7584                                   23979578.7114
                                                                        41.5004
        25.0004
 09 10  5  0  7 30.0000000  0  9G02G04G12G13G29G10G23G30G31
 -17412067.66448 -13495962.48847
                  20540149.2584                                   20540143.9654
                                                                        52.0004
        43.0004
  -8012242.62948  -6198624.51246
                  20839511.4844                                   20839508.3364
                                                                        53.0004
        41.0004
  -1602339.47347  -1229056.47344
                  24258686.8834                                   24258683.0864
                                                                        42.5004
        26.2504
 -20036613.98448 -15533641.75845
                  21566984.9844                                   21566980.9064
                                                                        49.5004
        35.5004
  -4236970.36346  -3258189.02344
                  23881719.1024                                   23881716.9534
                                                                        40.7504
        28.0004
  -2454356.07847  -1892625.27044
                  23792764.4774                                   23792760.9184
                                                                        42.5004
        27.5004
 -10893275.60948  -8433761.00045
                  21842693.1884                                   21842687.5824
                                                                        49.2504
        34.2504
  -7449263.04747  -5765121.44544
                  22934642.8444                                   22934639.8674
                                                                        44.0004
        27.7504
  -7913337.59047  -6123466.69944
                  23973877.3594                                   23973874.0704
                                                                        42.5004
        25.2504
 09 10  5  0  8  0.0000000  0  9G02G04G12G13G29G10G23G30G31
 -17527574.13348 -13585967.55147
                  20518169.4304                                   20518163.5474
                                                                        52.0004
        42.0004
  -8043828.03548  -6223236.58246
                  20833501.3914                                   20833497.9304
                                                                        53.2504
        41.2504
  -1588668.62147  -1218403.79744
                  24261288.5704                                   24261284.6174
                                                                        43.0004
        26.0004
 -20173178.92648 -15640056.09445
                  21540997.6564                                   21540993.2814
                                                                        48.7504
        34.7504
  -4415349.74647  -3397185.82844
                  23847775.8364                                   23847773.5864
                                                                        42.0004
        28.7504
  -2653164.14147  -2047540.59044
                  23754932.4384                                   23754929.5554
                                                                        42.0004
        28.7504
 -10944364.24248  -8473570.21945
                  21832971.3054                                   21832965.6134
                                                                        48.7504
        33.7504
  -7470931.48047  -5782006.02344
                  22930519.8984                                   22930516.5164
                                                                        44.0004
        28.2504
  -7942768.83646  -6146400.48444
                  23968276.8444                                   23968273.3954
                                                                        41.7504
        24.0004
 09 10  5  0  8 30.0000000  0  9G02G04G12G13G29G10G23G30G31
 -17642505.80948 -13675524.69947
                  20496298.5474                                   20496293.3444
                                                                        52.7504
        42.0004
  -8074874.12148  -6247428.26646
                  20827593.1414                                   20827590.0434
                                                                        53.0004
        41.0004
  -1574687.82047  -1207509.67244
                  24263948.9614                                   24263944.6884
                                                                        43.0004
        26.0004
 -20309113.65248 -15745979.29346
                  21515130.1644                                   21515125.8914
                                                                        50.0004
        36.0004
  -4593403.03146  -3535928.66444
                  23813892.3914                                   23813890.2664
                                                                        40.7504
        27.7504
  -2851769.39146  -2202297.88344
                  23717138.6954                                   23717135.1484
                                                                        41.0004
        27.0004
 -10994808.42248  -8512877.28145
                  21823372.0784                                   21823366.3874
                                                                        48.7504
        34.7504
  -7492004.79747  -5798426.77744
                  22926509.5784                                   22926506.2114
                                                                        44.5004
        29.2504
  -7971652.11747  -6168907.06643
                  23962780.4454                                   23962777.2304
                                                                        42.2504
        22.2504
 09 10  5  0  9  0.0000000  0  9G02G04G12G13G29G10G23G30G31
 -17756864.58248 -13764635.36747
                  20474536.8834                                   20474531.3524
                                                                        52.7504
        43.2504
  -8105385.21148  -6271203.04346
                  20821787.1954                                   20821783.6174
                                                                        52.2504
        41.0004
  -1560402.54747  -1196378.41044
                  24266667.4924                                   24266663.2034
                                                                        43.0004
        27.7504
 -20444418.94548 -15851412.03146
                  21489382.1644                                   21489378.7664
                                                                        50.0004
        36.2504
  -4771129.98046  -3674417.12144
                  23780072.0314                                   23780069.5864
                                                                        40.5004
        26.7504
  -3050172.45747  -2356897.66044
                  23679383.9304                                   23679380.3794
                                                                        42.0004
        25.7504
 -11044612.54348  -8551685.68445
                  21813894.6484                                   21813888.7624
                                                                        48.7504
        34.5004
  -7512488.77047  -5814388.38744
                  22922611.7344                                   22922608.5944
                                                                        45.5004
        28.7504
  -7999992.34046  -6190990.34043
                  23957388.2814                                   23957383.5594
                                                                        39.0004
        23.7504
 09 10  5  0  9 30.0000000  0  9G02G04G12G13G29G10G23G30G31
 -16295223.32448 -12625694.09447
                  20752677.7504                                   20752672.5554
                                                                        52.0004
        42.5004
  -6559939.82448  -5066959.83246
                  21115875.4304                                   21115872.6724
                                                                        50.7504
        41.0004
     29605.71947     42589.03544
                  24569236.5394                                   24569232.0314
                                                                        42.5004
        26.2504
 -19003666.65648 -14728747.92645
                  21763548.5864                                   21763544.6914
                                                                        50.0004
        35.5004
  -3373101.05946  -2585043.96944
                  24046108.3204                                   24046105.7974
                                                                        39.5004
        25.7504
  -1672942.56246  -1283731.48044
                  23941461.7424                                   23941458.9104
                                                                        40.5004
        25.2504
  -9518354.02348  -7362393.33245
                  22104332.2504                                   22104326.2664
                                                                        49.0004
        34.2504
  -5956963.25047  -4602290.69545
                  23218618.8134                                   23218615.8094
                                                                        44.0004
        30.0004
  -6452368.48046  -4985049.41444
                  24251890.8204                                   24251886.4104
                                                                        39.5004
        24.0004
 09 10  5  0 10  0.0000000  0  9G02G04G12G13G29G10G23G30G31
 -16408430.05948 -12713907.13747
                  20731135.3444                                   20731129.8244
                                                                        52.2504
        43.0004
  -6589383.25048  -5089902.69546
                  21110272.4144                                   21110269.5664
                                                                        52.0004
        41.0004
     44493.27746     54189.68044
                  24572068.7034                                   24572065.0904
                                                                        40.7504
        26.7504
 -19137705.82448 -14833194.06245
                  21738041.5394                                   21738037.9304
                                                                        50.0004
        35.7504
  -3550166.93046  -2723017.51244
                  24012413.9224                                   24012410.7424
                                                                        40.2504
        26.0004
  -1870932.50847  -1438009.29344
                  23903785.8834                                   23903782.5474
                                                                        43.0004
        25.7504
  -9566878.74648  -7400204.71545
                  22095097.8984                                   22095092.4024
                                                                        49.5004
        34.0004
  -5976272.94947  -4617337.09444
                  23214944.0004                                   23214940.8484
                                                                        45.0004
        28.5004
  -6479626.55147  -5006289.43444
                  24246703.9304                                   24246699.6294
                                                                        43.0004
        25.0004
 09 10  5  0 10 30.0000000  0  9G02G04G12G13G29G10G23G30G31
 -16521061.70348 -12801672.05947
                  20709702.4844                                   20709696.9304
                                                                        52.2504
        42.5004
  -6618297.50448  -5112433.26246
                  21104770.4384                                   21104767.1484
                                                                        50.5004
        41.5004
     59675.25846     66019.78944
                  24574957.9064                                   24574954.2194
                                                                        40.7504
        26.0004
 -19271111.58248 -14937146.51645
                  21712655.3134                                   21712651.6524
                                                                        50.2504
        35.7504
  -3726900.25046  -2860731.82444
                  23978782.3054                                   23978780.2774
                                                                        41.7504
        27.0004
  -2068715.11347  -1592125.51244
                  23866149.2274                                   23866146.1214
                                                                        43.2504
        28.2504
  -9614768.81248  -7437521.80545
                  22085984.9384                                   22085979.2154
                                                                        49.5004
        34.5004
  -5995002.20747  -4631931.39144
                  23211379.6724                                   23211377.1604
                                                                        45.2504
        28.5004
  -6506348.94946  -5027111.88744
                  24241618.8754                                   24241614.8594
                                                                        40.7504
        27.7504
 09 10  5  0 11  0.0000000  0  9G02G04G12G13G29G10G23G30G31
 -16633116.16848 -12888987.18047
                  20688378.8594                                   20688373.4224
                                                                        52.7504
        43.0004
  -6646683.23448  -5134551.95346
                  21099368.6334                                   21099365.4804
                                                                        52.2504
        41.0004
     75149.18846     78077.37544
                  24577903.3054                                   24577899.2034
                                                                        39.7504
        26.0004
 -19403881.15248 -15040603.23446
                  21687390.3754                                   21687386.1844
                                                                        49.2504
        36.2504
  -3903298.31247  -2998184.88744
                  23945215.3834                                   23945212.9104
                                                                        42.7504
        26.5004
  -2266287.38747  -1746077.89844
                  23828552.3204                                   23828548.7344
                                                                        43.2504
        27.0004
  -9662024.24648  -7474344.30945
                  22076992.5864                                   22076986.5204
                                                                        48.7504
        34.0004
  -6013152.67247  -4646074.68744
                  23207925.5164                                   23207922.6644
                                                                        44.5004
        27.5004
  -6532537.58247  -5047518.60944
                  24236635.8364                                   24236631.6724
                                                                        43.5004
        29.5004
 09 10  5  0 11 30.0000000  0  9G02G04G12G13G29G10G23G30G31
 -16744593.79748 -12975852.84447
                  20667165.3204                                   20667159.9534
                                                                        52.5004
        43.2504
  -6674543.35248  -5156261.10946
                  21094066.9534                                   21094064.0164
                                                                        50.0004
        41.5004
     90910.65646     90358.96544
                  24580901.9924                                   24580898.2894
                                                                        41.2504
        28.5004
 -19536014.62548 -15143564.31645
                  21662245.6564                                   21662241.9344
                                                                        50.7504
        35.7504
  -4079359.87547  -3135375.69544
                  23911711.5784                                   23911709.5234
                                                                        42.0004
        27.7504
  -2463648.64146  -1899865.74644
                  23790995.2734                                   23790992.4384
                                                                        41.5004
        28.7504
  -9708647.09848  -7510673.66845
                  22068120.6024                                   22068114.5474
                                                                        49.0004
        33.5004
  -6030727.97747  -4659769.84044
                  23204581.0004                                   23204578.2544
                                                                        43.7504
        26.5004
  -6558195.20746  -5067511.59844
                  24231752.7274                                   24231749.0354
                                                                        40.7504
        28.7504
 09 10  5  0 12  0.0000000  0  9G02G04G12G13G29G10G23G30G31
 -16855494.38348 -13062268.88347
                  20646061.6024                                   20646056.1914
                                                                        52.7504
        42.2504
  -6701880.55548  -5177562.86746
                  21088864.8524                                   21088861.7854
                                                                        53.0004
        41.0004
    106955.83647    102861.66844
                  24583955.4304                                   24583951.7344
                                                                        42.5004
        28.0004
 -19667511.11748 -15246029.03145
                  21637222.5394                                   21637219.0984
                                                                        50.0004
        35.5004
  -4255083.50446  -3272303.30944
                  23878272.4614                                   23878270.7734
                                                                        41.5004
        27.5004
  -2660797.89847  -2053488.44544
                  23753479.3134                                   23753476.7504
                                                                        42.7504
        28.5004
  -9754640.49648  -7546512.75045
                  22059368.5944                                   22059362.6174
                                                                        48.7504
        34.2504
  -6047731.71947  -4673019.55544
                  23201345.5314                                   23201342.6054
                                                                        43.2504
        26.2504
  -6583324.47747  -5087092.64844
                  24226970.8674                                   24226966.8284
                                                                        43.2504
        28.2504
 09 10  5  0 12 30.0000000  0  9G02G04G12G13G29G10G23G30G31
 -16965818.60248 -13148235.81247
                  20625067.8524                                   20625062.2234
                                                                        52.7504
        43.2504
  -6728697.41048  -5198459.12546
                  21083761.7274                                   21083758.5234
                                                                        52.7504
        41.0004
    123280.30147    115582.02344
                  24587062.2194                                   24587058.3014
                                                                        42.0004
        25.5004
 -19798370.22748 -15347997.09846
                  21612321.0784                                   21612317.0784
                                                                        50.5004
        36.0004
  -4430467.54746  -3408966.08244
                  23844897.9064                                   23844895.7504
                                                                        41.5004
        27.2504
  -2857733.94547  -2206945.06644
                  23716003.2034                                   23716000.3484
                                                                        42.5004
        28.7504
  -9800006.65248  -7581862.88345
                  22050735.1174                                   22050729.6724
                                                                        48.5004
        34.2504
  -6064168.03947  -4685827.07044
                  23198217.7504                                   23198214.7624
                                                                        44.0004
        26.5004
  -6607929.89146  -5106265.66044
                  24222288.4534                                   24222284.4384
                                                                        41.7504
        27.7504
 09 10  5  0 13  0.0000000  0  8G02G04G13G29G10G23G30G31
 -17075563.14548 -13233750.97347
                  20604183.8834                                   20604178.1644
                                                                        52.5004
        42.5004
  -6754993.48448  -5218949.58246
                  21078757.9844                                   21078754.7154
                                                                        51.2504
        40.7504
 -19928588.37948 -15449465.74646
                  21587541.3674                                   21587537.0234
                                                                        50.5004
        36.7504
  -4605508.20347  -3545361.45344
                  23811589.2194                                   23811586.4414
                                                                        43.7504
        28.2504
  -3054452.93746  -2360232.52044
                  23678568.9064                                   23678565.3054
                                                                        40.7504
        26.7504
  -9844745.67648  -7616724.45745
                  22042221.8134                                   22042215.9144
                                                                        48.7504
        34.2504
  -6080037.27347  -4698192.65644
                  23195197.8444                                   23195195.7504
                                                                        43.0004
        26.7504
  -6632010.60546  -5125029.78544
                  24217705.7424                                   24217702.4774
                                                                        38.5004
        25.0004
 09 10  5  0 13 30.0000000  0  8G02G04G13G29G10G23G30G31
 -17184727.97748 -13318814.50047
                  20583410.5394                                   20583405.0314
                                                                        52.5004
        42.5004
  -6780771.15248  -5239035.98446
                  21073852.3134                                   21073849.2464
                                                                        52.5004
        40.5004
 -20058164.64548 -15550434.16846
                  21562883.6334                                   21562879.6804
                                                                        51.0004
        36.5004
  -4780203.54747  -3681487.71144
                  23778345.9224                                   23778343.0634
                                                                        44.0004
        28.0004
  -3250953.93447  -2513350.13344
                  23641176.0164                                   23641172.2154
                                                                        42.5004
        25.7504
  -9888859.69148  -7651099.08645
                  22033827.4774                                   22033821.3754
                                                                        49.2504
        35.0004
  -6095343.52747  -4710119.64844
                  23192284.8834                                   23192282.6024
                                                                        42.0004
        26.5004
  -6655570.35946  -5143388.02344
                  24213222.7504                                   24213219.0354
                                                                        39.2504
        25.5004
 09 10  5  0 14  0.0000000  0  8G02G04G13G29G10G23G30G31
 -17293310.57848 -13403424.30947
                  20562748.1024                                   20562742.5044
                                                                        51.7504
        42.2504
  -6806031.16448  -5258719.10246
                  21069045.4844                                   21069042.3674
                                                                        52.2504
        41.0004
 -20187096.31248 -15650900.26646
                  21538348.8834                                   21538344.5124
                                                                        50.0004
        36.0004
  -4954550.05947  -3817342.14844
                  23745169.1094                                   23745166.1174
                                                                        44.5004
        26.7504
  -3447233.33246  -2666295.02744
                  23603825.0394                                   23603821.3324
                                                                        40.5004
        26.7504
  -9932348.64548  -7684986.53145
                  22025551.4144                                   22025545.7114
                                                                        49.2504
        33.7504
  -6110087.98447  -4721608.88744
                  23189479.4224                                   23189476.4304
                                                                        42.7504
        27.0004
  -6678609.63346  -5161340.72343
                  24208838.5864                                   24208834.5944
                                                                        41.0004
        22.7504
 09 10  5  0 14 30.0000000  0  8G02G04G13G29G10G23G30G31
 -17401308.22748 -13487578.30547
                  20542196.7114                                   20542190.9064
                                                                        52.7504
        42.7504
  -6830772.81248  -5277998.27046
                  21064337.4844                                   21064334.1884
                                                                        52.5004
        40.7504
 -20315379.94148 -15750861.41445
                  21513937.1954                                   21513932.9964
                                                                        50.7504
        35.5004
  -5128543.62547  -3952921.68044
                  23712058.9064                                   23712056.2344
                                                                        44.0004
        28.2504
  -3643287.02046  -2819064.12544
                  23566517.4924                                   23566513.6174
                                                                        41.5004
        27.5004
  -9975212.18448  -7718386.65245
                  22017394.7814                                   22017388.7464
                                                                        50.0004
        34.7504
  -6124271.23847  -4732660.81244
                  23186780.8204                                   23186778.0784
                                                                        43.2504
        27.0004
  -6701128.87946  -5178888.23843
                  24204552.6094                                   24204548.9694
                                                                        39.0004
        22.7504
 09 10  5  0 15  0.0000000  0  8G02G04G13G29G10G23G30G31
 -17508721.45748 -13571276.90247
                  20521756.6254                                   20521751.1604
                                                                        52.5004
        42.7504
  -6854999.62148  -5296876.41846
                  21059727.5864                                   21059724.1914
                                                                        53.0004
        40.5004
 -20443015.39148 -15850317.53946
                  21489648.7664                                   21489644.7234
                                                                        50.7504
        36.0004
  -5302182.81247  -4088225.00044
                  23679016.4224                                   23679013.9494
                                                                        44.0004
        27.5004
  -3839114.24647  -2971656.69544
                  23529252.4384                                   23529249.1844
                                                                        43.2504
        28.5004
 -10017452.85948  -7751301.32045
                  22009356.6804                                   22009350.6604
                                                                        49.7504
        34.5004
  -6137897.57447  -4743278.80144
                  23184187.8754                                   23184185.0004
                                                                        44.0004
        28.0004
  -6723131.61347  -5196033.20743
                  24200365.7664                                   24200361.9384
                                                                        42.0004
        23.5004
