     2.11           OBSERVATION DATA    G (GPS)             RINEX VERSION / TYPE
teqc  2019Feb25                         20221121 12:28:11UTCPGM / RUN BY / DATE
OSX ker:10.11.6|Core i5|gcc 4.3 -m64|OSX ker:10.10+|=+      COMMENT
BIT 2 OF LLI FLAGS DATA COLLECTED UNDER A/S CONDITION       COMMENT
04712830                                                    MARKER NAME
2830                                                        MARKER NUMBER
-Unknown-           -Unknown-                               OBSERVER / AGENCY
0220400471          TRIMBLE R7          2.30                REC # / TYPE / VERS
-Unknown-           TRM39105.00     NONE                    ANT # / TYPE
  1449460.7510 -1709239.8639  5952443.2503                  APPROX POSITION XYZ
        0.0000        0.0000        0.0000                  ANTENNA: DELTA H/E/N
     1     1                                                WAVELENGTH FACT L1/2
    20    L1    L2    L5    L6    L7    L8    C1    P1    C2# / TYPES OF OBSERV
          P2    C5    C6    C7    C8    S1    S2    S5    S6# / TYPES OF OBSERV
          S7    S8                                          # / TYPES OF OBSERV
    30.0000                                                 INTERVAL
    15                                                      LEAP SECONDS
Forced Modulo Decimation to 30 seconds                      COMMENT
 SNR is mapped to RINEX snr flag value [0-9]                COMMENT
  L1 & L2: min(max(int(snr_dBHz/6), 0), 9)                  COMMENT
teqc edited: Beidou # 1 - 37 excluded                       COMMENT
  2009    10    10     0     0    0.0000000     GPS         TIME OF FIRST OBS
                                                            END OF HEADER
 09 10 10  0  0  0.0000000  0  9G02G04G05G13G29G10G23G30G31
 -14441535.59448 -11183641.23447
                  20566743.6024                                   20566738.2074
                                                                        52.0004
        43.2504
  -5931906.53548  -4590731.13746
                  21289824.5234                                   21289821.7624
                                                                        52.5004
        40.7504
  -2555759.74646  -1946836.09444
                  24163038.3204                                   24163035.8484
                                                                        40.7504
        27.5004
 -16630078.77048 -12879917.11746
                  21491252.8984                                   21491248.5354
                                                                        51.0004
        36.5004
  -9587419.35547  -7455248.91045
                  23566987.2974                                   23566985.1764
                                                                        43.5004
        31.5004
  -8670216.95347  -6739314.72745
                  23323809.1094                                   23323806.2774
                                                                        44.2504
        30.7504
  -8270417.23848  -6398557.44945
                  22179012.9454                                   22179006.4964
                                                                        49.7504
        33.7504
  -5194414.48847  -4014352.93044
                  23421247.6024                                   23421244.7974
                                                                        43.7504
        28.0004
  -5858800.58647  -4530635.49643
                  24413785.4144                                   24413781.0944
                                                                        42.0004
        22.7504
 09 10 10  0  0 30.0000000  0  9G02G04G05G13G29G10G23G30G31
 -14555336.20348 -11272317.04347
                  20545087.9924                                   20545082.4804
                                                                        52.5004
        43.2504
  -5962711.60548  -4614735.07846
                  21283962.4614                                   21283959.2344
                                                                        52.0004
        40.5004
  -2763523.50047  -2108729.85544
                  24123502.5164                                   24123498.9344
                                                                        42.2504
        28.5004
 -16762928.21148 -12983436.15246
                  21465972.4064                                   21465968.0434
                                                                        51.5004
        36.5004
  -9769554.71547  -7597172.54345
                  23532328.3204                                   23532325.7974
                                                                        44.0004
        32.2504
  -8875734.31247  -6899458.11345
                  23284700.6644                                   23284697.6374
                                                                        44.5004
        30.0004
  -8318986.62148  -6436403.73845
                  22169770.2894                                   22169764.2934
                                                                        49.2504
        34.5004
  -5214695.30147  -4030156.17244
                  23417388.2424                                   23417385.4534
                                                                        43.2504
        27.5004
  -5888205.21147  -4553548.17644
                  24408190.5784                                   24408185.9304
                                                                        42.5004
        24.5004
 09 10 10  0  1  0.0000000  0  9G02G04G05G13G29G10G23G30G31
 -14668556.50448 -11360540.65647
                  20523542.9774                                   20523537.5434
                                                                        52.0004
        43.5004
  -5993039.87548  -4638367.50446
                  21278191.3834                                   21278188.2424
                                                                        52.2504
        40.2504
  -2971126.46947  -2270498.37944
                  24083997.4774                                   24083993.5944
                                                                        42.0004
        29.7504
 -16895125.87548 -13086447.31246
                  21440815.9614                                   21440811.7894
                                                                        50.7504
        36.7504
  -9951317.54747  -7738805.88345
                  23497740.4694                                   23497737.1414
                                                                        44.5004
        31.7504
  -9081006.28947  -7059410.29745
                  23245638.8284                                   23245635.1054
                                                                        43.0004
        31.0004
  -8366968.22748  -6473792.01245
                  22160639.8834                                   22160634.4414
                                                                        50.0004
        34.0004
  -5234470.44147  -4045565.40244
                  23413624.5554                                   23413622.1374
                                                                        43.0004
        27.7504
  -5917136.42647  -4576091.96543
                  24402684.9224                                   24402680.5784
                                                                        43.0004
        23.0004
 09 10 10  0  1 30.0000000  0  9G02G04G05G13G29G10G23G30G31
 -14781192.02048 -11448308.58247
                  20502109.0944                                   20502104.0354
                                                                        52.2504
        43.7504
  -6022889.07848  -4661626.62546
                  21272511.7194                                   21272508.4304
                                                                        52.2504
        41.0004
  -3178562.65247  -2432136.94145
                  24044523.5944                                   24044519.5354
                                                                        43.2504
        30.0004
 -17026666.53148 -13188946.53146
                  21415784.7274                                   21415780.2974
                                                                        51.2504
        37.0004
 -10132701.28047  -7880143.80345
                  23463223.4224                                   23463220.8834
                                                                        43.2504
        30.7504
  -9286026.64147  -7219166.39144
                  23206624.0314                                   23206621.0204
                                                                        43.0004
        28.2504
  -8414359.96948  -6510720.64145
                  22151621.5394                                   22151615.8094
                                                                        49.0004
        33.0004
  -5253739.13347  -4060579.98044
                  23409957.9224                                   23409955.8714
                                                                        43.5004
        27.2504
  -5945592.58247  -4598265.62144
                  24397269.8984                                   24397265.9774
                                                                        43.2504
        25.2504
 09 10 10  0  2  0.0000000  0  9G02G04G05G13G29G10G23G30G31
 -14893238.74248 -11535617.71147
                  20480787.4774                                   20480782.2504
                                                                        52.5004
        43.7504
  -6052258.06248  -4684511.55146
                  21266922.8204                                   21266919.5204
                                                                        52.7504
        40.5004
  -3385827.16847  -2593641.70345
                  24005081.7344                                   24005078.8364
                                                                        43.2504
        30.0004
 -17157546.40648 -13290930.84446
                  21390879.0634                                   21390875.1564
                                                                        51.7504
        37.2504
 -10313700.50047  -8021182.12945
                  23428780.2344                                   23428777.4774
                                                                        42.5004
        30.0004
  -9490790.05547  -7378722.28544
                  23167659.2814                                   23167656.2504
                                                                        43.2504
        29.7504
  -8461160.61748  -6547188.68745
                  22142715.3984                                   22142709.5474
                                                                        49.7504
        32.7504
  -5272501.10547  -4075199.72344
                  23406388.5084                                   23406385.2934
                                                                        43.0004
        26.7504
  -5973573.24247  -4620068.75044
                  24391944.7504                                   24391941.6484
                                                                        42.2504
        26.5004
 09 10 10  0  2 30.0000000  0  9G02G04G05G13G29G10G23G30G31
 -15004697.69148 -11622468.84047
                  20459577.3054                                   20459572.0704
                                                                        52.5004
        43.7504
  -6081150.35248  -4707025.02746
                  21261424.4924                                   21261421.4694
                                                                        52.2504
        40.7504
  -3592919.98047  -2755012.70745
                  23965673.7664                                   23965670.5944
                                                                        43.0004
        30.7504
 -17287765.72748 -13392400.43746
                  21366099.3674                                   21366095.5084
                                                                        51.7504
        37.0004
 -10494314.78547  -8161920.53144
                  23394410.5704                                   23394407.2854
                                                                        43.2504
        29.5004
  -9695296.50847  -7538077.90245
                  23128743.3204                                   23128740.0204
                                                                        44.7504
        30.0004
  -8507373.67648  -6583198.85545
                  22133921.3834                                   22133915.5354
                                                                        49.5004
        32.5004
  -5290761.16047  -4089428.35944
                  23402912.8284                                   23402910.0984
                                                                        42.2504
        26.0004
  -6001082.77746  -4641504.77344
                  24386710.1644                                   24386707.5164
                                                                        41.7504
        25.7504
 09 10 10  0  3  0.0000000  0  9G02G04G05G13G29G10G23G30G31
 -15115568.05548 -11708861.32847
                  20438479.4454                                   20438474.1764
                                                                        52.5004
        43.5004
  -6109567.66448  -4729168.38346
                  21256016.6884                                   21256013.9224
                                                                        51.5004
        40.2504
  -3799839.08247  -2916248.31645
                  23926298.5004                                   23926294.6954
                                                                        43.5004
        30.0004
 -17417323.35548 -13493354.43446
                  21341445.3524                                   21341441.3324
                                                                        51.0004
        36.5004
 -10674541.79747  -8302357.14144
                  23360114.3834                                   23360111.7504
                                                                        42.0004
        29.2504
  -9899543.18747  -7697231.16445
                  23089876.6954                                   23089873.5274
                                                                        45.5004
        32.0004
  -8553000.70748  -6618752.39845
                  22125239.2424                                   22125233.5594
                                                                        49.0004
        33.5004
  -5308522.23447  -4103268.15644
                  23399533.1094                                   23399530.4884
                                                                        42.5004
        27.5004
  -6028123.33246  -4662575.40244
                  24381564.8204                                   24381561.5274
                                                                        41.7504
        26.0004
 09 10 10  0  3 30.0000000  0  9G02G04G05G13G29G10G23G30G31
 -15225851.58648 -11794796.54347
                  20417493.3674                                   20417487.5984
                                                                        52.5004
        43.2504
  -6137513.96948  -4750944.73446
                  21250698.6254                                   21250696.0744
                                                                        51.5004
        40.0004
  -4006584.87947  -3077348.93444
                  23886955.6024                                   23886952.4494
                                                                        44.2504
        29.7504
 -17546220.32848 -13593793.63346
                  21316917.0084                                   21316912.9844
                                                                        51.0004
        37.0004
 -10854381.05947  -8442491.60545
                  23325892.5004                                   23325889.4804
                                                                        43.5004
        31.0004
 -10103530.87547  -7856182.57845
                  23051058.7194                                   23051055.7894
                                                                        44.7504
        32.5004
  -8598045.94948  -6653852.59045
                  22116667.7194                                   22116661.1094
                                                                        48.5004
        32.5004
  -5325789.21947  -4116722.94544
                  23396247.8444                                   23396244.4694
                                                                        43.7504
        26.5004
  -6054699.45746  -4683284.09044
                  24376507.1644                                   24376504.3914
                                                                        41.2504
        27.5004
 09 10 10  0  4  0.0000000  0  9G02G04G05G13G29G10G23G30G31
 -15335547.16048 -11880273.62147
                  20396618.9304                                   20396613.4064
                                                                        52.2504
        43.7504
  -6164990.49648  -4772355.02046
                  21245470.2664                                   21245467.5394
                                                                        51.7504
        40.5004
  -4213154.76647  -3238312.43445
                  23847646.8984                                   23847643.8634
                                                                        44.5004
        30.0004
 -17674454.93048 -13693716.68446
                  21292514.6334                                   21292510.6764
                                                                        50.7504
        36.5004
 -11033829.46547  -8582321.50845
                  23291744.8284                                   23291742.1214
                                                                        44.0004
        31.5004
 -10307256.67647  -8014929.91445
                  23012290.5864                                   23012287.9304
                                                                        45.0004
        31.5004
  -8642510.44148  -6688500.24245
                  22108205.5634                                   22108200.1174
                                                                        48.7504
        33.2504
  -5342564.68747  -4129794.73444
                  23393055.2504                                   23393052.4264
                                                                        43.5004
        27.2504
  -6080813.00847  -4703632.37944
                  24371538.4144                                   24371535.5744
                                                                        42.0004
        27.2504
 09 10 10  0  4 30.0000000  0  9G02G04G05G13G29G10G23G30G31
 -15444653.60248 -11965291.62147
                  20375856.8754                                   20375851.4064
                                                                        52.5004
        44.0004
  -6191998.73048  -4793400.40646
                  21240330.5864                                   21240327.6214
                                                                        51.7504
        40.7504
  -4419546.55547  -3399137.16845
                  23808371.6804                                   23808368.3674
                                                                        44.7504
        30.5004
 -17802026.08248 -13793122.75846
                  21268238.5164                                   21268235.1174
                                                                        51.0004
        37.0004
 -11212884.90647  -8721845.21545
                  23257671.1564                                   23257668.6094
                                                                        44.2504
        32.0004
 -10510718.21147  -8173471.35945
                  22973573.6094                                   22973570.5274
                                                                        45.5004
        30.5004
  -8686396.18448  -6722696.93045
                  22099854.7584                                   22099849.0354
                                                                        49.2504
        33.5004
  -5358851.48047  -4142485.75044
                  23389955.5164                                   23389953.0634
                                                                        42.0004
        26.7504
  -6106466.17247  -4723621.86744
                  24366656.6804                                   24366653.2344
                                                                        42.2504
        27.0004
 09 10 10  0  5  0.0000000  0  9G02G04G05G13G29G10G23G30G31
 -15553169.32048 -12049849.34047
                  20355206.9384                                   20355201.1764
                                                                        52.5004
        43.5004
  -6218539.66848  -4814081.66046
                  21235280.1954                                   21235277.6724
                                                                        51.5004
        40.0004
  -4625757.53547  -3559821.00845
                  23769130.6884                                   23769127.7234
                                                                        43.2504
        30.0004
 -17928931.29348 -13892009.93046
                  21244089.3914                                   21244085.6214
                                                                        51.7504
        36.0004
 -11391543.60947  -8861059.77345
                  23223674.3054                                   23223671.1294
                                                                        44.5004
        32.0004
 -10713912.44147  -8331804.51244
                  22934906.0554                                   22934903.3324
                                                                        43.7504
        29.2504
  -8729703.74248  -6756443.08645
                  22091613.3834                                   22091607.3984
                                                                        49.5004
        33.7504
  -5374651.45347  -4154797.41444
                  23386949.4694                                   23386946.4884
                                                                        42.5004
        27.0004
  -6131660.59047  -4743253.89144
                  24361862.1254                                   24361859.0004
                                                                        42.0004
        25.0004
 09 10 10  0  5 30.0000000  0  9G02G04G05G13G29G10G23G30G31
 -15661096.45348 -12133948.39147
                  20334669.0554                                   20334663.6024
                                                                        52.7504
        43.7504
  -6244617.79348  -4834402.30146
                  21230317.9774                                   21230315.0744
                                                                        51.0004
        40.0004
  -4831788.71147  -3720364.77745
                  23729924.2034                                   23729921.9144
                                                                        42.5004
        30.7504
 -18055172.75848 -13990379.90246
                  21220066.3594                                   21220062.5434
                                                                        51.5004
        37.0004
 -11569806.12547  -8999965.60545
                  23189751.7274                                   23189748.6414
                                                                        43.0004
        31.7504
 -10916840.05547  -8489929.91445
                  22896290.8134                                   22896287.9774
                                                                        45.0004
        30.7504
  -8772438.00848  -6789742.50045
                  22083481.8674                                   22083475.7034
                                                                        49.0004
        32.5004
  -5389970.29747  -4166734.18044
                  23384034.3674                                   23384031.4924
                                                                        42.5004
        27.2504
  -6156401.09446  -4762532.21543
                  24357154.8364                                   24357151.1024
                                                                        40.0004
        23.0004
 09 10 10  0  6  0.0000000  0  9G02G04G05G13G29G10G23G30G31
 -14193008.73448 -10989983.93447
                  20614036.6334                                   20614031.4414
                                                                        53.0004
        43.5004
  -4694811.85948  -3626761.32846
                  21525236.0314                                   21525232.7934
                                                                        51.0004
        40.0004
  -3462209.12547  -2653159.86745
                  23990547.0634                                   23990543.8634
                                                                        44.5004
        31.2504
 -16605322.77048 -12860626.66446
                  21495963.8364                                   21495959.9024
                                                                        51.5004
        37.2504
 -10172241.89847  -7910954.49645
                  23455699.1724                                   23455696.8014
                                                                        43.7504
        31.7504
  -9544069.38347  -7420238.48045
                  23157520.8364                                   23157517.2704
                                                                        46.0004
        32.0004
  -7239177.17248  -5594993.80945
                  22375251.5004                                   22375245.6524
                                                                        49.0004
        33.0004
  -3829388.43446  -2950696.39544
                  23681003.4454                                   23681000.8364
                                                                        41.5004
        27.0004
  -4605267.23847  -3553856.44144
                  24652325.6724                                   24652321.0634
                                                                        42.0004
        24.5004
 09 10 10  0  6 30.0000000  0  9G02G04G05G13G29G10G23G30G31
 -14299754.02048 -11073162.08247
                  20593723.8444                                   20593718.2304
                                                                        53.0004
        43.5004
  -4719966.63748  -3646362.45346
                  21520448.9844                                   21520446.3754
                                                                        51.5004
        40.2504
  -3667871.40647  -2813416.14545
                  23951410.7894                                   23951407.6604
                                                                        45.2504
        32.0004
 -16730230.23848 -12957957.15646
                  21472194.4924                                   21472190.6134
                                                                        51.5004
        36.7504
 -10349701.65247  -8049234.82045
                  23421929.0944                                   23421926.5944
                                                                        42.5004
        31.2504
  -9746453.50447  -7577940.40645
                  23119008.0234                                   23119004.7424
                                                                        46.0004
        31.5004
  -7280767.09448  -5627401.54345
                  22367337.0394                                   22367331.0044
                                                                        49.2504
        33.2504
  -3843750.97747  -2961888.02344
                  23678270.4144                                   23678267.4344
                                                                        43.2504
        26.5004
  -4629104.48447  -3572430.87544
                  24647789.1954                                   24647784.9224
                                                                        43.5004
        26.0004
 09 10 10  0  7  0.0000000  0  9G02G04G05G13G29G10G23G30G31
 -14405907.12148 -11155878.78947
                  20573523.7194                                   20573518.2854
                                                                        53.0004
        43.2504
  -4744662.60948  -3665606.08646
                  21515749.6024                                   21515746.8134
                                                                        50.7504
        39.5004
  -3873346.43447  -2973526.55544
                  23912309.6094                                   23912306.9844
                                                                        43.5004
        29.7504
 -16854469.19548 -13054766.74646
                  21448552.7274                                   21448548.8364
                                                                        51.5004
        37.0004
 -10526756.21947  -8187199.40245
                  23388236.7894                                   23388234.4964
                                                                        43.5004
        30.5004
  -9948562.87547  -7735428.21945
                  23080548.0704                                   23080545.2424
                                                                        44.5004
        31.5004
  -7321787.64848  -5659365.63345
                  22359531.1254                                   22359525.1884
                                                                        49.2504
        33.0004
  -3857640.25047  -2972710.85244
                  23675627.3524                                   23675624.4384
                                                                        42.7504
        26.7504
  -4652493.63346  -3590656.19543
                  24643338.7814                                   24643334.1844
                                                                        41.2504
        23.2504
 09 10 10  0  7 30.0000000  0  9G02G04G05G13G29G10G23G30G31
 -14511468.39848 -11238134.33247
                  20553435.8524                                   20553430.0634
                                                                        52.7504
        43.5004
  -4768902.07848  -3684493.99646
                  21511137.1414                                   21511134.0474
                                                                        51.0004
        39.7504
  -4078632.93747  -3133490.03945
                  23873245.3984                                   23873241.6094
                                                                        44.5004
        31.0004
 -16978039.01248 -13151054.91046
                  21425038.2274                                   21425034.4454
                                                                        50.7504
        37.0004
 -10703404.34847  -8324847.27345
                  23354621.9774                                   23354619.7774
                                                                        43.0004
        30.0004
 -10150395.75847  -7892700.54745
                  23042140.4844                                   23042137.7704
                                                                        45.0004
        32.5004
  -7362241.60248  -5690888.20745
                  22351832.7114                                   22351827.1024
                                                                        48.7504
        32.5004
  -3871059.85947  -2983167.69144
                  23673073.6254                                   23673070.8794
                                                                        43.0004
        27.2504
  -4675438.27346  -3608535.13343
                  24638972.2344                                   24638968.4414
                                                                        38.7504
        22.5004
 09 10 10  0  8  0.0000000  0  9G02G04G05G13G29G10G23G30G31
 -14616435.23448 -11319926.67247
                  20533461.5084                                   20533456.0204
                                                                        53.0004
        43.2504
  -4792684.78148  -3703025.97746
                  21506611.1334                                   21506608.1484
                                                                        50.0004
        40.0004
  -4283726.71147  -3293303.36345
                  23834217.6334                                   23834213.7734
                                                                        44.0004
        30.2504
 -17100936.87948 -13246819.47346
                  21401651.4614                                   21401647.2934
                                                                        50.5004
        37.0004
 -10879640.97347  -8462174.49645
                  23321085.4774                                   23321082.6954
                                                                        44.0004
        30.7504
 -10351947.94147  -8049754.18445
                  23003786.1804                                   23003783.4224
                                                                        46.0004
        33.0004
  -7402128.50448  -5721968.92645
                  22344242.4614                                   22344237.2704
                                                                        48.5004
        32.7504
  -3884010.38347  -2993259.01644
                  23670608.9304                                   23670606.6684
                                                                        43.0004
        27.2504
  -4697937.89146  -3626067.33643
                  24634690.9224                                   24634686.8754
                                                                        39.5004
        22.5004
 09 10 10  0  8 30.0000000  0  9G02G04G05G13G29G10G23G30G31
 -14720811.37148 -11401258.73847
                  20513599.3134                                   20513593.7624
                                                                        52.5004
        43.5004
  -4816016.80148  -3721206.77746
                  21502171.3364                                   21502168.2384
                                                                        51.2504
        39.7504
  -4488630.00447  -3452968.21945
                  23795225.0164                                   23795221.9304
                                                                        44.5004
        30.0004
 -17223166.32048 -13342063.20346
                  21378391.9304                                   21378387.9844
                                                                        50.2504
        37.2504
 -11055468.32047  -8599182.82445
                  23287627.1724                                   23287623.5744
                                                                        46.2504
        32.0004
 -10553221.72747  -8206590.87945
                  22965485.0944                                   22965482.3874
                                                                        46.0004
        32.5004
  -7441454.84848  -5752612.85545
                  22336759.1334                                   22336753.4964
                                                                        49.2504
        32.5004
  -3896499.25847  -3002990.60544
                  23668232.8204                                   23668229.9574
                                                                        43.2504
        25.2504
  -4719999.80546  -3643258.53143
                  24630491.8364                                   24630488.4304
                                                                        37.0004
        22.0004
 09 10 10  0  9  0.0000000  0  9G02G04G05G13G29G10G23G30G31
 -14824596.48048 -11482130.25047
                  20493849.6334                                   20493844.1954
                                                                        53.0004
        43.5004
  -4838900.23448  -3739038.02046
                  21497816.8364                                   21497813.8634
                                                                        49.2504
        39.2504
  -4693341.83647  -3612483.91445
                  23756270.1024                                   23756266.8444
                                                                        43.5004
        31.5004
 -17344726.48848 -13436785.41046
                  21355259.8364                                   21355255.9654
                                                                        51.0004
        37.0004
 -11230884.28147  -8735870.59045
                  23254246.1644                                   23254243.1804
                                                                        45.5004
        31.7504
 -10754215.09847  -8363209.07845
                  22927237.1804                                   22927234.1094
                                                                        46.2504
        31.7504
  -7480222.76248  -5782821.62545
                  22329382.3674                                   22329376.0634
                                                                        49.5004
        33.0004
  -3908530.05147  -3012365.22744
                  23665943.1724                                   23665940.1684
                                                                        43.2504
        25.5004
  -4741626.91446  -3660110.87144
                  24626377.4924                                   24626373.1414
                                                                        41.0004
        25.0004
 09 10 10  0  9 30.0000000  0 10G02G04G05G13G29G10G23G30G31G25
 -14927790.85248 -11562541.44147
                  20474212.1724                                   20474206.6884
                                                                        53.0004
        43.5004
  -4861338.17648  -3756522.12546
                  21493547.0784                                   21493543.9144
                                                                        50.5004
        39.0004
  -4897860.81647  -3771849.33645
                  23717350.8284                                   23717347.9534
                                                                        44.2504
        31.5004
 -17465617.63748 -13530986.28946
                  21332254.9694                                   21332251.0784
                                                                        51.5004
        36.7504
 -11405887.25847  -8872236.51645
                  23220943.6094                                   23220941.2544
                                                                        45.5004
        31.5004
 -10954927.18047  -8519608.09845
                  22889042.5784                                   22889039.7504
                                                                        45.2504
        32.2504
  -7518435.29748  -5812597.64145
                  22322110.3834                                   22322104.3524
                                                                        48.7504
        32.0004
  -3920106.63747  -3021385.94944
                  23663740.6484                                   23663737.1094
                                                                        43.5004
        26.5004
  -4762822.34846  -3676626.80944
                  24622343.1254                                   24622339.7894
                                                                        41.7504
        25.5004
   1347266.88756   1089039.90653
                  24228480.4614                                   24228478.1684
                                                                        38.7504
        21.2504
 09 10 10  0 10  0.0000000  0 10G02G04G05G13G29G10G23G30G31G25
 -15030395.43748 -11642493.05947
                  20454687.5084                                   20454681.9384
                                                                        53.2504
        43.2504
  -4883333.50448  -3773661.31246
                  21489361.4224                                   21489358.1094
                                                                        50.0004
        39.7504
  -5102186.67247  -3931064.25445
                  23678469.8754                                   23678466.1094
                                                                        44.0004
        32.2504
 -17585840.09848 -13624666.12946
                  21309377.2894                                   21309373.3834
                                                                        51.5004
        37.2504
 -11580476.70347  -9008280.21545
                  23187720.6954                                   23187717.5434
                                                                        45.0004
        31.7504
 -11155356.85247  -8675787.03145
                  22850902.5554                                   22850899.1724
                                                                        44.5004
        31.0004
  -7556095.77348  -5841943.46545
                  22314943.6804                                   22314937.9804
                                                                        48.5004
        32.5004
  -3931233.43047  -3030056.18044
                  23661622.5474                                   23661619.7274
                                                                        43.0004
        27.0004
  -4783590.25847  -3692809.59444
                  24618391.8364                                   24618388.6724
                                                                        42.7504
        26.5004
   1163605.27346    945927.14543
                  24193530.4384                                   24193528.6094
                                                                        39.5004
        20.0004
 09 10 10  0 10 30.0000000  0  9G02G04G05G13G29G10G23G30G25
 -15132416.86348 -11721990.27347
                  20435273.0634                                   20435267.6684
                                                                        52.7504
        43.5004
  -4904895.49248  -3790462.85946
                  21485258.3834                                   21485255.2664
                                                                        49.7504
        39.2504
  -5306324.40247  -4090132.57445
                  23639623.3134                                   23639620.0554
                                                                        44.5004
        32.2504
 -17705400.65648 -13717830.22746
                  21286625.8134                                   21286621.6294
                                                                        51.5004
        37.0004
 -11754656.72747  -9144004.89145
                  23154575.3754                                   23154572.1054
                                                                        45.2504
        31.5004
 -11355509.30947  -8831749.94945
                  22812814.5164                                   22812811.6994
                                                                        45.0004
        32.0004
  -7593213.17648  -5870866.13345
                  22307881.0634                                   22307875.1214
                                                                        48.5004
        33.0004
  -3941920.45747  -3038383.74244
                  23659589.3674                                   23659585.7504
                                                                        43.5004
        26.0004
    980236.07846    803042.19143
                  24158637.2664                                   24158634.0434
                                                                        40.5004
        20.7504
 09 10 10  0 11  0.0000000  0  9G02G04G05G13G29G10G23G30G25
 -15233853.40648 -11801031.72747
                  20415970.4304                                   20415965.0434
                                                                        52.7504
        43.5004
  -4926024.62948  -3806927.11346
                  21481238.0164                                   21481234.3914
                                                                        50.2504
        39.5004
  -5510270.48047  -4249051.57445
                  23600813.5004                                   23600810.4964
                                                                        45.7504
        33.2504
 -17824296.46148 -13810476.31646
                  21264000.7504                                   21263996.7034
                                                                        50.7504
        37.2504
 -11928423.96147  -9279407.91045
                  23121508.5864                                   23121505.5704
                                                                        45.0004
        32.0004
 -11555380.96947  -8987494.07845
                  22774780.5164                                   22774777.6134
                                                                        45.5004
        33.7504
  -7629788.21148  -5899366.16445
                  22300921.0314                                   22300915.1054
                                                                        48.0004
        33.0004
  -3952169.68047  -3046370.17244
                  23657638.5784                                   23657636.3524
                                                                        42.2504
        26.2504
    797163.22346    660388.03143
                  24123799.2274                                   24123796.6954
                                                                        41.2504
        22.0004
 09 10 10  0 11 30.0000000  0  9G02G04G05G13G29G10G23G30G25
 -15334696.56248 -11879610.81647
                  20396780.7424                                   20396775.1914
                                                                        53.2504
        43.5004
  -4946714.76648  -3823049.31246
                  21477300.7344                                   21477297.6484
                                                                        51.5004
        39.5004
  -5714014.80947  -4407813.37145
                  23562042.7734                                   23562038.7234
                                                                        45.5004
        32.0004
 -17942519.03948 -13902597.82446
                  21241503.8134                                   21241499.8054
                                                                        51.0004
        37.5004
 -12101768.34847  -9414481.42645
                  23088521.5634                                   23088519.8164
                                                                        44.5004
        32.5004
 -11754961.41847  -9143011.28545
                  22736801.1564                                   22736798.2274
                                                                        46.0004
        33.2504
  -7665815.14848  -5927439.10545
                  22294064.7814                                   22294059.3444
                                                                        49.2504
        31.5004
  -3961975.76247  -3054011.29344
                  23655772.6884                                   23655769.7734
                                                                        43.7504
        24.7504
    614397.06647    517972.44143
                  24089020.6954                                   24089017.9884
                                                                        42.0004
        21.7504
 09 10 10  0 12  0.0000000  0  9G02G04G05G13G29G10G23G30G25
 -15434935.03948 -11957718.71947
                  20377705.9534                                   20377700.6174
                                                                        53.0004
        43.5004
  -4966956.59048  -3838822.17246
                  21473448.7504                                   21473445.8444
                                                                        50.7504
        39.0004
  -5917544.88747  -4566408.25845
                  23523312.0864                                   23523308.2274
                                                                        45.2504
        30.7504
 -18060056.74648 -13994185.64546
                  21219137.1804                                   21219133.1644
                                                                        50.7504
        37.5004
 -12274675.89847  -9549214.57045
                  23055619.2664                                   23055616.2274
                                                                        44.2504
        32.7504
 -11954237.98847  -9298291.71545
                  22698880.4614                                   22698877.4694
                                                                        46.0004
        33.2504
  -7701284.84048  -5955077.82845
                  22287315.3674                                   22287309.2934
                                                                        48.7504
        32.2504
  -3971331.32447  -3061301.35244
                  23653992.3054                                   23653989.1644
                                                                        43.0004
        24.5004
    431953.03146    375808.38744
                  24054302.0864                                   24054299.2384
                                                                        41.2504
        24.2504
 09 10 10  0 12 30.0000000  0  9G02G04G05G13G29G10G23G30G25
 -15534569.44548 -12035355.91047
                  20358746.0784                                   20358740.7504
                                                                        53.0004
        43.2504
  -4986753.34448  -3854248.21146
                  21469681.4924                                   21469678.9184
                                                                        50.7504
        40.0004
  -6120859.80547  -4724835.44545
                  23484622.0704                                   23484618.5314
                                                                        44.0004
        30.5004
 -18176909.99648 -14085240.12946
                  21196900.9774                                   21196896.8794
                                                                        49.7504
        37.2504
 -12447145.85947  -9683606.73045
                  23022799.1884                                   23022796.1374
                                                                        44.5004
        32.2504
 -12153209.35947  -9453334.34045
                  22661017.7274                                   22661014.2814
                                                                        46.5004
        33.0004
  -7736200.67648  -5982284.96545
                  22280671.5164                                   22280664.9184
                                                                        48.2504
        32.5004
  -3980240.53547  -3068243.59844
                  23652297.2584                                   23652294.0514
                                                                        42.2504
        25.2504
    249831.47346    233895.46943
                  24019645.9454                                   24019643.0274
                                                                        41.5004
        22.5004
 09 10 10  0 13  0.0000000  0  9G02G04G05G13G29G10G23G30G25
 -15633600.75848 -12112523.16047
                  20339901.2894                                   20339896.1294
                                                                        53.2504
        43.5004
  -5006108.41848  -3869330.13746
                  21465998.1414                                   21465995.6414
                                                                        49.5004
        39.0004
  -6323959.43747  -4883094.85945
                  23445973.4384                                   23445970.6334
                                                                        43.0004
        31.5004
 -18293079.64148 -14175761.93446
                  21174794.1334                                   21174790.4574
                                                                        50.5004
        37.0004
 -12619177.32447  -9817657.21145
                  22990062.8364                                   22990059.0824
                                                                        45.2504
        32.5004
 -12351874.84447  -9608138.62145
                  22623212.7664                                   22623209.7154
                                                                        46.5004
        33.2504
  -7770566.19148  -6009063.28145
                  22274131.4924                                   22274124.9534
                                                                        48.7504
        31.0004
  -3988707.88347  -3074841.53144
                  23650686.3054                                   23650682.8054
                                                                        46.0004
        27.5004
     68034.44946     92235.77043
                  23985051.1174                                   23985047.4924
                                                                        41.5004
        22.7504
 09 10 10  0 13 30.0000000  0  9G02G04G05G13G29G10G23G30G25
 -15732028.87548 -12189220.37947
                  20321170.7034                                   20321165.2304
                                                                        53.7504
        44.0004
  -5025023.60548  -3884069.30146
                  21462398.8834                                   21462395.8204
                                                                        51.7504
        39.2504
  -6526841.39547  -5041184.67245
                  23407366.2814                                   23407363.5904
                                                                        43.2504
        32.0004
 -18408564.90248 -14265750.45746
                  21152818.2894                                   21152813.8874
                                                                        50.5004
        36.7504
 -12790767.83647  -9951364.11345
                  22957410.2194                                   22957406.6484
                                                                        45.2504
        32.2504
 -12550232.69147  -9762703.17245
                  22585466.4924                                   22585463.1484
                                                                        46.5004
        32.2504
  -7804383.15648  -6035414.15245
                  22267696.0314                                   22267690.3794
                                                                        48.5004
        32.0004
  -3996736.39547  -3081097.52344
                  23649158.2424                                   23649155.2814
                                                                        45.7504
        27.2504
   -113436.22346    -49169.80143
                  23950517.1094                                   23950515.3984
                                                                        40.7504
        22.7504
 09 10 10  0 14  0.0000000  0  9G02G04G05G13G29G10G23G30G25
 -15829858.89548 -12265451.57047
                  20302554.4844                                   20302548.7734
                                                                        53.2504
        43.7504
  -5043506.22748  -3898471.31246
                  21458881.8444                                   21458878.9734
                                                                        51.5004
        39.5004
  -6729509.69147  -5199108.00045
                  23368800.3984                                   23368797.0554
                                                                        44.7504
        33.0004
 -18523370.39848 -14355209.29746
                  21130971.5314                                   21130967.3364
                                                                        50.5004
        37.2504
 -12961920.87947 -10084730.10245
                  22924840.9844                                   22924837.7074
                                                                        43.7504
        32.5004
 -12748286.07847  -9917030.46145
                  22547778.5004                                   22547775.0554
                                                                        47.0004
        32.2504
  -7837659.49647  -6061343.77345
                  22261363.8914                                   22261358.1454
                                                                        47.7504
        32.0004
  -4004335.03147  -3087018.56244
                  23647712.4064                                   23647709.4264
                                                                        45.5004
        26.2504
   -294583.59446   -190323.77643
                  23916046.5314                                   23916043.7114
                                                                        41.5004
        21.2504
 09 10 10  0 14 30.0000000  0  9G02G04G05G13G29G10G23G30G25
 -14351670.55948 -11113616.50447
                  20583844.4844                                   20583838.8364
                                                                        53.2504
        43.5004
  -3486141.59048  -2684940.41846
                  21755238.5084                                   21755235.3204
                                                                        50.2504
        39.2504
  -5356538.58647  -4129260.35545
                  23630067.9614                                   23630064.9654
                                                                        46.5004
        34.5004
 -17062076.21148 -13216538.50446
                  21409046.5394                                   21409042.5004
                                                                        50.5004
        37.2504
 -11557211.70747  -8990151.48845
                  23192147.8984                                   23192144.9414
                                                                        44.0004
        32.5004
 -11370609.37947  -8843516.15645
                  22809941.0084                                   22809937.9264
                                                                        46.5004
        33.5004
  -6294980.18047  -4859256.00445
                  22554926.0554                                   22554920.3794
                                                                        47.2504
        31.7504
  -2436090.27347  -1865009.64544
