     2.11           OBSERVATION DATA    G (GPS)             RINEX VERSION / TYPE
teqc  2019Feb25                         20221121 12:28:08UTCPGM / RUN BY / DATE
OSX ker:10.11.6|Core i5|gcc 4.3 -m64|OSX ker:10.10+|=+      COMMENT
BIT 2 OF LLI FLAGS DATA COLLECTED UNDER A/S CONDITION       COMMENT
04712811                                                    MARKER NAME
2811                                                        MARKER NUMBER
-Unknown-           -Unknown-                               OBSERVER / AGENCY
0220400471          TRIMBLE R7          2.30                REC # / TYPE / VERS
-Unknown-           TRM39105.00     NONE                    ANT # / TYPE
  1449459.9835 -1709239.9277  5952441.3055                  APPROX POSITION XYZ
        0.0000        0.0000        0.0000                  ANTENNA: DELTA H/E/N
     1     1                                                WAVELENGTH FACT L1/2
    20    L1    L2    L5    L6    L7    L8    C1    P1    C2# / TYPES OF OBSERV
          P2    C5    C6    C7    C8    S1    S2    S5    S6# / TYPES OF OBSERV
          S7    S8                                          # / TYPES OF OBSERV
    30.0000                                                 INTERVAL
    15                                                      LEAP SECONDS
Forced Modulo Decimation to 30 seconds                      COMMENT
 SNR is mapped to RINEX snr flag value [0-9]                COMMENT
  L1 & L2: min(max(int(snr_dBHz/6), 0), 9)                  COMMENT
teqc edited: Beidou # 1 - 37 excluded                       COMMENT
  2009    10     8    23    10    0.0000000     GPS         TIME OF FIRST OBS
                                                            END OF HEADER
 09 10  8 23 10  0.0000000  0  9G02G04G12G13G17G20G23G30G31
   -249099.10558   -153207.36756
                  21408267.0234                                   21408261.7704
                                                                        53.0004
        41.5004
   -121783.97758    -73995.34857
                  20413771.4224                                   20413768.3914
                                                                        50.0004
        43.0004
    -24830.88357    -16553.72355
                  23010279.5394                                   23010276.3364
                                                                        45.5004
        35.0004
   -287196.00457   -174944.15654
                  22779019.4924                                   22779015.6564
                                                                        46.0004
        29.7504
     60646.34857     35262.77054
                  24001857.0784                                   24001854.2814
                                                                        43.5004
        28.7504
     34287.98057     20833.50054
                  23155180.4144                                   23155177.2934
                                                                        42.7504
        28.0004
   -167693.44558   -101472.82455
                  21782639.6724                                   21782634.4414
                                                                        48.0004
        35.7504
   -116745.09457    -72029.98455
                  22402825.0554                                   22402822.4024
                                                                        44.2504
        31.7504
   -121679.69957    -75111.18754
                  23524639.7974                                   23524636.3204
                                                                        43.0004
        28.5004
 09 10  8 23 10 30.0000000  0  8G02G04G12G13G17G20G23G30
   -404942.08648   -274643.45346
                  21378610.9064                                   21378605.5314
                                                                        53.5004
        41.0004
   -198797.42248   -134005.80547
                  20399116.1644                                   20399113.4304
                                                                        51.5004
        42.2504
    -43992.19147    -31484.60945
                  23006633.1644                                   23006629.7704
                                                                        46.0004
        34.7504
   -465576.51247   -313941.97745
                  22745074.9694                                   22745070.8834
                                                                        47.2504
        30.2504
     92989.81346     60465.36344
                  24008011.9924                                   24008009.4414
                                                                        41.7504
        27.0004
     51954.30547     34599.46144
                  23158542.4384                                   23158539.6214
                                                                        42.7504
        26.0004
   -272137.41048   -182857.73046
                  21762764.8754                                   21762759.2154
                                                                        49.0004
        36.0004
   -191664.62147   -130408.86345
                  22388568.2974                                   22388565.7934
                                                                        47.2504
        31.2504
 09 10  8 23 11  0.0000000  0  8G02G04G12G13G17G20G23G30
   -561717.91048   -396806.43046
                  21348777.5944                                   21348772.6524
                                                                        53.0004
        41.0004
   -276575.32048   -194611.89147
                  20384315.8524                                   20384312.9534
                                                                        50.0004
        42.7504
    -63995.05147    -47071.22745
                  23002826.8754                                   23002824.1604
                                                                        46.7504
        35.0004
   -644907.89147   -453681.19544
                  22710949.5704                                   22710945.2034
                                                                        47.0004
        29.0004
    124146.21947     84742.98844
                  24013940.4064                                   24013938.3284
                                                                        42.0004
        28.5004
     68553.84446     47534.17244
                  23161700.5784                                   23161697.8364
                                                                        40.7504
        25.7504
   -377292.04748   -264796.40245
                  21742754.9144                                   21742749.1524
                                                                        48.0004
        35.7504
   -267237.48047   -189296.78945
                  22374186.8134                                   22374184.8634
                                                                        44.5004
        31.7504
 09 10  8 23 11 30.0000000  0  8G02G04G12G13G17G20G23G30
   -719099.90248   -519441.73046
                  21318828.5704                                   21318823.3674
                                                                        53.0004
        40.7504
   -354793.78548   -255561.25447
                  20369430.8984                                   20369428.0124
                                                                        51.0004
        43.0004
    -84517.33247    -63062.60245
                  22998921.6954                                   22998918.1564
                                                                        47.0004
        33.7504
   -824859.85247   -593903.19545
                  22676704.8984                                   22676701.8014
                                                                        46.5004
        30.2504
    154438.29347    108347.14545
                  24019705.5554                                   24019702.8164
                                                                        44.2504
        30.0004
     84408.65247     59888.52044
                  23164718.0554                                   23164714.9144
                                                                        42.0004
        25.2504
   -482831.97748   -347035.27046
                  21722670.8834                                   21722665.3404
                                                                        48.0004
        36.0004
   -343139.68447   -248441.40645
                  22359743.8134                                   22359740.6374
                                                                        47.0004
        31.0004
 09 10  8 23 12  0.0000000  0  8G02G04G12G13G17G20G23G30
   -876900.82448   -642403.45746
                  21288800.2194                                   21288795.2194
                                                                        52.5004
        40.5004
   -433267.68748   -316709.77047
                  20354497.9144                                   20354495.1134
                                                                        51.5004
        42.5004
   -105375.58647    -79315.77045
                  22994952.5784                                   22994949.1374
                                                                        46.2504
        34.2504
  -1005246.16847   -734463.98445
                  22642379.0234                                   22642375.6764
                                                                        46.5004
        30.2504
    184048.69147    131420.13744
                  24025339.6174                                   24025337.0664
                                                                        44.0004
        27.7504
     99701.69146     71805.15644
                  23167628.4384                                   23167624.7854
                                                                        41.7504
        27.5004
   -588570.90247   -429429.26645
                  21702549.4454                                   21702543.7934
                                                                        47.7504
        35.5004
   -419186.30147   -307698.54345
                  22345271.9384                                   22345269.3754
                                                                        47.0004
        31.5004
 09 10  8 23 12 30.0000000  0  8G02G04G12G13G17G20G23G30
    540426.30548    462007.28946
                  21558508.6024                                   21558503.4064
                                                                        52.7504
        40.7504
   1063545.04348    849637.77747
                  20639331.5554                                   20639328.8404
                                                                        51.7504
        42.5004
   1448968.25447   1131861.19545
                  23290734.0944                                   23290731.0234
                                                                        46.0004
        34.5004
    389481.68847    352336.82845
                  22907786.6804                                   22907783.3524
                                                                        47.2504
        31.5004
   1788513.67247   1381652.54744
                  24330659.9304                                   24330656.3014
                                                                        43.5004
        27.5004
   1689969.73847   1310975.07044
                  23470246.8134                                   23470242.5864
                                                                        42.5004
        24.5004
    881034.98048    715718.16446
                  21982206.3284                                   21982200.4884
                                                                        49.2504
        36.2504
   1080164.78147    860626.90245
                  22630588.9384                                   22630586.0234
                                                                        47.0004
        31.0004
 09 10  8 23 13  0.0000000  0  8G02G04G12G13G17G20G23G30
    382112.65248    338646.00046
                  21528382.2974                                   21528377.5044
                                                                        53.5004
        41.2504
    984879.43048    788339.88347
                  20624362.3674                                   20624359.1254
                                                                        52.0004
        42.5004
   1427750.18847   1115327.58245
                  23286696.7424                                   23286693.6094
                                                                        47.0004
        34.2504
    208555.42247    211355.27745
                  22873357.7424                                   22873354.3794
                                                                        47.0004
        30.2504
   1817073.54347   1403906.96944
                  24336094.1564                                   24336090.4414
                                                                        42.7504
        25.2504
   1704451.92646   1322259.95344
                  23473002.2114                                   23472998.3834
                                                                        41.2504
        24.5004
    775219.64548    633264.63745
                  21962070.4534                                   21962065.1174
                                                                        49.5004
        35.7504
   1004147.46547    801392.66845
                  22616123.3284                                   22616121.0274
                                                                        45.7504
        30.5004
 09 10  8 23 13 30.0000000  0  8G02G04G12G13G17G20G23G30
    223653.72348    215171.50046
                  21498228.9774                                   21498223.3554
                                                                        52.7504
        41.0004
    906225.24248    727050.79747
                  20609395.2344                                   20609392.1884
                                                                        52.2504
        42.7504
   1406456.93047   1098735.37145
                  23282644.7344                                   23282641.5124
                                                                        46.0004
        34.2504
     27472.69547     70252.11345
                  22838897.9774                                   22838895.0314
                                                                        46.5004
        30.2504
   1845212.49647   1425833.42244
                  24341448.7194                                   24341445.5904
                                                                        43.2504
        26.5004
   1718633.11746   1333310.26644
                  23475700.3834                                   23475697.0204
                                                                        41.0004
        24.5004
    669475.21548    550866.34846
                  21941947.9614                                   21941942.5164
                                                                        49.0004
        36.0004
    928251.99247    742253.35245
                  22601680.8984                                   22601678.5824
                                                                        47.0004
        31.7504
 09 10  8 23 14  0.0000000  0  8G02G04G12G13G17G20G23G30
     65092.24248     91617.10546
                  21468055.5084                                   21468049.9614
                                                                        53.0004
        41.2504
    827623.62948    665802.76647
                  20594437.6334                                   20594434.5164
                                                                        52.0004
        42.7504
   1385126.85547   1082114.47345
                  23278585.7974                                   23278582.3674
                                                                        45.7504
        34.0004
   -153724.18047    -70940.32445
                  22804417.5394                                   22804414.3984
                                                                        46.7504
        30.5004
   1872968.96947   1447461.78944
                  24346730.3054                                   24346727.6684
                                                                        42.5004
        28.0004
   1732551.48846   1344155.75844
                  23478349.5474                                   23478346.2894
                                                                        41.0004
        26.2504
    563843.43448    468555.85946
                  21921846.8204                                   21921841.0664
                                                                        50.0004
        36.5004
    852518.66048    683240.45745
                  22587269.4064                                   22587266.7034
                                                                        48.0004
        32.0004
 09 10  8 23 14 30.0000000  0  7G02G04G12G13G20G23G30
    -93537.20348    -31990.23046
                  21437869.4924                                   21437864.3284
                                                                        53.0004
        41.2504
    749106.96548    604621.12947
                  20579496.3284                                   20579493.5124
                                                                        50.5004
        43.2504
   1363790.32047   1065488.49645
                  23274525.3834                                   23274522.0204
                                                                        46.0004
        33.0004
   -334999.81647   -212194.68045
                  22769923.4304                                   22769919.6954
                                                                        47.5004
        32.0004
   1746237.73846   1354820.39144
                  23480953.4694                                   23480949.6214
                                                                        41.5004
        25.0004
    458357.46548    386359.00846
                  21901773.4064                                   21901767.7704
                                                                        49.5004
        36.2504
    776979.46947    624378.84445
                  22572894.8204                                   22572892.4494
                                                                        44.2504
        31.2504
 09 10  8 23 15  0.0000000  0  7G02G04G12G13G20G23G30
   -252176.00848   -155604.80146
                  21407681.0554                                   21407676.1644
                                                                        53.0004
        41.0004
    670730.56348    543548.51247
                  20564581.7974                                   20564578.3284
                                                                        51.7504
        42.2504
   1342501.49647   1048899.72745
                  23270474.5084                                   23270471.0044
                                                                        46.0004
        33.0004
   -516294.09447   -353463.46545
                  22735424.2274                                   22735420.6024
                                                                        47.7504
        31.2504
   1759745.65646   1365345.96943
                  23483524.3914                                   23483521.1174
                                                                        40.0004
        23.5004
    353074.35248    304320.21945
                  21881738.8984                                   21881733.0514
                                                                        49.2504
        35.7504
    701690.05947    565711.67645
                  22558567.7274                                   22558565.0394
                                                                        47.2504
        31.2504
 09 10  8 23 15 30.0000000  0  7G02G04G12G13G20G23G30
   -410779.52748   -279191.90646
                  21377500.0314                                   21377494.7734
                                                                        53.2504
        41.5004
    592537.61348    482618.77047
                  20549702.3674                                   20549699.3444
                                                                        50.7504
        42.2504
   1321300.77347   1032379.62945
                  23266440.5164                                   23266437.0634
                                                                        46.7504
        34.0004
   -697558.82047   -494708.28544
                  22700930.0554                                   22700926.8484
                                                                        46.0004
        29.2504
   1773116.34046   1375764.72344
                  23486067.9614                                   23486065.1724
                                                                        41.0004
        24.7504
    248037.99247    222473.75045
                  21861751.1254                                   21861745.1914
                                                                        47.5004
        35.5004
    626693.33247    507272.66845
                  22544296.0234                                   22544294.1454
                                                                        46.7504
        30.7504
 09 10  8 23 16  0.0000000  0  7G02G04G12G13G20G23G30
   -569300.02748   -402714.35946
                  21347334.3204                                   21347329.2074
                                                                        52.7504
        41.2504
    514574.25048    421868.03547
                  20534866.3754                                   20534863.7934
                                                                        51.5004
        42.7504
   1300231.85547   1015962.31345
                  23262431.0704                                   23262427.8164
                                                                        46.2504
        33.5004
   -878745.99647   -635892.38744
                  22666451.0394                                   22666446.5394
                                                                        46.2504
        29.0004
   1786393.34046   1386110.47344
                  23488595.3284                                   23488591.8554
                                                                        40.7504
        24.2504
    143294.99248    140855.92245
                  21841818.7584                                   21841813.0904
                                                                        48.7504
        35.5004
    552034.79347    449097.17645
                  22530089.3754                                   22530086.7734
                                                                        47.2504
        30.5004
 09 10  8 23 16 30.0000000  0  7G02G04G12G13G20G23G30
   -727708.09448   -526149.22746
                  21317190.2344                                   21317185.3014
                                                                        52.2504
        41.2504
    436865.85248    361315.74647
                  20520079.2974                                   20520076.7464
                                                                        51.0004
        42.7504
   1279319.58247    999666.97345
                  23258450.9774                                   23258448.1884
                                                                        44.5004
        33.2504
  -1059829.28147   -776996.36745
                  22631991.5084                                   22631988.0634
                                                                        46.7504
        30.5004
   1799600.97346   1396402.17644
                  23491108.3054                                   23491105.1134
                                                                        41.2504
        24.0004
     38872.01648     59487.48445
                  21821948.1484                                   21821942.0864
                                                                        49.7504
        35.7504
    477740.53947    391205.50845
                  22515951.4924                                   22515948.9884
                                                                        45.0004
        30.5004
 09 10  8 23 17  0.0000000  0  7G02G04G12G13G20G23G30
   -885982.82448   -649480.27746
                  21287071.5234                                   21287066.7384
                                                                        53.0004
        41.5004
    359433.04348    300978.49247
                  20505344.3444                                   20505341.7304
                                                                        53.0004
        42.7504
   1258580.89847    983506.96945
                  23254505.2504                                   23254501.9264
                                                                        45.7504
        33.5004
  -1240783.02747   -917999.14545
                  22597557.5234                                   22597554.0824
                                                                        46.2504
        31.2504
   1812756.65646   1406653.34844
                  23493611.3834                                   23493608.7384
                                                                        41.7504
        25.5004
    -65210.22748    -21615.55145
                  21802141.7274                                   21802135.5784
                                                                        50.0004
        35.7504
    403828.71547    333611.83245
                  22501886.6644                                   22501884.2734
                                                                        46.5004
        31.0004
 09 10  8 23 17 30.0000000  0  7G02G04G12G13G20G23G30
  -1044100.52748   -772689.03146
                  21256983.4224                                   21256977.4884
                                                                        52.7504
        41.7504
    282296.71148    240872.25047
                  20490665.7664                                   20490662.9964
                                                                        52.7504
        42.5004
   1238034.91847    967497.06645
                  23250595.1954                                   23250592.3484
                                                                        45.5004
        33.5004
  -1421583.27747  -1058882.43745
                  22563152.2734                                   22563148.8364
                                                                        47.0004
        31.5004
   1825880.56647   1416879.83644
                  23496109.1884                                   23496105.6214
                                                                        42.2504
        25.0004
   -168928.97748   -102435.35245
                  21782404.8674                                   21782398.6174
                                                                        50.0004
        35.5004
    330320.72347    276332.86745
                  22487898.4224                                   22487895.9614
                                                                        47.5004
        31.2504
 09 10  8 23 18  0.0000000  0  7G02G04G12G13G20G23G30
  -1202041.37548   -895759.81246
                  21226927.7734                                   21226922.7114
                                                                        52.5004
        41.7504
    205473.34048    181009.84447
                  20476046.6254                                   20476043.9184
                                                                        52.2504
        42.7504
   1217696.99647    951649.39845
                  23246724.8754                                   23246722.0354
                                                                        47.2504
        34.0004
  -1602210.61347  -1199631.09845
                  22528780.3364                                   22528777.0824
                                                                        46.5004
        31.7504
   1838986.00046   1427091.85943
                  23498602.5554                                   23498599.5434
                                                                        41.7504
        22.5004
   -272267.77348   -182959.14545
                  21762740.0784                                   21762733.8524
                                                                        50.5004
        35.5004
    257233.15247    219381.55145
                  22473990.4454                                   22473988.1994
                                                                        46.0004
        31.5004
 09 10  8 23 18 30.0000000  0  7G02G04G12G13G20G23G30
  -1359787.01248  -1018678.53546
                  21196909.8984                                   21196904.8554
                                                                        51.7504
        41.2504
    128979.57048    121404.13747
                  20461490.6094                                   20461487.5744
                                                                        53.0004
        42.5004
   1197580.84447    935974.41845
                  23242897.1174                                   23242894.3754
                                                                        47.2504
        34.0004
  -1782644.07047  -1340228.58245
                  22494444.7504                                   22494441.2854
                                                                        47.2504
        30.5004
   1852088.74646   1437301.79343
                  23501096.2034                                   23501092.9654
                                                                        41.7504
        23.7504
   -375208.02348   -263172.32046
                  21743151.1334                                   21743145.6764
                                                                        50.0004
        36.2504
    184582.10547    162770.39545
                  22460165.5234                                   22460162.6724
                                                                        47.7504
        31.7504
 09 10  8 23 19  0.0000000  0  7G02G04G12G13G20G23G30
  -1517317.84048  -1141429.89546
                  21166932.7424                                   21166927.8284
                                                                        51.7504
        41.0004
     52833.40648     62069.61347
                  20447000.5704                                   20446997.6174
                                                                        53.0004
        42.2504
   1177702.19147    920484.50845
                  23239114.5234                                   23239111.5744
                                                                        46.7504
        33.0004
  -1962863.64147  -1480659.53145
                  22460150.5164                                   22460146.5044
                                                                        47.0004
        31.5004
   1865204.12546   1447521.58243
                  23503591.8364                                   23503588.4414
                                                                        41.0004
        22.7504
   -477731.25448   -343060.50445
                  21723641.5944                                   21723635.9104
                                                                        49.5004
        35.7504
    112384.53147    106512.56345
                  22446426.2034                                   22446423.8754
                                                                        46.7504
        30.7504
 09 10  8 23 19 30.0000000  0  8G02G04G12G13G31G20G23G30
  -1674613.74648  -1263998.18446
                  21137000.3284                                   21136995.4964
                                                                        52.0004
        41.5004
    -22948.19148      3019.09447
                  20432579.5084                                   20432576.8364
                                                                        52.7504
        42.2504
   1158077.03147    905192.12145
                  23235379.4924                                   23235376.2274
                                                                        47.0004
        33.0004
  -2142848.62547  -1620907.85545
                  22425900.5864                                   22425897.0164
                                                                        47.7504
        30.7504
   1542244.07057   1206087.64155
                  23541889.1804                                   23541885.8954
                                                                        43.2504
        30.2504
   1878347.57446   1457763.24243
                  23506092.9304                                   23506088.7624
                                                                        41.0004
        22.7504
   -579819.76248   -422609.95745
                  21704214.6094                                   21704209.2074
                                                                        49.7504
        35.5004
     40657.64847     50621.47345
                  22432777.0474                                   22432775.1254
                                                                        44.7504
        30.5004
 09 10  8 23 20  0.0000000  0  8G02G04G12G13G31G20G23G30
  -1831655.30148  -1386368.29746
                  21107116.8524                                   21107111.7974
                                                                        52.2504
        41.7504
    -98348.02048    -55734.05547
                  20418231.3054                                   20418228.5634
                                                                        52.5004
        42.5004
   1138719.69147    890108.52745
                  23231696.1254                                   23231692.9184
                                                                        46.7504
        33.0004
  -2322576.77347  -1760955.62945
                  22391699.3674                                   22391695.8284
                                                                        47.5004
        31.0004
   1466727.17247   1147243.31645
                  23527518.5784                                   23527515.7304
                                                                        43.7504
        30.0004
   1891534.91446   1468039.11743
                  23508602.5314                                   23508598.7624
                                                                        40.0004
        22.0004
   -681455.39848   -501806.56245
                  21684874.1094                                   21684868.6174
                                                                        50.5004
        35.5004
    -30581.98447     -4889.89545
                  22419220.8204                                   22419217.9574
                                                                        47.7504
        30.5004
 09 10  8 23 20 30.0000000  0  8G02G04G12G13G31G20G23G30
  -1988442.08248  -1508539.73846
                  21077281.0634                                   21077275.8794
                                                                        53.0004
        41.2504
   -173368.37548   -114191.42647
                  20403955.1334                                   20403952.8954
                                                                        52.5004
        42.2504
   1119626.23447    875230.46545
                  23228063.1414                                   23228059.7504
                                                                        47.7504
        33.2504
  -2502049.13747  -1900804.11345
                  22357546.5704                                   22357543.0314
                                                                        47.7504
        30.5004
   1391620.71947   1088718.82844
                  23513226.2664                                   23513222.6484
                                                                        44.0004
        29.0004
   1904761.18046   1478345.28543
                  23511119.7894                                   23511116.0314
                                                                        40.5004
        22.5004
   -782640.14548   -580651.82845
                  21665619.3984                                   21665613.9024
                                                                        50.0004
        35.2504
   -101336.67647    -60023.38745
                  22405756.7974                                   22405753.7504
                                                                        46.7504
        31.5004
 09 10  8 23 21  0.0000000  0  8G02G04G12G13G31G20G23G30
   -569546.44548   -402906.77047
                  21347287.6414                                   21347282.4774
                                                                        52.5004
        42.0004
   1327413.68848   1055249.00447
                  20689544.9924                                   20689542.2934
                                                                        53.0004
        42.5004
   2676216.24247   2088157.73445
                  23524272.3134                                   23524268.9694
                                                                        47.0004
        33.2504
  -1105835.08247   -812845.37545
                  22623237.7424                                   22623233.9534
                                                                        47.7504
        31.2504
   2892347.68847   2258116.44544
                  23798805.4384                                   23798801.5204
                                                                        43.0004
        28.7504
   3493445.88746   2716281.41844
                  23813436.5394                                   23813432.8094
                                                                        41.0004
        25.2504
    692052.02748    568458.94545
                  21946243.9064                                   21946238.3524
                                                                        49.7504
        35.7504
   1403815.30947   1112822.34445
                  22692177.8054                                   22692174.9384
                                                                        47.0004
        31.7504
 09 10  8 23 21 30.0000000  0  8G02G04G12G13G31G20G23G30
   -725803.45348   -524665.64146
                  21317553.1884                                   21317548.4654
                                                                        51.7504
        41.7504
   1253166.05148    997393.35247
                  20675416.3284                                   20675413.5124
                                                                        52.7504
        42.7504
   2657658.87947   2073697.45745
                  23520740.9614                                   23520737.4224
                                                                        46.5004
        32.5004
  -1284769.32047   -952274.46145
                  22589186.8674                                   22589183.7034
                                                                        46.7504
        31.7504
   2818076.03547   2200242.44544
                  23784671.8674                                   23784668.4964
                                                                        44.0004
        29.5004
   3506760.78946   2726656.73444
                  23815970.1174                                   23815966.6484
                                                                        40.2504
        25.7504
    591787.78948    490331.00445
                  21927164.1174                                   21927158.5944
                                                                        49.2504
        35.7504
   1334042.78947   1058454.18045
                  22678900.2034                                   22678897.8324
                                                                        45.7504
        31.0004
 09 10  8 23 22  0.0000000  0  8G02G04G12G13G31G20G23G30
   -881768.59448   -646197.00846
                  21287874.0554                                   21287869.2894
                                                                        51.5004
        41.2504
   1179329.58248    939858.94947
                  20661365.0944                                   20661362.2664
                                                                        52.7504
        42.2504
   2639389.51647   2059461.69545
                  23517264.4694                                   23517261.4224
                                                                        47.5004
        33.5004
  -1463406.98847  -1091472.49645
                  22555193.5634                                   22555190.6994
                                                                        46.7504
        31.2504
   2744244.29747   2142711.24644
                  23770622.3054                                   23770618.4454
                                                                        43.0004
        28.7504
   3520139.74246   2737081.94943
                  23818515.7584                                   23818512.5554
                                                                        40.2504
        23.2504
    492007.54748    412580.18046
                  21908176.4064                                   21908170.5354
                                                                        49.0004
        36.0004
   1264783.57447   1004485.93445
                  22665720.8834                                   22665717.9574
                                                                        46.0004
        30.5004
 09 10  8 23 22 30.0000000  0  8G02G04G12G13G31G20G23G30
  -1037426.60248   -767488.89546
                  21258253.1564                                   21258247.9064
                                                                        52.2504
        41.2504
   1105914.86748    882652.87147
                  20647394.5634                                   20647391.8754
                                                                        53.0004
        42.0004
   2621418.71147   2045458.43445
                  23513844.5864                                   23513841.8554
                                                                        47.0004
        33.0004
  -1641731.78548  -1230426.75845
                  22521259.4304                                   22521256.0354
                                                                        48.0004
        32.2504
   2670865.15247   2085532.69144
                  23756658.3834                                   23756654.7854
                                                                        44.5004
        28.7504
   3533593.71546   2747565.55543
                  23821075.3284                                   23821072.9264
                                                                        40.0004
        21.7504
    392724.68848    335216.91045
                  21889283.8524                                   21889277.9804
                                                                        49.7504
        35.5004
   1196049.91847    950927.23445
                  22652640.7894                                   22652638.5744
                                                                        46.0004
        30.0004
 09 10  8 23 23  0.0000000  0  8G02G04G12G13G31G20G23G30
  -1192763.12948   -888530.28946
                  21228693.5084                                   21228688.4654
                                                                        52.2504
        41.5004
   1032934.94148    825785.43847
                  20633507.0004                                   20633504.4654
                                                                        52.7504
        42.5004
   2603757.02047   2031696.07845
                  23510483.6254                                   23510480.6684
                                                                        47.0004
        33.0004
  -1819728.05947  -1369125.32045
                  22487388.1954                                   22487384.5744
                                                                        47.7504
        31.7504
   2597951.23047   2028716.64544
                  23742783.4534                                   23742779.9804
                                                                        44.5004
        29.2504
   3547134.07046   2758116.50443
                  23823652.0394                                   23823648.9694
                                                                        40.0004
        20.2504
    293953.12548    258252.06345
                  21870487.8984                                   21870482.7974
                                                                        48.7504
        35.7504
   1127853.42247    897787.08645
                  22639664.1644                                   22639661.0124
                                                                        44.5004
        31.0004
 09 10  8 23 23 30.0000000  0  8G02G04G12G13G31G20G23G30
  -1347763.53948  -1009309.75046
                  21199197.9304                                   21199193.3324
                                                                        51.2504
        41.5004
    960401.32848    769265.75447
                  20619704.3524                                   20619701.7734
                                                                        53.0004
        42.5004
   2586414.36348   2018182.24645
                  23507183.2974                                   23507180.6294
                                                                        48.0004
        33.5004
  -1997380.70747  -1507555.98445
                  22453581.8984                                   22453579.1294
                                                                        47.5004
        31.2504
   2525513.73447   1972271.85944
                  23728999.0474                                   23728995.3484
                                                                        45.0004
        29.5004
   3560770.19946   2768742.10543
                  23826247.2344                                   23826243.1954
                                                                        40.7504
        19.7504
    195704.83648    181694.96946
                  21851792.0474                                   21851786.6524
                                                                        48.0004
        36.0004
   1060206.41847    845075.13745
                  22626791.2974                                   22626788.5944
                                                                        45.0004
        31.0004
 09 10  8 23 24  0.0000000  0  8G02G04G12G13G31G20G23G30
  -1502417.75848  -1129819.51246
                  21169768.4144                                   21169763.2774
                                                                        51.5004
        41.7504
    888322.72348    713100.63347
                  20605988.3364                                   20605985.3054
                                                                        53.5004
        42.2504
   2569397.14148   2004922.05945
                  23503945.1564                                   23503941.3714
                                                                        48.0004
        31.7504
  -2174678.19947  -1645710.10945
                  22419843.1414                                   22419840.2854
                                                                        47.0004
        30.2504
   2453560.62547   1916204.50044
                  23715307.4144                                   23715303.3674
                                                                        45.0004
        28.5004
   3574508.73047   2779447.50043
                  23828862.0864                                   23828857.8404
                                                                        42.7504
        22.5004
     97989.18848    105552.91846
                  21833197.3594                                   21833191.3484
                                                                        49.0004
        36.0004
    993116.23847    792797.06345
                  22614024.1094                                   22614021.1214
                                                                        45.0004
        30.7504
 09 10  8 23 24 30.0000000  0  8G02G04G12G13G31G20G23G30
  -1656718.32048  -1250053.70747
                  21140405.8674                                   21140400.8524
                                                                        50.5004
        42.0004
    816703.91448    657293.77747
                  20592359.6484                                   20592356.6644
                                                                        53.2504
        42.2504
   2552707.92248   1991917.53545
                  23500769.4224                                   23500765.3204
                                                                        48.0004
        32.0004
  -2351611.02347  -1783579.68445
                  22386174.2664                                   22386171.0594
                                                                        47.2504
        31.7504
   2382097.12547   1860518.65644
                  23701707.7584                                   23701704.1174
                                                                        45.5004
        29.5004
   3588353.24247   2790235.47344
                  23831496.4384                                   23831492.9304
                                                                        44.7504
        24.5004
       812.03948     29830.47745
                  21814705.0944                                   21814699.1024
                                                                        48.5004
        35.5004
    926587.10247    740956.20745
                  22601363.9384                                   22601360.9454
                                                                        44.2504
        31.0004
 09 10  8 23 25  0.0000000  0  8G02G04G12G13G31G20G23G30
  -1810658.32448  -1370006.96947
                  21111111.8914                                   21111107.0234
                                                                        51.5004
        42.2504
    745548.98848    601848.39547
                  20578819.3674                                   20578816.5744
                                                                        53.5004
        42.5004
   2536348.83648   1979170.14145
                  23497656.5554                                   23497652.9104
                                                                        48.7504
        31.5004
  -2528172.08647  -1921159.33645
                  22352575.1724                                   22352571.4534
                                                                        47.5004
        31.2504
   2311126.87547   1805217.15644
                  23688203.1024                                   23688199.1844
                                                                        45.0004
        29.2504
   3602305.89847   2801107.66444
                  23834152.0634                                   23834148.6254
                                                                        44.0004
        26.2504
    -95822.12548    -45468.88345
                  21796316.2194                                   21796310.7974
                                                                        49.2504
        35.2504
    860622.43047    689555.23045
                  22588811.7664                                   22588808.1454
                                                                        44.5004
        30.7504
 09 10  8 23 25 30.0000000  0  8G02G04G12G13G31G20G23G30
  -1964225.18748  -1489669.48047
                  21081889.3134                                   21081884.1954
                                                                        50.2504
        42.0004
    674868.36748    546772.61747
                  20565369.2584                                   20565366.5124
                                                                        53.2504
        42.5004
   2520328.48848   1966686.71545
                  23494608.1954                                   23494604.7584
                                                                        48.0004
        32.7504
  -2704349.14148  -2058440.33645
                  22319049.8674                                   22319046.2774
                                                                        48.0004
        31.7504
   2240660.27347   1750308.11744
                  23674793.6954                                   23674789.5044
                                                                        45.7504
        29.0004
   3616375.66846   2812071.09043
                  23836828.7274                                   23836825.8444
                                                                        41.2504
        21.7504
   -191901.61747   -120335.98845
                  21778032.5704                                   21778026.9024
                                                                        47.7504
        35.5004
    795231.91047    638601.57845
                  22576368.0004                                   22576365.0904
                                                                        44.5004
        30.0004
 09 10  8 23 26  0.0000000  0  8G02G04G12G13G31G20G23G30
  -2117412.86748  -1609036.50047
                  21052738.7734                                   21052733.9344
                                                                        51.0004
        42.0004
    604665.61349    492069.30547
                  20552009.9534                                   20552007.2114
                                                                        54.0004
        42.5004
   2504648.95347   1954469.10945
                  23491623.7584                                   23491620.6524
                                                                        47.7504
        32.5004
  -2880132.97748  -2195414.17645
                  22285598.9924                                   22285595.2114
                                                                        49.0004
        31.2504
   2170700.48447   1695793.97344
                  23661480.6094                                   23661477.0904
                                                                        45.0004
        29.5004
   3630564.47746   2823127.20343
                  23839527.6174                                   23839525.6214
                                                                        40.0004
        20.7504
   -287422.81248   -194768.06645
                  21759855.5704                                   21759850.2424
                                                                        48.7504
        35.5004
    730418.98447    588098.01245
                  22564034.7034                                   22564031.3874
                                                                        45.7504
        31.5004
 09 10  8 23 26 30.0000000  0  8G02G04G12G13G31G20G23G30
  -2270217.34848  -1728104.93446
                  21023660.7974                                   21023655.7934
                                                                        51.2504
        41.7504
    534942.06648    437739.35247
                  20538741.9614                                   20538739.0634
                                                                        53.7504
        42.5004
   2489309.92647   1942517.14845
                  23488704.6804                                   23488701.2974
                                                                        47.2504
        31.5004
  -3055521.10548  -2332080.25845
                  22252223.8754                                   22252220.2194
                                                                        48.7504
        32.7504
   2101249.05947   1641676.00444
                  23648264.3134                                   23648260.6524
                                                                        45.0004
        29.2504
   3644872.26646   2834276.08243
                  23842251.0004                                   23842248.2424
                                                                        40.2504
        20.7504
   -382383.22348   -268763.19146
                  21741785.2194                                   21741779.7274
                                                                        49.5004
        36.5004
    666184.17647    538044.88345
                  22551811.2274                                   22551808.4614
                                                                        45.5004
        30.0004
 09 10  8 23 27  0.0000000  0  8G02G04G12G13G31G20G23G30
  -2422630.04748  -1846868.08247
                  20994657.4384                                   20994652.7894
                                                                        51.2504
        42.0004
    465703.57448    383787.08247
                  20525566.5944                                   20525563.7074
                                                                        53.0004
        42.7504
   2474314.31347   1930832.45345
                  23485850.7194                                   23485847.9144
                                                                        46.7504
        31.7504
  -3230502.19948  -2468429.14845
                  22218926.0554                                   22218922.2894
                                                                        49.0004
        33.0004
   2032311.91447   1587958.77044
                  23635145.5634                                   23635142.5824
                                                                        44.7504
        28.7504
   3659303.79747   2845521.41443
                  23844997.9224                                   23844994.4414
                                                                        42.0004
        21.5004
   -476775.44148   -342315.55146
