     2.11           OBSERVATION DATA    G (GPS)             RINEX VERSION / TYPE
teqc  2019Feb25                         20221121 12:28:22UTCPGM / RUN BY / DATE
OSX ker:10.11.6|Core i5|gcc 4.3 -m64|OSX ker:10.10+|=+      COMMENT
BIT 2 OF LLI FLAGS DATA COLLECTED UNDER A/S CONDITION       COMMENT
04712880                                                    MARKER NAME
2880                                                        MARKER NUMBER
-Unknown-           -Unknown-                               OBSERVER / AGENCY
0220400471          TRIMBLE R7          2.30                REC # / TYPE / VERS
-Unknown-           TRM39105.00     NONE                    ANT # / TYPE
  1449460.0386 -1709241.5186  5952440.5158                  APPROX POSITION XYZ
        0.0000        0.0000        0.0000                  ANTENNA: DELTA H/E/N
     1     1                                                WAVELENGTH FACT L1/2
    20    L1    L2    L5    L6    L7    L8    C1    P1    C2# / TYPES OF OBSERV
          P2    C5    C6    C7    C8    S1    S2    S5    S6# / TYPES OF OBSERV
          S7    S8                                          # / TYPES OF OBSERV
    30.0000                                                 INTERVAL
    15                                                      LEAP SECONDS
Forced Modulo Decimation to 30 seconds                      COMMENT
 SNR is mapped to RINEX snr flag value [0-9]                COMMENT
  L1 & L2: min(max(int(snr_dBHz/6), 0), 9)                  COMMENT
teqc edited: Beidou # 1 - 37 excluded                       COMMENT
  2009    10    15     0     0    0.0000000     GPS         TIME OF FIRST OBS
                                                            END OF HEADER
 09 10 15  0  0  0.0000000  0  9G02G04G05G13G29G23G10G30G25
 -11422807.34848  -8859691.74647
                  20424093.4694                                   20424088.2154
                                                                        52.2504
        43.2504
  -2988506.17648  -2313524.05146
                  21794043.6174                                   21794040.8204
                                                                        50.2504
        38.0004
 -10495396.61347  -8165612.18445
                  23204691.6644                                   23204687.5044
                                                                        46.5004
        33.7504
 -13356423.55948 -10361994.68446
                  21212847.0474                                   21212843.2894
                                                                        49.5004
        37.2504
 -16307556.20747 -12665876.85545
                  22851880.4614                                   22851878.0664
                                                                        44.0004
        32.5004
  -4998772.62547  -3870345.43745
                  22527987.7194                                   22527982.3984
                                                                        46.2504
        31.5004
 -16665577.07847 -12974052.72745
                  22364305.6254                                   22364302.2034
                                                                        47.2504
        34.5004
  -2068524.46146  -1596487.27743
                  23988715.6954                                   23988714.1844
                                                                        40.0004
        22.5004
  -4018764.04346  -3095102.83243
                  23824024.5864                                   23824022.1684
                                                                        40.5004
        23.0004
 09 10 15  0  0 30.0000000  0  9G02G04G05G13G29G23G10G30G25
 -11502922.74648  -8922119.35547
                  20408848.2894                                   20408842.9844
                                                                        51.7504
        43.2504
  -2991088.27048  -2315536.07446
                  21793552.4844                                   21793549.8284
                                                                        50.0004
        38.0004
 -10685096.28947  -8313430.08645
                  23168592.5944                                   23168589.1564
                                                                        47.5004
        33.5004
 -13452038.30948 -10436499.75046
                  21194652.1174                                   21194648.2934
                                                                        49.2504
        36.5004
 -16462534.77047 -12786639.15245
                  22822388.5164                                   22822386.1764
                                                                        44.0004
        32.5004
  -5015598.92247  -3883456.80545
                  22524786.1644                                   22524780.4264
                                                                        46.7504
        30.7504
 -16848713.15247 -13116756.16845
                  22329455.9144                                   22329453.0004
                                                                        46.2504
        34.5004
  -2060864.28146  -1590518.29744
                  23990174.4144                                   23990171.8524
                                                                        40.2504
        25.2504
  -4185475.89546  -3225008.08644
                  23792300.2814                                   23792297.8014
                                                                        40.0004
        24.2504
 09 10 15  0  1  0.0000000  0  9G02G04G05G13G29G23G10G30G25
 -11582426.14548  -8984069.98847
                  20393718.7664                                   20393713.7664
                                                                        51.7504
        43.5004
  -2993259.07048  -2317227.61746
                  21793139.7814                                   21793136.3834
                                                                        49.0004
        38.0004
 -10874540.31247  -8461048.76245
                  23132542.2734                                   23132539.1214
                                                                        46.5004
        33.5004
 -13546956.42248 -10510462.05946
                  21176590.1804                                   21176586.2424
                                                                        48.7504
        36.7504
 -16617029.89547 -12907024.80145
                  22792989.6024                                   22792986.8914
                                                                        44.5004
        33.0004
  -5031905.34047  -3896163.06245
                  22521683.0394                                   22521677.7074
                                                                        46.0004
        31.5004
 -17031495.87547 -13259184.23845
                  22294673.2734                                   22294670.4384
                                                                        45.7504
        34.7504
  -2052811.04746  -1584243.05143
                  23991707.0944                                   23991704.5664
                                                                        41.5004
        22.7504
  -4351812.83246  -3354621.25444
                  23760647.3594                                   23760644.9024
                                                                        41.0004
        25.2504
 09 10 15  0  1 30.0000000  0  9G02G04G05G13G29G23G10G30G25
 -11661314.60948  -9045541.50047
                  20378706.9144                                   20378701.6844
                                                                        52.0004
        43.2504
  -2995017.93048  -2318598.16846
                  21792805.0944                                   21792801.5704
                                                                        48.7504
        37.2504
 -11063724.00847  -8608464.56645
                  23096541.7034                                   23096538.7664
                                                                        46.5004
        33.2504
 -13641174.63348 -10583878.82846
                  21158660.9454                                   21158657.1454
                                                                        48.5004
        37.2504
 -16771036.81647 -13027030.21945
                  22763682.8984                                   22763680.3554
                                                                        45.0004
        32.5004
  -5047691.61347  -3908464.06245
                  22518678.8594                                   22518672.7584
                                                                        47.0004
        31.5004
 -17213920.03947 -13401332.93045
                  22259959.4614                                   22259956.6844
                                                                        47.0004
        35.5004
  -2044365.14547  -1577661.79743
                  23993314.0234                                   23993311.4064
                                                                        43.5004
        23.0004
  -4517769.53146  -3483938.09844
                  23729067.2344                                   23729064.4804
                                                                        41.5004
        25.0004
 09 10 15  0  2  0.0000000  0  9G02G04G05G13G29G23G10G30G25
 -11739588.16048  -9106533.75447
                  20363811.7274                                   20363806.5824
                                                                        51.5004
        43.0004
  -2996367.10248  -2319649.50046
                  21792547.9064                                   21792545.2894
                                                                        50.5004
        38.0004
 -11252645.57447  -8755676.11345
                  23060590.8364                                   23060588.0274
                                                                        47.0004
        33.5004
 -13734693.49648 -10656750.68746
                  21140864.8134                                   21140861.6884
                                                                        49.5004
        37.5004
 -16924553.30947 -13146653.41845
                  22734469.4774                                   22734467.2154
                                                                        44.5004
        33.2504
  -5062960.00447  -3920361.52045
                  22515773.4534                                   22515768.2304
                                                                        46.2504
        31.5004
 -17395984.02347 -13543200.96545
                  22225313.6564                                   22225310.5744
                                                                        47.5004
        35.7504
  -2035530.29347  -1570777.49643
                  23994995.5474                                   23994992.5944
                                                                        43.2504
        22.5004
  -4683343.61746  -3612956.80943
                  23697559.4844                                   23697556.6724
                                                                        41.0004
        22.7504
 09 10 15  0  2 30.0000000  0  9G02G04G05G13G29G23G10G30G25
 -11817246.98848  -9167047.04747
                  20349033.5864                                   20349028.5824
                                                                        51.7504
        42.7504
  -2997308.63348  -2320383.19546
                  21792368.8754                                   21792366.1024
                                                                        49.7504
        37.2504
 -11441302.91848  -8902681.81245
                  23024691.1724                                   23024687.3284
                                                                        48.5004
        34.0004
 -13827512.64148 -10729077.29346
                  21123202.0784                                   21123198.4774
                                                                        49.2504
        37.2504
 -17077577.19147 -13265892.78545
                  22705349.9614                                   22705347.3134
                                                                        44.5004
        33.5004
  -5077713.00447  -3931857.36745
                  22512965.8204                                   22512960.8874
                                                                        46.2504
        31.0004
 -17577685.83247 -13684786.77745
                  22190736.8754                                   22190733.7544
                                                                        47.2504
        35.0004
  -2026309.59047  -1563592.52043
                  23996749.8674                                   23996746.9694
                                                                        42.7504
        22.2504
  -4848532.62146  -3741675.50444
                  23666125.1414                                   23666121.7154
                                                                        41.5004
        24.5004
 09 10 15  0  3  0.0000000  0  9G02G04G05G13G29G23G10G30G25
 -11894292.03548  -9227082.16847
                  20334372.4614                                   20334367.2384
                                                                        52.0004
        42.7504
  -2997845.32448  -2320801.43746
                  21792266.5474                                   21792264.1524
                                                                        50.0004
        37.0004
 -11629695.36348  -9049481.10945
                  22988841.4534                                   22988837.0904
                                                                        48.2504
        34.5004
 -13919632.88348 -10800859.28946
                  21105672.0474                                   21105668.5744
                                                                        50.2504
        37.2504
 -17230107.03947 -13384747.18045
                  22676324.6254                                   22676322.0864
                                                                        44.7504
        33.5004
  -5091953.69147  -3942954.02745
                  22510255.8524                                   22510250.6294
                                                                        45.2504
        30.0004
 -17759024.43447 -13826089.57845
                  22156229.0314                                   22156225.9694
                                                                        47.0004
        35.2504
  -2016707.57047  -1556110.43443
                  23998577.4694                                   23998574.4064
                                                                        42.0004
        22.0004
  -5013335.03147  -3870093.18043
                  23634764.1414                                   23634760.8054
                                                                        42.5004
        23.0004
 09 10 15  0  3 30.0000000  0  9G02G04G05G13G29G23G10G30G25
 -11970721.93048  -9286637.87547
                  20319828.5164                                   20319822.9454
                                                                        51.5004
        42.7504
  -2997977.68048  -2320904.55946
                  21792241.7814                                   21792238.9454
                                                                        49.5004
        36.5004
 -11817819.85547  -9196071.60545
                  22953042.2194                                   22953038.6214
                                                                        47.5004
        33.5004
 -14011052.93448 -10872095.72346
                  21088275.4454                                   21088271.9454
                                                                        49.5004
        36.5004
 -17382139.72347 -13503214.14545
                  22647393.1564                                   22647391.1454
                                                                        44.2504
        33.2504
  -5105683.25047  -3953652.42644
                  22507643.0234                                   22507638.0274
                                                                        45.7504
        29.5004
 -17939996.19947 -13967106.52745
                  22121791.3594                                   22121788.3204
                                                                        47.2504
        35.0004
  -2006725.93046  -1548332.57443
                  24000476.4924                                   24000473.8754
                                                                        41.0004
        22.5004
  -5177746.46546  -3998206.07443
                  23603478.0394                                   23603474.8714
                                                                        40.7504
        23.0004
 09 10 15  0  4  0.0000000  0  9G02G04G05G13G29G23G10G30G25
 -12046537.32048  -9345714.76647
                  20305401.0474                                   20305395.7814
                                                                        51.7504
        43.2504
  -2997708.93448  -2320695.15646
                  21792292.5944                                   21792289.8244
                                                                        49.5004
        37.2504
 -12005674.80947  -9342452.05545
                  22917294.4224                                   22917290.9804
                                                                        46.7504
        33.5004
 -14101773.00848 -10942786.69146
                  21071012.0554                                   21071008.7814
                                                                        49.5004
        37.0004
 -17533673.66447 -13621292.52045
                  22618557.8674                                   22618555.3594
                                                                        44.7504
        34.5004
  -5118904.84047  -3963955.04344
                  22505127.1954                                   22505122.3054
                                                                        46.0004
        29.0004
 -18120599.62147 -14107836.45345
                  22087423.7974                                   22087420.2074
                                                                        47.5004
        34.7504
  -1996368.38746  -1540261.77043
                  24002447.4844                                   24002445.3204
                                                                        41.2504
        23.5004
  -5341765.50446  -4126013.24243
                  23572265.7344                                   23572263.2464
                                                                        41.2504
        23.5004
 09 10 15  0  4 30.0000000  0  9G02G04G05G13G29G23G10G30G25
 -10546314.15248  -8176709.68747
                  20590884.1174                                   20590879.0434
                                                                        52.0004
        42.7504
  -1421619.24248  -1092573.34046
                  22092212.6884                                   22092209.6764
                                                                        50.5004
        37.0004
 -10617830.29347  -8261014.74645
                  23181391.8914                                   23181388.8404
                                                                        47.2504
        34.5004
 -12616368.98848  -9785329.03146
                  21353674.9924                                   21353671.4924
                                                                        49.2504
        37.0004
 -16109279.70747 -12511375.15245
                  22889610.7814                                   22889608.5784
                                                                        45.7504
        33.7504
  -3556198.43447  -2746261.73445
                  22802500.4304                                   22802494.7234
                                                                        46.2504
        30.5004
 -16725405.18047 -13020671.96545
                  22352920.4694                                   22352917.5594
                                                                        47.5004
        35.5004
   -410217.36747   -304299.98444
                  24304282.1884                                   24304279.6524
                                                                        42.5004
        24.2504
  -3929961.70346  -3025906.25844
                  23840923.2424                                   23840920.3364
                                                                        39.7504
        25.5004
 09 10 15  0  5  0.0000000  0  9G02G04G05G13G29G23G10G30G25
 -10620897.41448  -8234826.55947
                  20576691.4454                                   20576686.2424
                                                                        51.5004
        43.5004
  -1420550.69548  -1091740.72346
                  22092416.0634                                   22092413.3134
                                                                        50.0004
        37.2504
 -10805137.18047  -8406968.14545
                  23145749.0784                                   23145745.6454
                                                                        47.7504
        34.0004
 -12705686.09848  -9854926.73446
                  21336678.4454                                   21336674.8094
                                                                        49.5004
        36.0004
 -16259806.36347 -12628668.66045
                  22860966.2424                                   22860963.9574
                                                                        45.0004
        34.2504
  -3568407.64147  -2755775.37544
                  22800177.4144                                   22800171.8014
                                                                        45.5004
        29.7504
 -16905262.68047 -13160820.65245
                  22318694.5704                                   22318691.3094
                                                                        47.5004
        35.0004
   -399114.95347   -295648.81643
                  24306394.7894                                   24306392.2704
                                                                        43.5004
        23.5004
  -4093183.91846  -3153092.30144
                  23809863.5474                                   23809860.6054
                                                                        41.2504
        25.5004
 09 10 15  0  5 30.0000000  0  8G02G04G05G13G29G23G10G25
 -10694867.37548  -8292465.48447
                  20562615.5314                                   20562610.3014
                                                                        52.0004
        43.0004
  -1419087.71548  -1090600.75046
                  22092694.3284                                   22092691.5274
                                                                        48.7504
        36.2504
 -10992169.50048  -8552707.57845
                  23110158.3674                                   23110155.1994
                                                                        48.2504
        35.0004
 -12794304.39148  -9923979.98446
                  21319814.7114                                   21319811.2854
                                                                        50.2504
        37.0004
 -16409829.03147 -12745569.52345
                  22832417.7114                                   22832415.7544
                                                                        46.0004
        34.0004
  -3580116.48047  -2764899.16444
                  22797949.2194                                   22797942.9614
                                                                        47.0004
        29.7504
 -17084746.60547 -13300678.25445
                  22284540.2194                                   22284536.9064
                                                                        47.5004
        34.7504
  -4256006.61747  -3279967.01244
                  23778879.0314                                   23778876.3444
                                                                        42.5004
        25.5004
 09 10 15  0  6  0.0000000  0  8G02G04G05G13G29G23G10G25
 -10768223.52748  -8349626.18447
                  20548656.2194                                   20548651.0594
                                                                        51.2504
        42.7504
  -1417231.95748  -1089154.69946
                  22093047.7424                                   22093044.4844
                                                                        49.0004
        36.7504
 -11178924.95748  -8698231.28945
                  23074619.9144                                   23074616.3134
                                                                        48.0004
        34.2504
 -12882223.41848  -9992488.37946
                  21303084.5314                                   21303081.0004
                                                                        49.0004
        36.7504
 -16559344.78147 -12862075.36345
                  22803966.8364                                   22803964.1684
                                                                        45.7504
        33.5004
  -3591327.05547  -2773634.63345
                  22795815.9064                                   22795809.7974
                                                                        46.2504
        31.2504
 -17263854.64847 -13440242.94545
                  22250457.0004                                   22250454.1684
                                                                        46.7504
        35.0004
  -4418426.81247  -3406528.05944
                  23747971.4144                                   23747968.2074
                                                                        43.0004
        26.0004
 09 10 15  0  6 30.0000000  0  8G02G04G05G13G29G23G10G25
 -10840959.98448  -8406303.94947
                  20534814.7034                                   20534810.0474
                                                                        52.0004
        43.0004
  -1414979.87548  -1087399.84446
                  22093475.9924                                   22093473.1564
                                                                        49.5004
        36.2504
 -11365395.76647  -8843533.21145
                  23039135.2974                                   23039132.2704
                                                                        47.7504
        33.5004
 -12969436.89848 -10060446.92646
                  21286488.4844                                   21286484.8714
                                                                        49.0004
        37.0004
 -16708345.78947 -12978180.11745
                  22775612.7664                                   22775609.8284
                                                                        45.2504
        33.0004
  -3602036.20747  -2781979.43044
                  22793777.9224                                   22793772.7664
                                                                        45.5004
        29.7504
 -17442578.38747 -13579508.17246
                  22216447.1174                                   22216444.5704
                                                                        47.5004
        36.2504
  -4580436.17247  -3532769.01644
                  23717142.0084                                   23717139.1024
                                                                        43.2504
        26.5004
 09 10 15  0  7  0.0000000  0  8G02G04G05G13G29G23G10G25
 -10913073.43048  -8462496.20747
                  20521092.2424                                   20521086.9804
                                                                        52.7504
        43.0004
  -1412329.66048  -1085334.74646
                  22093980.5394                                   22093977.8364
                                                                        49.7504
        36.7504
 -11551576.38747  -8988609.00445
                  23003705.8134                                   23003702.6914
                                                                        47.5004
        34.0004
 -13055941.75048 -10127853.28146
                  21270026.9534                                   21270023.4884
                                                                        49.0004
        36.7504
 -16856826.41447 -13093879.36345
                  22747357.6954                                   22747355.0314
                                                                        45.5004
        34.0004
  -3612242.61347  -2789932.47345
                  22791835.5944                                   22791830.2194
                                                                        45.2504
        30.5004
 -17620912.34848 -13718469.69946
                  22182511.5474                                   22182508.6954
                                                                        48.0004
        36.7504
  -4742028.53947  -3658685.05944
                  23686392.6484                                   23686388.3914
                                                                        43.7504
        25.5004
 09 10 15  0  7 30.0000000  0  8G02G04G05G13G29G23G10G25
 -10984575.87548  -8518212.41447
                  20507486.1804                                   20507480.8134
                                                                        51.7504
        43.5004
  -1409295.18448  -1082970.24246
                  22094558.0474                                   22094555.3714
                                                                        49.2504
        36.5004
 -11737476.83248  -9133466.47745
                  22968330.8984                                   22968327.4574
                                                                        48.0004
        34.7504
 -13141749.77348 -10194716.70346
                  21253698.4454                                   21253694.5084
                                                                        49.2504
        37.0004
 -17004796.26247 -13209180.62945
                  22719200.5394                                   22719197.3674
                                                                        45.7504
        34.0004
  -3621960.24647  -2797504.69144
                  22789986.1644                                   22789981.3094
                                                                        44.2504
        29.5004
 -17798866.27347 -13857135.07446
                  22148647.7114                                   22148644.4304
                                                                        47.0004
        36.2504
  -4903213.23047  -3784283.48444
                  23655719.2894                                   23655715.8874
                                                                        44.0004
        26.0004
 09 10 15  0  8  0.0000000  0  8G02G04G05G13G29G23G10G25
 -11055468.62148  -8573453.67647
                  20493995.6804                                   20493990.1174
                                                                        52.5004
        43.0004
  -1405879.42648  -1080308.65646
                  22095208.2424                                   22095205.1844
                                                                        48.5004
        37.2504
 -11923095.79747  -9278104.60945
                  22933008.6094                                   22933005.6024
                                                                        47.7504
        35.5004
 -13226861.91448 -10261037.83646
                  21237502.0704                                   21237498.2974
                                                                        49.0004
        36.5004
 -17152254.38347 -13324083.11745
                  22691139.7114                                   22691137.0514
                                                                        46.0004
        33.5004
  -3631192.42247  -2804698.58645
                  22788229.7114                                   22788224.4024
                                                                        45.0004
        30.0004
 -17976439.05547 -13995503.45746
                  22114856.6094                                   22114853.2774
                                                                        47.2504
        36.0004
  -5063988.61747  -3909562.99644
                  23625125.0944                                   23625121.6884
                                                                        43.0004
        24.2504
 09 10 15  0  8 30.0000000  0  8G02G04G05G13G29G23G10G25
 -11125752.51648  -8628220.48447
                  20480621.1884                                   20480615.8404
                                                                        52.5004
        42.7504
  -1402085.79748  -1077352.58246
                  22095930.1564                                   22095926.7464
                                                                        48.5004
        36.0004
 -12108432.67648  -9422522.94145
                  22897740.3444                                   22897737.4614
                                                                        48.0004
        35.5004
 -13311279.85948 -10326818.05546
                  21221437.5784                                   21221434.2274
                                                                        48.5004
        36.5004
 -17299199.60947 -13438585.92645
                  22663176.8134                                   22663174.6604
                                                                        46.2504
        34.5004
  -3639943.30547  -2811517.47745
                  22786564.3444                                   22786559.4344
                                                                        45.0004
        30.2504
 -18153629.65647 -14133574.05945
                  22081138.3984                                   22081134.8524
                                                                        47.5004
        35.5004
  -5224353.50047  -4034522.60243
                  23594607.8674                                   23594605.4344
                                                                        42.2504
        22.7504
 09 10 15  0  9  0.0000000  0  8G02G04G05G13G29G23G10G25
 -11195430.89848  -8682515.37147
                  20467361.9224                                   20467356.6764
                                                                        52.5004
        43.2504
  -1397919.36348  -1074106.02046
                  22096722.4694                                   22096719.6294
                                                                        49.5004
        36.0004
 -12293489.05147  -9566722.69545
                  22862525.0004                                   22862521.8054
                                                                        47.7504
        35.0004
 -13395006.81648 -10392059.85946
                  21205505.0314                                   21205501.6414
                                                                        49.2504
        37.2504
 -17445633.43447 -13552690.22745
                  22635311.5554                                   22635309.3444
                                                                        46.7504
        34.7504
  -3648218.25847  -2817965.47745
                  22784989.9064                                   22784984.3834
                                                                        45.7504
        30.0004
 -18330439.84447 -14271348.23045
                  22047492.3754                                   22047489.2974
                                                                        47.5004
        35.7504
  -5384308.48046  -4159162.81243
                  23564169.6254                                   23564166.9304
                                                                        41.7504
        23.0004
 09 10 15  0  9 30.0000000  0  8G02G04G05G13G29G23G10G25
 -11264506.59448  -8736340.57447
                  20454217.2584                                   20454212.0084
                                                                        52.5004
        43.0004
  -1393384.64848  -1070572.44146
                  22097585.8054                                   22097582.9574
                                                                        48.7504
        36.7504
 -12478264.94147  -9710703.89145
                  22827363.0474                                   22827359.7894
                                                                        46.2504
        35.0004
 -13478045.27048 -10456765.16846
                  21189703.3984                                   21189700.0904
                                                                        49.2504
        37.0004
 -17591555.89547 -13666396.03145
                  22607543.6094                                   22607540.8914
                                                                        46.5004
        34.5004
  -3656022.16047  -2824046.35545
                  22783504.8834                                   22783499.2304
                                                                        45.0004
        30.0004
 -18506869.85948 -14408826.15245
                  22013918.7114                                   22013915.8874
                                                                        48.0004
        35.7504
  -5543853.39147  -4283483.46144
                  23533809.1564                                   23533806.2624
                                                                        42.5004
        25.2504
 09 10 15  0 10  0.0000000  0  8G02G04G05G13G29G23G10G25
 -11332980.39548  -8789696.73447
                  20441186.9774                                   20441181.9454
                                                                        52.0004
        42.7504
  -1388484.52348  -1066754.17646
                  22098518.1174                                   22098515.2074
                                                                        49.2504
        36.7504
 -12662759.23047  -9854465.64545
                  22792255.2584                                   22792251.9344
                                                                        46.5004
        35.5004
 -13560396.18048 -10520934.68746
                  21174032.7274                                   21174029.2194
                                                                        49.5004
        37.5004
 -17736965.84447 -13779702.48445
                  22579872.9694                                   22579870.2664
                                                                        46.5004
        35.0004
  -3663357.68747  -2829762.28544
                  22782108.8134                                   22782103.4024
                                                                        45.0004
        29.5004
 -18682917.78548 -14546006.34845
                  21980418.0164                                   21980414.8794
                                                                        48.2504
        35.7504
  -5702986.33247  -4407483.08244
                  23503527.5704                                   23503524.1684
                                                                        42.7504
        25.2504
 09 10 15  0 10 30.0000000  0  8G02G04G05G13G29G23G10G25
 -11400850.61748  -8842582.58647
                  20428271.6414                                   20428266.3284
                                                                        52.0004
        42.7504
  -1383218.97348  -1062651.17246
                  22099520.4694                                   22099517.3364
                                                                        49.0004
        36.7504
 -12846967.78547  -9998004.76645
                  22757201.5164                                   22757198.5514
                                                                        46.0004
        35.7504
 -13642057.56248 -10584566.92646
                  21158493.0084                                   21158489.2774
                                                                        50.0004
        36.7504
 -17881859.27747 -13892606.42245
                  22552300.1564                                   22552297.9964
                                                                        46.7504
        34.5004
  -3670225.96147  -2835114.18444
                  22780801.7424                                   22780796.0704
                                                                        45.7504
        28.0004
 -18858579.61348 -14682885.67246
                  21946991.0234                                   21946987.8094
                                                                        48.5004
        36.7504
  -5861702.96947  -4531158.35944
                  23473324.5704                                   23473321.6884
                                                                        43.0004
        26.7504
 09 10 15  0 11  0.0000000  0  8G02G04G05G13G29G23G10G25
 -11468119.53948  -8895000.06247
                  20415470.4774                                   20415465.5864
                                                                        51.5004
        42.7504
  -1377591.59848  -1058266.22746
                  22100590.9924                                   22100588.2194
                                                                        49.0004
        36.0004
 -13030890.64547 -10141321.27345
                  22722202.2114                                   22722198.8364
                                                                        46.7504
        35.2504
 -13723031.50848 -10647663.52346
                  21143084.2424                                   21143080.7584
                                                                        50.5004
        36.7504
 -18026235.73047 -14005107.59445
                  22524826.5864                                   22524824.1334
                                                                        46.5004
        34.7504
  -3676630.60547  -2840104.84044
                  22779582.9694                                   22779576.8444
                                                                        45.5004
        28.5004
 -19033854.92648 -14819463.82446
                  21913636.9844                                   21913633.9734
                                                                        48.7504
        36.5004
  -6020002.37147  -4654508.52044
                  23443201.8444                                   23443198.2974
                                                                        43.2504
        27.5004
 09 10 15  0 11 30.0000000  0  8G02G04G05G13G29G23G10G25
 -11534788.37548  -8946949.86747
                  20402784.2504                                   20402779.2734
                                                                        51.5004
        42.7504
  -1371605.92648  -1053602.07846
                  22101729.8204                                   22101727.6374
                                                                        49.0004
        36.0004
 -13214527.05547 -10284414.57445
                  22687257.1174                                   22687254.2304
                                                                        45.5004
        35.7504
 -13803319.84048 -10710225.87146
                  21127805.8204                                   21127802.2934
                                                                        50.5004
        37.0004
 -18170094.61347 -14117205.38745
                  22497451.1094                                   22497448.8714
                                                                        47.0004
        34.7504
  -3682575.81647  -2844737.48844
                  22778451.6024                                   22778445.9104
                                                                        44.5004
        27.5004
 -19208743.29348 -14955740.45746
                  21880356.5164                                   21880353.5354
                                                                        48.7504
        36.5004
  -6177883.59447  -4777532.84044
                  23413157.8984                                   23413154.0474
                                                                        42.0004
        27.7504
 09 10 15  0 12  0.0000000  0  8G02G04G05G13G29G23G10G25
 -11600856.67248  -8998431.69547
                  20390211.8284                                   20390206.5864
                                                                        51.5004
        42.7504
  -1365263.25448  -1048659.76246
                  22102937.0234                                   22102934.2154
                                                                        48.7504
        36.0004
 -13397874.26247 -10427282.50845
                  22652367.3134                                   22652364.1604
                                                                        47.0004
        35.7504
 -13882922.02048 -10772253.61346
                  21112658.1254                                   21112654.5634
                                                                        51.0004
        37.2504
 -18313433.01247 -14228897.63745
                  22470174.3914                                   22470172.1684
                                                                        46.0004
        34.0004
  -3688062.93047  -2849013.17244
                  22777407.4454                                   22777402.0084
                                                                        45.5004
        28.0004
 -19383242.13348 -15091713.56646
                  21847150.6024                                   21847147.8164
                                                                        48.2504
        36.0004
  -6335343.22346  -4900228.62544
                  23383193.8524                                   23383190.7814
                                                                        41.2504
        26.2504
 09 10 15  0 12 30.0000000  0  8G02G04G05G13G29G23G10G25
 -11666324.24248  -9049445.41847
                  20377753.6644                                   20377748.9024
                                                                        51.7504
        42.2504
  -1358565.19948  -1043440.51646
                  22104211.7034                                   22104209.1214
                                                                        49.0004
        36.0004
 -13580929.94547 -10569923.29346
                  22617533.1804                                   22617530.1414
                                                                        46.5004
        36.5004
 -13961837.58248 -10833746.19546
                  21097640.7974                                   21097637.3984
                                                                        51.0004
        36.5004
 -18456248.69147 -14340182.57045
                  22442997.8984                                   22442995.2114
                                                                        46.2504
        34.2504
  -3693094.24647  -2852933.64144
                  22776450.1724                                   22776444.8954
                                                                        45.2504
        28.5004
 -19557348.65248 -15227380.96946
                  21814019.2034                                   21814016.1804
                                                                        49.0004
        36.2504
  -6492378.49246  -5022593.73844
                  23353310.4924                                   23353308.4384
                                                                        40.0004
        26.0004
 09 10 15  0 13  0.0000000  0  8G02G04G05G13G29G23G10G25
 -11731191.85248  -9099991.66847
                  20365409.8054                                   20365404.8954
                                                                        52.2504
        42.5004
  -1351514.34848  -1037946.35946
                  22105553.3984                                   22105550.8404
                                                                        50.0004
        36.0004
 -13763692.36347 -10712335.53145
                  22582754.7664                                   22582751.0744
                                                                        47.2504
        35.7504
 -14040067.51248 -10894704.51246
                  21082754.4064                                   21082750.6724
                                                                        51.0004
        36.5004
 -18598540.27347 -14451059.15245
                  22415920.7734                                   22415918.0354
                                                                        47.0004
        34.5004
  -3697672.57447  -2856501.18744
                  22775578.8674                                   22775573.8204
                                                                        45.7504
        29.5004
 -19731061.16448 -15362741.36746
                  21780962.8834                                   21780960.2114
                                                                        48.5004
        36.5004
  -6648987.29346  -5144626.53944
                  23323509.0234                                   23323506.3444
                                                                        39.7504
        25.5004
 09 10 15  0 13 30.0000000  0  8G02G04G05G13G29G23G10G25
 -10220037.14848  -7922468.55947
                  20652973.3054                                   20652967.8594
                                                                        52.2504
        42.7504
    231307.53148    195421.33645
                  22406754.3204                                   22406751.6094
                                                                        49.0004
        35.2504
 -12370733.05147  -9626912.68446
                  22847825.8914                                   22847822.5744
                                                                        47.2504
        36.2504
 -12542189.10948  -9727526.50846
                  21367791.0394                                   21367787.2344
                                                                        51.2504
        36.5004
 -17164880.00047 -13333921.24245
                  22688736.7974                                   22688734.2234
                                                                        47.7504
        34.5004
  -2126379.80947  -1632117.21544
                  23074586.1724                                   23074581.3634
                                                                        46.0004
        29.7504
 -18328951.39848 -14270188.30546
                  22047775.4694                                   22047772.6484
                                                                        49.7504
        37.2504
  -5229741.39547  -4038720.61744
                  23593582.7194                                   23593578.8674
                                                                        42.5004
        25.0004
 09 10 15  0 14  0.0000000  0  8G02G04G05G13G29G23G10G25
 -10283703.99248  -7972079.08247
                  20640857.9774                                   20640852.9224
                                                                        52.0004
        42.7504
    239059.91048    201462.13745
                  22408229.9384                                   22408227.1174
                                                                        49.5004
        35.5004
 -12552901.37547  -9768861.99646
                  22813160.6484                                   22813157.4654
                                                                        47.0004
        36.2504
 -12619047.49648  -9787416.23046
                  21353165.2664                                   21353161.7774
                                                                        51.5004
        37.0004
 -17306114.92247 -13443974.34045
                  22661861.0394                                   22661858.4344
                                                                        47.0004
        34.7504
  -2130057.68747  -1634983.08645
                  23073886.3594                                   23073880.3984
                                                                        45.5004
        30.0004
 -18501867.96148 -14404928.48846
                  22014870.7424                                   22014867.9304
                                                                        50.0004
        37.5004
  -5385488.27346  -4160081.90644
                  23563944.8914                                   23563941.5554
                                                                        41.5004
        26.2504
 09 10 15  0 14 30.0000000  0  8G02G04G05G13G29G23G10G25
 -10346769.99648  -8021221.36747
                  20628856.6174                                   20628851.6214
                                                                        52.0004
        42.5004
    247160.39148    207774.17645
                  22409771.0554                                   22409768.5944
                                                                        48.5004
        35.5004
 -12734769.14847  -9910577.12546
                  22778551.8914                                   22778549.1484
                                                                        47.0004
        36.2504
 -12695219.98848  -9846771.46146
                  21338670.3364                                   21338666.6524
                                                                        51.0004
        36.5004
 -17446817.98847 -13553613.06245
                  22635085.9304                                   22635082.7934
                                                                        46.5004
        34.0004
  -2133288.69147  -1637500.73044
                  23073271.3834                                   23073265.5824
                                                                        46.2504
        28.5004
 -18674382.93048 -14539355.71946
                  21982042.3524                                   21982039.5704
                                                                        49.0004
        37.0004
  -5540799.70347  -4281103.83644
                  23534390.6484                                   23534387.2384
                                                                        42.7504
        26.5004
 09 10 15  0 15  0.0000000  0  8G02G04G05G13G29G23G10G25
 -10409238.05148  -8069897.75047
                  20616969.4614                                   20616964.1174
                                                                        52.5004
        43.2504
    255605.11348    214354.46545
                  22411378.1254                                   22411375.1724
                                                                        49.5004
        35.0004
 -12916336.68748 -10052058.32446
                  22744000.6804                                   22743997.4844
                                                                        48.0004
        36.5004
 -12770708.77048  -9905593.89546
                  21324305.3524                                   21324301.8404
                                                                        51.7504
        36.7504
 -17586989.46547 -13662837.59445
                  22608411.8984                                   22608409.3984
                                                                        46.7504
        35.0004
  -2136076.94947  -1639673.35944
                  23072740.8134                                   23072734.7814
                                                                        44.7504
        26.5004
 -18846496.10948 -14673469.88746
                  21949289.7584                                   21949287.1374
                                                                        49.2504
        37.0004
  -5695675.23847  -4401786.03944
                  23504918.7194                                   23504915.6254
                                                                        43.0004
        27.0004
 09 10 15  0 15 30.0000000  0  8G02G04G05G13G29G23G10G25
 -10471109.06248  -8118109.05547
                  20605195.8204                                   20605190.9184
                                                                        51.7504
        43.0004
    264391.66848    221201.12945
                  22413050.2194                                   22413047.1024
                                                                        48.5004
        35.5004
 -13097602.08248 -10193304.08246
                  22709507.6884                                   22709504.2934
                                                                        48.2504
        36.2504
 -12845514.74248  -9963884.26646
                  21310070.1564                                   21310066.1804
                                                                        52.0004
        37.0004
 -17726627.61747 -13771646.55145
                  22581840.0554                                   22581837.7034
                                                                        45.7504
        35.0004
  -2138425.46547  -1641503.35544
                  23072293.3284                                   23072287.5204
                                                                        45.0004
        26.2504
 -19018205.80948 -14807269.69946
                  21916614.9454                                   21916611.9924
                                                                        48.0004
        36.7504
  -5850113.15647  -4522127.33644
                  23475530.3284                                   23475527.1954
                                                                        42.0004
        26.7504
 09 10 15  0 16  0.0000000  0  8G02G04G05G13G29G23G10G25
 -10532382.16448  -8165854.32847
                  20593536.1804                                   20593530.7974
                                                                        52.0004
        42.7504
    273518.57848    228313.00045
                  22414787.2974                                   22414784.1884
                                                                        49.5004
        35.7504
 -13278562.67648 -10334312.32845
                  22675071.4844                                   22675067.8714
