     2.11           OBSERVATION DATA    G (GPS)             RINEX VERSION / TYPE
teqc  2019Feb25                         20221121 12:27:58UTCPGM / RUN BY / DATE
OSX ker:10.11.6|Core i5|gcc 4.3 -m64|OSX ker:10.10+|=+      COMMENT
BIT 2 OF LLI FLAGS DATA COLLECTED UNDER A/S CONDITION       COMMENT
04712760                                                    MARKER NAME
2760                                                        MARKER NUMBER
-Unknown-           -Unknown-                               OBSERVER / AGENCY
0220400471          TRIMBLE R7          2.30                REC # / TYPE / VERS
-Unknown-           TRM39105.00     NONE                    ANT # / TYPE
  1449460.3844 -1709239.8099  5952443.0361                  APPROX POSITION XYZ
        0.0000        0.0000        0.0000                  ANTENNA: DELTA H/E/N
     1     1                                                WAVELENGTH FACT L1/2
    20    L1    L2    L5    L6    L7    L8    C1    P1    C2# / TYPES OF OBSERV
          P2    C5    C6    C7    C8    S1    S2    S5    S6# / TYPES OF OBSERV
          S7    S8                                          # / TYPES OF OBSERV
    30.0000                                                 INTERVAL
    15                                                      LEAP SECONDS
Forced Modulo Decimation to 30 seconds                      COMMENT
 SNR is mapped to RINEX snr flag value [0-9]                COMMENT
  L1 & L2: min(max(int(snr_dBHz/6), 0), 9)                  COMMENT
teqc edited: Beidou # 1 - 37 excluded                       COMMENT
  2009    10     3     0     0    0.0000000     GPS         TIME OF FIRST OBS
                                                            END OF HEADER
 09 10  3  0  0  0.0000000  0  8G02G04G12G13G20G23G30G31
 -16794334.13748 -13018353.18047
                  20846190.3594                                   20846185.1844
                                                                        52.2504
        42.2504
  -8914285.62948  -6901346.97346
                  20642547.7894                                   20642544.5474
                                                                        52.7504
        41.7504
  -3033974.46147  -2342307.05945
                  23769817.6724                                   23769814.6954
                                                                        45.0004
        30.0004
 -19094463.09048 -14779577.13345
                  22005392.9694                                   22005388.6684
                                                                        49.7504
        33.5004
    853763.12946    669062.58242
                  24251661.5784                                   24251659.1484
                                                                        38.0004
        16.2504
 -11550542.55548  -8945904.37545
                  21776586.7814                                   21776580.8524
                                                                        49.7504
        35.0004
  -8648357.07847  -6694243.51245
                  22688123.2424                                   22688120.9844
                                                                        46.2504
        31.2504
  -8842672.38347  -6848941.96544
                  23772005.9924                                   23772002.4574
                                                                        43.5004
        27.5004
 09 10  3  0  0 30.0000000  0  8G02G04G12G13G20G23G30G31
 -16931729.01648 -13125414.11747
                  20820044.8834                                   20820039.8954
                                                                        52.5004
        42.0004
  -8968323.94148  -6943454.73846
                  20632264.3754                                   20632261.6724
                                                                        52.0004
        41.5004
  -3036305.02047  -2344123.09045
                  23769374.7114                                   23769371.5514
                                                                        45.5004
        30.2504
 -19254401.12948 -14904204.19145
                  21974957.1954                                   21974953.3204
                                                                        49.0004
        33.2504
    877588.74646    687628.03142
                  24256195.2274                                   24256193.1884
                                                                        38.7504
        17.2504
 -11626754.53548  -9005290.30945
                  21762083.9694                                   21762078.4184
                                                                        50.0004
        35.2504
  -8694501.27347  -6730200.04745
                  22679342.6174                                   22679340.2974
                                                                        46.5004
        30.2504
  -8894582.50946  -6889391.39844
                  23762127.8284                                   23762123.8874
                                                                        40.5004
        27.0004
 09 10  3  0  1  0.0000000  0  8G02G04G12G13G20G23G30G31
 -17068601.72348 -13232068.17647
                  20793998.9064                                   20793993.8284
                                                                        51.5004
        42.0004
  -9021793.86748  -6985119.60946
                  20622089.1724                                   20622086.1684
                                                                        53.5004
        41.7504
  -3038242.18747  -2345632.60245
                  23769005.6804                                   23769002.5394
                                                                        45.0004
        30.0004
 -19413786.36748 -15028400.48845
                  21944627.4304                                   21944623.7734
                                                                        49.0004
        33.5004
    901591.55946    706331.53542
                  24260763.7814                                   24260760.3524
                                                                        39.2504
        17.7504
 -11702305.15648  -9064160.87945
                  21747707.2344                                   21747701.5204
                                                                        49.0004
        35.5004
  -8739992.59447  -6765647.79345
                  22670685.6334                                   22670682.8754
                                                                        45.5004
        30.0004
  -8945902.89546  -6929381.32444
                  23752362.0474                                   23752358.2704
                                                                        40.7504
        27.5004
 09 10  3  0  1 30.0000000  0  7G02G04G12G13G23G30G31
 -17204952.53548 -13338315.56247
                  20768052.3134                                   20768047.0554
                                                                        52.0004
        42.2504
  -9074698.70749  -7026344.15246
                  20612022.0554                                   20612018.7504
                                                                        54.0004
        41.5004
  -3039791.24247  -2346839.64544
                  23768711.1024                                   23768707.8244
                                                                        44.5004
        29.5004
 -19572618.55948 -15152165.78945
                  21914402.5554                                   21914398.7734
                                                                        49.0004
        33.5004
 -11777197.32448  -9122518.41045
                  21733455.3364                                   21733449.6804
                                                                        48.5004
        34.7504
  -8784835.25447  -6800590.09845
                  22662152.2034                                   22662149.7074
                                                                        46.0004
        30.5004
  -8996637.39547  -6968914.70744
                  23742706.7894                                   23742703.5314
                                                                        43.0004
        26.7504
 09 10  3  0  2  0.0000000  0  7G02G04G12G13G23G30G31
 -17340779.03948 -13444154.38747
                  20742205.3674                                   20742200.0164
                                                                        52.0004
        42.0004
  -9127038.14548  -7067128.13746
                  20602061.6254                                   20602058.9494
                                                                        52.0004
        41.5004
  -3040954.03547  -2347745.70344
                  23768490.2274                                   23768486.0354
                                                                        45.5004
        28.2504
 -19730894.14548 -15275497.38745
                  21884283.7814                                   21884279.9414
                                                                        49.5004
        33.7504
 -11851430.25048  -9180362.24645
                  21719329.6484                                   21719324.1174
                                                                        49.0004
        34.7504
  -8829029.75047  -6835027.35544
                  22653742.2894                                   22653739.3094
                                                                        45.5004
        29.7504
  -9046786.11746  -7007991.60944
                  23733164.3524                                   23733160.5704
                                                                        40.5004
        26.7504
 09 10  3  0  2 30.0000000  0  7G02G04G12G13G23G30G31
 -17476076.46948 -13549580.93747
                  20716459.1954                                   20716453.7894
                                                                        51.2504
        42.7504
  -9178810.28148  -7107470.09046
                  20592210.2424                                   20592207.3094
                                                                        53.2504
        41.7504
  -3041730.15247  -2348350.45344
                  23768342.1804                                   23768338.7114
                                                                        45.5004
        29.0004
 -19888607.42248 -15398390.83645
                  21854272.0554                                   21854267.9924
                                                                        49.2504
        33.7504
 -11925000.92648  -9237690.02745
                  21705329.3134                                   21705324.0004
                                                                        49.0004
        35.7504
  -8872574.93747  -6868958.66044
                  22645456.2114                                   22645453.3014
                                                                        45.2504
        29.7504
  -9096347.25047  -7046610.68044
                  23723733.6334                                   23723729.1094
                                                                        44.2504
        28.0004
 09 10  3  0  3  0.0000000  0  7G02G04G12G13G23G30G31
 -17610841.22348 -13654592.44547
                  20690814.2584                                   20690809.0234
                                                                        51.7504
        42.5004
  -9230013.35548  -7147368.57047
                  20582466.4384                                   20582463.9304
                                                                        53.5004
        42.5004
  -3042120.01247  -2348654.29745
                  23768268.2274                                   23768264.4104
                                                                        44.7504
        30.2504
 -20045753.62148 -15520842.39845
                  21824368.0004                                   21824363.9104
                                                                        49.7504
        33.5004
 -11997907.41448  -9294500.27045
                  21691455.4534                                   21691450.1954
                                                                        49.0004
        35.5004
  -8915470.17247  -6902383.52744
                  22637293.7034                                   22637290.1564
                                                                        44.5004
        29.2504
  -9145319.41047  -7084770.80144
                  23714414.0314                                   23714410.2854
                                                                        43.7504
        27.5004
 09 10  3  0  3 30.0000000  0  7G02G04G12G13G23G30G31
 -16169650.43448 -12531586.63347
                  20965063.6414                                   20965058.6334
                                                                        52.5004
        42.2504
  -7705230.55948  -5959226.12946
                  20872623.1484                                   20872620.7194
                                                                        52.5004
        41.5004
  -1466709.42247  -1121061.67644
                  24068058.0554                                   24068055.2624
                                                                        44.5004
        29.2504
 -18626909.05148 -14415249.21545
                  22094364.9924                                   22094361.2384
                                                                        50.0004
        34.5004
 -10494732.06248  -8123194.78145
                  21977500.6564                                   21977494.8134
                                                                        49.2504
        34.2504
  -7382299.25447  -5707704.87944
                  22929045.9064                                   22929043.4494
                                                                        43.5004
        29.5004
  -7618286.29746  -5894874.88344
                  24004999.0704                                   24004995.0234
                                                                        41.0004
        26.5004
 09 10  3  0  4  0.0000000  0  7G02G04G12G13G23G30G31
 -16303355.28548 -12635772.23447
                  20939620.5784                                   20939615.1644
                                                                        52.0004
        42.5004
  -7755310.00448  -5998249.08247
                  20863093.2034                                   20863090.3714
                                                                        53.0004
        42.5004
  -1466345.56247  -1120778.15644
                  24068127.8444                                   24068124.9384
                                                                        44.0004
        28.2504
 -18782925.14848 -14536820.23845
                  22064675.7344                                   22064672.1484
                                                                        49.5004
        33.5004
 -10566323.43048  -8178980.27045
                  21963877.0784                                   21963871.6644
                                                                        48.2504
        34.7504
  -7423911.21147  -5740129.78545
                  22921127.4924                                   22921124.9024
                                                                        45.0004
        30.0004
  -7666096.23847  -5932129.36344
                  23995900.9614                                   23995897.0394
                                                                        44.5004
        28.0004
 09 10  3  0  4 30.0000000  0  8G02G04G12G13G29G23G30G31
 -16436533.40248 -12739547.38747
                  20914277.6954                                   20914272.6724
                                                                        52.0004
        42.0004
  -7804834.87548  -6036839.88746
                  20853668.9924                                   20853666.2464
                                                                        53.2504
        41.7504
  -1465614.77747  -1120208.74244
                  24068267.0394                                   24068263.8014
                                                                        44.2504
        28.7504
 -18938378.48448 -14657952.66845
                  22035094.3984                                   22035091.0634
                                                                        49.7504
        34.7504
   1298030.99256   1051981.42254
                  24517563.3284                                   24517560.6764
                                                                        41.2504
        24.5004
 -10637264.21148  -8234258.79745
                  21950378.0784                                   21950372.3204
                                                                        49.0004
        35.5004
  -7464889.93747  -5772061.26245
                  22913329.5634                                   22913327.0204
                                                                        43.7504
        30.2504
  -7713333.20747  -5968937.37944
                  23986911.5944                                   23986908.3914
                                                                        43.2504
        26.2504
 09 10  3  0  5  0.0000000  0  8G02G04G12G13G29G23G30G31
 -16569190.94948 -12842916.90247
                  20889033.6334                                   20889028.3524
                                                                        51.0004
        42.7504
  -7853813.58248  -6075005.10546
                  20844348.3524                                   20844345.6454
                                                                        53.0004
        41.5004
  -1464527.36347  -1119361.38744
                  24068474.0004                                   24068470.8834
                                                                        44.0004
        29.0004
 -19093273.74248 -14778650.27745
                  22005619.0234                                   22005615.0474
                                                                        49.5004
        34.2504
   1108221.16447    904077.66844
                  24481443.8524                                   24481441.2234
                                                                        43.0004
        26.2504
 -10707561.61748  -8289036.00045
                  21937000.4614                                   21936995.1804
                                                                        48.0004
        35.5004
  -7505244.78947  -5803506.61744
                  22905650.1724                                   22905647.8014
                                                                        45.2504
        29.5004
  -7760005.92647  -6005305.72744
                  23978030.6804                                   23978026.9534
                                                                        43.0004
        26.5004
 09 10  3  0  5 30.0000000  0  8G02G04G12G13G29G23G30G31
 -16701331.50448 -12945883.55547
                  20863888.1644                                   20863883.0784
                                                                        51.2504
        42.0004
  -7902252.27048  -6112749.54747
                  20835130.9844                                   20835128.0984
                                                                        53.5004
        42.0004
  -1463091.05547  -1118242.14845
                  24068747.0234                                   24068743.9774
                                                                        43.7504
        30.5004
 -19247613.77048 -14898915.21145
                  21976248.7664                                   21976244.9304
                                                                        49.7504
        34.2504
    918653.01646    756362.26644
                  24445369.5704                                   24445367.6054
                                                                        41.2504
        26.5004
 -10777221.71548  -8343316.57445
                  21923744.6884                                   21923739.1884
                                                                        48.5004
        35.0004
  -7544982.66847  -5834471.18745
                  22898088.4304                                   22898085.7274
                                                                        45.5004
        30.0004
  -7806121.02047  -6041239.55944
                  23969254.8594                                   23969251.3164
                                                                        43.2504
        27.0004
 09 10  3  0  6  0.0000000  0  8G02G04G12G13G29G23G30G31
 -16832955.07048 -13048447.36747
                  20838841.0784                                   20838835.6914
                                                                        50.0004
        42.2504
  -7950153.64848  -6150075.28546
                  20826015.6414                                   20826013.0554
                                                                        53.2504
        41.7504
  -1461310.82047  -1116854.92245
                  24069086.5394                                   24069082.9104
                                                                        45.0004
        30.7504
 -19401398.10948 -15018747.16445
                  21946984.4144                                   21946981.0274
                                                                        49.2504
        34.5004
    729327.73446    608836.12144
                  24409341.9694                                   24409340.3954
                                                                        39.0004
        25.2504
 -10846247.22748  -8397102.68045
                  21910609.3594                                   21910603.8714
                                                                        48.2504
        35.5004
  -7584107.17647  -5864957.82444
                  22890643.7034                                   22890641.1564
                                                                        44.0004
        29.2504
  -7851681.59847  -6076741.33644
                  23960585.4144                                   23960581.5274
                                                                        42.7504
        26.5004
 09 10  3  0  6 30.0000000  0  8G02G04G12G13G29G23G30G31
 -16964054.47748 -13150602.74647
                  20813893.7344                                   20813888.6484
                                                                        51.0004
        42.5004
  -7997513.21948  -6186978.83647
                  20817003.6414                                   20817000.9064
                                                                        53.2504
        42.2504
  -1459183.95747  -1115197.65644
                  24069490.3444                                   24069487.8364
                                                                        44.7504
        29.7504
 -19554618.24248 -15138139.45745
                  21917827.8204                                   21917824.1724
                                                                        50.0004
        34.2504
    540252.96546    461505.21144
                  24373362.1954                                   24373360.8444
                                                                        39.2504
        25.5004
 -10914632.45348  -8450389.81645
                  21897596.2504                                   21897590.7074
                                                                        48.5004
        35.0004
  -7622615.22347  -5894964.08644
                  22883315.3284                                   22883312.9144
                                                                        43.0004
        29.5004
  -7896683.94147  -6111808.10244
                  23952021.7584                                   23952017.9184
                                                                        43.5004
        27.5004
 09 10  3  0  7  0.0000000  0  8G02G04G12G13G29G23G30G31
 -17094625.64148 -13252346.50047
                  20789046.8054                                   20789041.5554
                                                                        51.7504
        42.5004
  -8044329.05948  -6223458.71147
                  20808094.8204                                   20808091.8094
                                                                        53.0004
        42.0004
  -1456709.59047  -1113269.62144
                  24069961.5084                                   24069958.2774
                                                                        45.5004
        29.7504
 -19707269.23448 -15257088.26645
                  21888779.3754                                   21888775.6764
                                                                        49.7504
        34.2504
    351434.93446    314374.34443
                  24337431.3364                                   24337429.3404
                                                                        38.5004
        23.5004
 -10982375.52748  -8503176.60545
                  21884704.9454                                   21884699.3134
                                                                        48.2504
        35.2504
  -7660505.16047  -5924488.71544
                  22876104.9224                                   22876102.9224
                                                                        43.7504
        29.5004
  -7941125.69147  -6146438.02344
                  23943564.5394                                   23943561.2074
                                                                        43.0004
        27.7504
 09 10  3  0  7 30.0000000  0  8G02G04G12G13G29G23G30G31
 -17224665.04348 -13353675.90647
                  20764300.9614                                   20764296.0274
                                                                        50.7504
        42.2504
  -8090600.52348  -6259514.38746
                  20799289.6884                                   20799286.4384
                                                                        52.0004
        41.5004
  -1453889.31247  -1111072.03144
                  24070498.1414                                   24070494.9304
                                                                        45.2504
        28.5004
 -19859346.87548 -15375590.30145
                  21859839.9224                                   21859836.1094
                                                                        49.5004
        34.5004
    162877.42646    167446.45344
                  24301550.2274                                   24301548.1094
                                                                        41.5004
        24.7504
 -11049475.39548  -8555462.19945
                  21871936.4454                                   21871931.1684
                                                                        48.2504
        35.0004
  -7697777.43747  -5953532.00845
                  22869012.2274                                   22869010.0824
                                                                        44.0004
        30.2504
  -7985006.85946  -6180631.12944
                  23935214.7344                                   23935210.7734
                                                                        41.0004
        27.7504
 09 10  3  0  8  0.0000000  0  8G02G04G12G13G29G23G30G31
 -17354169.26248 -13454588.28147
                  20739657.1174                                   20739652.2424
                                                                        51.7504
        42.5004
  -8136327.08648  -6295145.46547
                  20790588.1884                                   20790585.1724
                                                                        53.7504
        42.0004
  -1450724.06647  -1108605.63744
                  24071100.1334                                   24071097.3324
                                                                        44.0004
        26.5004
 -20010847.59448 -15493642.79745
                  21831010.1564                                   21831006.5824
                                                                        49.2504
        34.0004
    -25414.93047     20725.12144
                  24265719.9144                                   24265717.1334
                                                                        42.5004
        26.0004
 -11115930.94548  -8607245.72345
                  21859290.4224                                   21859284.5394
                                                                        49.0004
        35.5004
  -7734432.16047  -5982094.12544
                  22862037.2814                                   22862034.7544
                                                                        44.5004
        29.5004
  -8028327.46547  -6214387.42644
                  23926970.9614                                   23926967.0594
                                                                        44.0004
        27.5004
 09 10  3  0  8 30.0000000  0  8G02G04G12G13G29G23G30G31
 -17483135.28148 -13555081.27347
                  20715115.5704                                   20715111.0984
                                                                        51.5004
        42.2504
  -8181508.28548  -6330351.61747
                  20781990.2344                                   20781987.6054
                                                                        51.2504
        42.0004
  -1447214.80947  -1105871.18444
                  24071768.3524                                   24071765.0704
                                                                        43.5004
        27.5004
 -20161767.27048 -15611242.55945
                  21802291.2344                                   21802287.4654
                                                                        50.2504
        35.0004
   -213438.30946   -125786.60244
                  24229939.7114                                   24229937.6484
                                                                        41.2504
        25.2504
 -11181741.60948  -8658526.75845
                  21846767.1024                                   21846761.3364
                                                                        48.2504
        35.7504
  -7770470.26647  -6010175.75844
                  22855179.3134                                   22855176.9614
                                                                        43.7504
        29.7504
  -8071087.96946  -6247707.28944
                  23918833.3754                                   23918829.7034
                                                                        40.7504
        27.0004
 09 10  3  0  9  0.0000000  0  8G02G04G12G13G29G23G30G31
 -17611562.76248 -13655154.61347
                  20690676.7034                                   20690671.9964
                                                                        52.0004
        42.5004
  -8226145.91448  -6365134.18747
                  20773496.2274                                   20773493.1914
                                                                        53.2504
        42.0004
  -1443365.68747  -1102871.83244
                  24072500.9064                                   24072497.5594
                                                                        44.5004
        28.2504
 -20312104.30548 -15728388.31645
                  21773683.3984                                   21773679.6524
                                                                        49.7504
        34.7504
   -401190.87146   -272087.25044
                  24194211.2894                                   24194209.6484
                                                                        40.0004
        25.0004
 -11246908.69548  -8709306.25845
                  21834365.9144                                   21834360.5944
                                                                        48.2504
        35.0004
  -7805894.42647  -6037778.99244
                  22848438.9384                                   22848435.6604
                                                                        45.2504
        29.7504
  -8113290.27747  -6280592.18444
                  23910802.6174                                   23910798.9734
                                                                        42.7504
        27.0004
 09 10  3  0  9 30.0000000  0  8G02G04G12G13G29G23G30G31
 -17739449.40648 -13754806.51647
                  20666341.0634                                   20666336.0474
                                                                        51.7504
        42.2504
  -8270240.73448  -6399493.78947
                  20765105.1724                                   20765102.0864
                                                                        51.5004
        42.0004
  -1439178.59447  -1099609.16844
                  24073297.5784                                   24073294.2194
                                                                        44.2504
        29.0004
 -20461856.07448 -15845078.03945
                  21745186.1954                                   21745182.4694
                                                                        49.5004
        34.2504
   -588669.34846   -418174.30944
                  24158535.1724                                   24158533.6644
                                                                        40.0004
        25.7504
 -11311432.56648  -8759584.57045
                  21822087.6094                                   21822082.3164
                                                                        49.2504
        34.7504
  -7840705.91847  -6064904.78545
                  22841814.2504                                   22841811.3364
                                                                        45.0004
        30.0004
  -8154935.44546  -6313042.97344
                  23902877.9694                                   23902873.6564
                                                                        40.5004
        26.0004
 09 10  3  0 10  0.0000000  0  8G02G04G12G13G29G23G30G31
 -17866794.33648 -13854036.29747
                  20642107.9694                                   20642102.7034
                                                                        51.0004
        42.2504
  -8313794.21148  -6433431.56646
                  20756817.2344                                   20756814.4184
                                                                        53.2504
        41.2504
  -1434657.16447  -1096085.97744
                  24074157.8524                                   24074154.8364
                                                                        44.5004
        29.0004
 -20611020.85548 -15961310.35945
                  21716801.3444                                   21716797.1684
                                                                        48.5004
        34.7504
   -775872.01246   -564046.44144
                  24122911.5944                                   24122909.8834
                                                                        41.2504
        25.7504
 -11375314.46148  -8809362.62545
                  21809931.4844                                   21809925.5944
                                                                        48.5004
        35.7504
  -7874907.82047  -6091555.60944
                  22835305.8524                                   22835303.0704
                                                                        46.0004
        29.7504
  -8196025.68447  -6345061.33244
                  23895058.5944                                   23895054.6294
                                                                        43.0004
        25.2504
 09 10  3  0 10 30.0000000  0  8G02G04G12G13G29G23G30G31
 -17993598.25448 -13952844.50047
                  20617978.1644                                   20617972.8404
                                                                        52.2504
        43.0004
  -8356809.57848  -6466950.01646
                  20748631.6954                                   20748629.0904
                                                                        52.2504
        41.5004
  -1429806.18447  -1092305.96945
                  24075081.3914                                   24075078.3094
                                                                        45.2504
        30.0004
 -20759598.62148 -16077085.25845
                  21688527.8284                                   21688524.1294
                                                                        49.5004
        35.0004
   -962798.14547   -709703.11344
                  24087341.2194                                   24087339.1134
                                                                        42.5004
        26.5004
 -11438557.30148  -8858642.72745
                  21797896.6334                                   21797891.0274
                                                                        48.5004
        35.0004
  -7908504.18747  -6117734.62144
                  22828913.0704                                   22828909.3634
                                                                        46.2504
        29.2504
  -8236564.59446  -6376650.09844
                  23887344.0084                                   23887340.1724
                                                                        41.0004
        26.2504
 09 10  3  0 11  0.0000000  0  9G02G04G12G13G29G10G23G30G31
 -18119862.61348 -14051232.27347
                  20593950.6954                                   20593945.5314
                                                                        52.0004
        43.0004
  -8399291.32848  -6500052.68046
                  20740547.2424                                   20740544.8524
                                                                        51.5004
        41.5004
  -1424631.35547  -1088273.66045
                  24076065.9924                                   24076063.0904
                                                                        45.2504
        30.2504
 -20907589.93448 -16192403.19145
                  21660365.9144                                   21660362.2734
                                                                        49.7504
        34.7504
  -1149447.54347   -855144.16044
                  24051822.7734                                   24051820.4964
                                                                        43.0004
        26.0004
   1274893.50057   1037310.03154
                  24019089.3914                                   24019087.1174
                                                                        42.0004
        25.7504
 -11501165.10948  -8907428.00445
                  21785982.5634                                   21785976.9574
                                                                        48.0004
        34.7504
  -7941499.71947  -6143445.39544
                  22822633.7034                                   22822630.2234
                                                                        46.0004
        29.2504
  -8276556.91046  -6407812.92644
                  23879733.4924                                   23879729.6724
                                                                        39.7504
        26.2504
 09 10  3  0 11 30.0000000  0  9G02G04G12G13G29G10G23G30G31
 -18245588.56248 -14149200.54347
                  20570025.6804                                   20570020.4414
                                                                        51.7504
        42.5004
  -8441242.97348  -6532742.24246
                  20732564.5314                                   20732561.5084
                                                                        53.7504
        41.5004
  -1419138.23047  -1083993.28144
                  24077111.7344                                   24077108.4774
                                                                        44.2504
        29.5004
 -21054995.36348 -16307264.56245
                  21632315.5234                                   21632312.1024
                                                                        49.0004
        35.0004
  -1335820.94547  -1000370.12544
                  24016357.1564                                   24016354.9964
                                                                        43.0004
        27.0004
   1069131.48447    876976.00444
                  23979934.6414                                   23979931.4694
                                                                        42.7504
        24.2504
 -11563141.23048  -8955721.01245
                  21774189.2274                                   21774182.9024
                                                                        49.0004
        34.5004
  -7973899.48447  -6168691.94544
                  22816467.9064                                   22816465.3094
                                                                        44.0004
        28.5004
  -8316006.77747  -6438553.07044
                  23872227.1564                                   23872223.0664
                                                                        42.5004
        26.5004
 09 10  3  0 12  0.0000000  0  9G02G04G12G13G29G10G23G30G31
 -18370775.97748 -14246749.19947
                  20546203.0394                                   20546198.2344
                                                                        51.7504
        42.7504
  -8482666.70748  -6565020.46146
                  20724682.0864                                   20724678.6844
                                                                        52.0004
        41.2504
  -1413330.77046  -1079468.03544
                  24078215.9224                                   24078213.6804
                                                                        41.7504
        27.5004
 -21201813.44548 -16421668.26245
                  21604376.9844                                   21604373.5124
                                                                        49.2504
        35.0004
  -1521916.89547  -1145379.92644
                  23980943.9454                                   23980941.6294
                                                                        42.0004
        25.5004
    863524.92647    716763.09844
                  23940808.7734                                   23940805.0984
                                                                        44.0004
        25.5004
 -11624487.24248  -9003523.06645
                  21762514.8834                                   21762509.2154
                                                                        49.5004
        34.0004
  -8005707.04747  -6193477.04344
                  22810415.0784                                   22810412.7814
                                                                        44.0004
        28.5004
  -8354917.02746  -6468872.75844
                  23864822.0784                                   23864818.6884
                                                                        40.0004
        26.5004
 09 10  3  0 12 30.0000000  0  9G02G04G12G13G29G10G23G30G31
 -16919997.96548 -13116272.83247
                  20822277.1254                                   20822272.2384
                                                                        52.2504
        42.5004
  -6948141.37548  -5369286.44946
                  21016692.3594                                   21016689.4304
                                                                        53.2504
        41.5004
    168209.16847    152900.68044
                  24379172.7584                                   24379170.3094
                                                                        42.0004
        26.7504
 -19772616.31648 -15308008.17645
                  21876344.1484                                   21876340.6994
                                                                        49.0004
        35.2504
   -132305.06646    -62565.46544
                  24245378.2344                                   24245375.9184
                                                                        41.0004
        25.0004
   2233504.43847   1784279.56344
                  24201507.3594                                   24201503.7114
                                                                        44.5004
        24.7504
 -10109781.27348  -7823232.69145
                  22050754.3284                                   22050747.7974
                                                                        49.2504
        33.7504
  -6461501.85947  -4990200.32044
                  23104267.8594                                   23104265.4384
                                                                        43.7504
        28.0004
  -6817866.76247  -5271171.24244
                  24157313.1094                                   24157309.9844
                                                                        42.5004
        25.7504
 09 10  3  0 13  0.0000000  0  9G02G04G12G13G29G10G23G30G31
 -17044099.72748 -13212975.50447
                  20798661.7424                                   20798656.1764
                                                                        52.2504
        42.7504
  -6988509.14148  -5400741.85246
                  21009010.6644                                   21009007.7584
                                                                        52.5004
        41.5004
    174641.06347    157912.50844
                  24380397.6024                                   24380393.9494
                                                                        43.0004
        26.7504
 -19918250.28548 -15421489.34845
                  21848631.0944                                   21848627.5004
                                                                        49.2504
        34.7504
   -317833.74646   -207133.19144
                  24210073.2194                                   24210070.9024
                                                                        41.0004
        26.2504
   2028220.11346   1624317.70744
                  24162442.6094                                   24162440.1174
                                                                        41.2504
        24.0004
 -10169866.92648  -7870052.68445
                  22039320.1564                                   22039314.2114
                                                                        49.7504
        34.2504
  -6492126.47747  -5014063.64844
                  23098439.7424                                   23098437.5984
                                                                        44.0004
        27.7504
  -6855698.88746  -5300650.82044
                  24150114.0314                                   24150110.3244
                                                                        40.2504
        26.5004
 09 10  3  0 13 30.0000000  0  9G02G04G12G13G29G10G23G30G31
 -17167654.73048 -13309252.14147
                  20775149.8524                                   20775144.6174
                                                                        52.2504
        42.5004
  -7028348.94548  -5431785.86746
                  21001429.3364                                   21001426.7074
                                                                        53.2504
        41.7504
    181382.93847    163165.89544
                  24381680.0944                                   24381676.9494
                                                                        44.2504
        27.0004
 -20063287.22348 -15534505.46945
                  21821031.5944                                   21821028.1414
                                                                        49.5004
        35.0004
   -503072.96146   -351475.39544
                  24174823.9144                                   24174821.3284
                                                                        41.2504
        26.5004
   1823101.44146   1464485.03944
                  24123409.2114                                   24123407.9454
                                                                        40.5004
        24.5004
 -10229321.62548  -7916381.01645
                  22028006.2194                                   22028000.5514
                                                                        49.0004
        34.2504
  -6522161.46547  -5037467.55544
                  23092723.9064                                   23092721.9654
                                                                        44.5004
        28.7504
  -6892992.63347  -5329710.87544
                  24143017.8364                                   24143013.6994
                                                                        42.7504
        28.0004
 09 10  3  0 14  0.0000000  0  9G02G04G12G13G29G10G23G30G31
 -17290659.75448 -13405100.23847
                  20751742.6884                                   20751737.3244
                                                                        52.2504
        42.7504
  -7067659.82848  -5462417.73046
                  20993948.5704                                   20993945.6994
                                                                        53.0004
        41.5004
    188433.32047    168659.66844
                  24383022.3284                                   24383018.7154
                                                                        44.5004
        27.7504
 -20207721.79748 -15647051.77345
                  21793546.4774                                   21793543.0864
                                                                        49.2504
        35.7504
   -688018.18746   -495588.50044
                  24139629.6954                                   24139627.4414
                                                                        40.5004
        27.0004
   1618153.55546   1304785.37944
                  24084410.2114                                   24084407.7774
                                                                        41.2504
        27.5004
 -10288144.37148  -7962216.95345
                  22016812.5084                                   22016806.7344
                                                                        49.0004
        34.7504
  -6551606.61747  -5060411.81644
                  23087121.6954                                   23087119.2704
                                                                        44.5004
        29.2504
  -6929747.44147  -5358350.97344
                  24136022.9614                                   24136019.5394
                                                                        42.2504
        26.0004
 09 10  3  0 14 30.0000000  0  9G02G04G12G13G29G10G23G30G31
 -17413111.15248 -13500516.91847
                  20728440.9614                                   20728435.6134
                                                                        52.5004
        42.5004
  -7106440.93448  -5492636.79746
                  20986568.8754                                   20986566.4844
                                                                        53.2504
        41.5004
    195791.84447    174393.54744
                  24384422.7584                                   24384419.0514
                                                                        44.5004
        28.7504
 -20351550.75048 -15759126.25445
                  21766176.9694                                   21766173.3594
                                                                        49.2504
        34.7504
   -872664.84046   -639468.95744
                  24104492.3524                                   24104490.1524
                                                                        40.0004
        26.2504
   1413380.52347   1145221.99244
                  24045443.2504                                   24045440.7344
                                                                        43.0004
        28.7504
 -10346333.83648  -8007559.41045
                  22005739.5944                                   22005733.8954
                                                                        49.0004
        34.0004
  -6580462.60247  -5082897.03144
                  23081630.0704                                   23081628.1374
                                                                        45.0004
        29.5004
  -6965963.50847  -5386571.27344
                  24129131.6484                                   24129127.8164
                                                                        42.7504
        26.7504
 09 10  3  0 15  0.0000000  0  9G02G04G12G13G29G10G23G30G31
 -17535009.62148 -13595502.70347
                  20705244.2344                                   20705239.0744
                                                                        51.5004
        42.5004
  -7144695.70348  -5522445.77346
                  20979289.1254                                   20979286.5434
                                                                        53.0004
        40.7504
    203454.13347    180364.12144
                  24385880.9224                                   24385877.4414
                                                                        43.2504
        28.7504
 -20494774.42248 -15870729.19145
                  21738922.3444                                   21738918.8404
                                                                        49.5004
        35.0004
  -1057012.07846   -783116.10244
                  24069412.5234                                   24069409.8484
                                                                        41.5004
        26.7504
   1208782.81347    985795.19144
                  24006509.4774                                   24006507.2114
                                                                        43.5004
        28.5004
 -10403893.46548  -8052411.09845
                  21994786.3054                                   21994780.8324
                                                                        49.0004
        34.5004
  -6608733.60247  -5104926.39844
                  23076250.6644                                   23076248.2344
                                                                        44.7504
        29.0004
  -7001644.12947  -5414374.34044
                  24122341.4614                                   24122338.1484
                                                                        42.0004
        27.0004
 09 10  3  0 15 30.0000000  0  9G02G04G12G13G29G10G23G30G31
 -17656348.28948 -13690052.28547
                  20682154.4454                                   20682149.4534
                                                                        52.2504
        43.0004
  -7182419.80948  -5551841.21146
                  20972110.6174                                   20972107.7344
                                                                        52.5004
        41.0004
    211422.37547    186573.09444
                  24387396.5704                                   24387394.0744
                                                                        42.2504
        27.0004
 -20637385.17648 -15981854.69145
                  21711784.8524                                   21711780.7034
                                                                        49.0004
        35.2504
  -1241051.86346   -926523.69144
                  24034391.3134                                   24034388.4884
                                                                        41.7504
        27.7504
   1004367.98847    826510.92244
                  23967610.1804                                   23967607.6174
                                                                        42.5004
        26.2504
 -10460818.94948  -8096768.63345
                  21983953.8054                                   21983947.8754
                                                                        48.5004
        34.0004
  -6636416.14547  -5126497.23045
                  23070983.0784                                   23070980.2664
                                                                        44.7504
        30.0004
  -7036786.01647  -5441757.62544
                  24115654.2814                                   24115650.6334
                                                                        42.5004
        27.5004
 09 10  3  0 16  0.0000000  0  9G02G04G12G13G29G10G23G30G31
 -17777134.31648 -13784171.27047
                  20659169.4224                                   20659164.3874
                                                                        52.2504
        43.0004
  -7219623.01248  -5580830.77746
                  20965031.1804                                   20965028.0984
                                                                        53.2504
        41.0004
    219685.18047    193011.59444
                  24388968.6094                                   24388966.5164
                                                                        42.0004
        27.2504
 -20779389.71548 -16092508.17245
                  21684762.5944                                   21684759.0204
                                                                        49.7504
        35.0004
  -1424789.85946  -1069696.12144
                  23999426.9144                                   23999424.1374
                                                                        41.0004
        27.0004
    800129.84846    667364.32044
                  23928744.4064                                   23928741.6914
                                                                        40.5004
        24.5004
 -10517119.25848  -8140639.00445
                  21973240.0864                                   21973234.3634
                                                                        48.7504
        34.0004
  -6663520.87147  -5147617.79344
                  23065825.3284                                   23065822.3714
                                                                        45.5004
        29.7504
  -7071398.78547  -5468728.59844
                  24109068.1724                                   24109063.9104
                                                                        43.2504
        27.2504
 09 10  3  0 16 30.0000000  0  9G02G04G12G13G29G10G23G30G31
 -17897360.32448 -13877853.84447
