     2.11           OBSERVATION DATA    G (GPS)             RINEX VERSION / TYPE
teqc  2019Feb25                         20221121 12:28:22UTCPGM / RUN BY / DATE
OSX ker:10.11.6|Core i5|gcc 4.3 -m64|OSX ker:10.10+|=+      COMMENT
BIT 2 OF LLI FLAGS DATA COLLECTED UNDER A/S CONDITION       COMMENT
04712871                                                    MARKER NAME
2871                                                        MARKER NUMBER
-Unknown-           -Unknown-                               OBSERVER / AGENCY
0220400471          TRIMBLE R7          2.30                REC # / TYPE / VERS
-Unknown-           TRM39105.00     NONE                    ANT # / TYPE
  1449460.2104 -1709241.4171  5952441.9371                  APPROX POSITION XYZ
        0.0000        0.0000        0.0000                  ANTENNA: DELTA H/E/N
     1     1                                                WAVELENGTH FACT L1/2
    20    L1    L2    L5    L6    L7    L8    C1    P1    C2# / TYPES OF OBSERV
          P2    C5    C6    C7    C8    S1    S2    S5    S6# / TYPES OF OBSERV
          S7    S8                                          # / TYPES OF OBSERV
    30.0000                                                 INTERVAL
    15                                                      LEAP SECONDS
Forced Modulo Decimation to 30 seconds                      COMMENT
 SNR is mapped to RINEX snr flag value [0-9]                COMMENT
  L1 & L2: min(max(int(snr_dBHz/6), 0), 9)                  COMMENT
teqc edited: Beidou # 1 - 37 excluded                       COMMENT
  2009    10    14    23    10   30.0000000     GPS         TIME OF FIRST OBS
                                                            END OF HEADER
 09 10 14 23 10 30.0000000  0  6G02G04G13G23G30G31
   -273150.46558   -171647.32056
                  21046840.4304                                   21046835.1914
                                                                        51.7504
        41.7504
   -115517.27058    -74831.20356
                  20841793.5004                                   20841790.6334
                                                                        53.0004
        41.5004
   -311237.73458   -196914.47355
                  22196300.9614                                   22196297.3984
                                                                        49.5004
        34.0004
   -162390.77758   -101735.00455
                  21949357.6334                                   21949352.0944
                                                                        50.0004
        35.0004
   -104029.25057    -65713.20354
                  22863586.8204                                   22863584.9384
                                                                        43.7504
        29.2504
   -107761.07857    -72641.53954
                  23950591.0394                                   23950586.9184
                                                                        43.7504
        27.5004
 09 10 14 23 11  0.0000000  0  8G02G04G12G13G20G23G30G31
   -422327.32848   -287889.05546
                  21018452.9614                                   21018447.6484
                                                                        51.7504
        41.7504
   -179244.78948   -124488.98846
                  20829666.5474                                   20829663.5394
                                                                        53.2504
        41.7504
    -18813.36757    -13718.60254
                  23962967.1174                                   23962963.5204
                                                                        45.5004
        29.7504
   -482267.31248   -330184.25445
                  22163755.4144                                   22163751.1214
                                                                        49.0004
        33.5004
     18460.20756     11776.06653
                  24379284.8444                                   24379280.7774
                                                                        39.5004
        19.0004
   -251220.34848   -170952.89845
                  21932453.7814                                   21932448.4184
                                                                        49.0004
        35.0004
   -161376.55147   -110399.33644
                  22852673.8914                                   22852671.6804
                                                                        44.5004
        29.5004
   -170942.26247   -121873.64144
                  23938568.0314                                   23938564.1764
                                                                        43.0004
        26.7504
 09 10 14 23 11 30.0000000  0  8G02G04G12G13G20G23G30G31
   -570755.13748   -403547.07847
                  20990208.1804                                   20990203.2114
                                                                        51.7504
        42.0004
   -242176.10248   -173526.41046
                  20817691.0704                                   20817687.6414
                                                                        53.2504
        41.5004
    -30834.98047    -23086.10944
                  23960678.8204                                   23960675.4694
                                                                        45.5004
        28.7504
   -652515.45348   -462845.13745
                  22131358.0944                                   22131354.3404
                                                                        49.0004
        33.0004
     31408.61346     21865.70343
                  24381747.7734                                   24381744.8914
                                                                        40.0004
        19.2504
   -339158.14848   -239475.89545
                  21915719.9694                                   21915714.0204
                                                                        49.0004
        35.5004
   -217840.12947   -154396.87944
                  22841928.9064                                   22841926.6484
                                                                        44.5004
        29.0004
   -233303.68047   -170467.00844
                  23926701.0704                                   23926697.1374
                                                                        42.7504
        26.7504
 09 10 14 23 12  0.0000000  0  8G02G04G12G13G20G23G30G31
   -718282.06248   -518503.16847
                  20962134.8914                                   20962129.7384
                                                                        52.2504
        42.0004
   -304162.05148   -221827.12946
                  20805895.4774                                   20805892.4734
                                                                        53.2504
        41.5004
    -42090.02747    -31856.27344
                  23958537.6414                                   23958532.9734
                                                                        45.7504
        29.7504
   -821829.43448   -594778.10245
                  22099138.8054                                   22099135.0164
                                                                        49.5004
        34.0004
     44917.61746     32392.18443
                  24384318.9774                                   24384315.4884
                                                                        40.0004
        19.7504
   -426053.94948   -307186.93045
                  21899184.0634                                   21899179.0434
                                                                        49.2504
        35.5004
   -273271.35247   -197589.95744
                  22831380.5234                                   22831378.6914
                                                                        45.0004
        29.2504
   -294696.12947   -218305.29344
                  23915018.3204                                   23915014.9614
                                                                        42.2504
        26.0004
 09 10 14 23 12 30.0000000  0  8G02G04G12G13G20G23G30G31
   -864850.86748   -632712.64146
                  20934243.3984                                   20934238.2894
                                                                        51.0004
        41.7504
   -365148.26248   -269348.86346
                  20794289.8444                                   20794286.6994
                                                                        53.0004
        41.2504
    -52526.00447    -39988.19144
                  23956551.8284                                   23956547.3404
                                                                        46.5004
        29.7504
   -990151.66848   -725938.28145
                  22067107.9534                                   22067104.1414
                                                                        48.2504
        33.5004
     59040.16046     43396.71543
                  24387006.7274                                   24387002.5314
                                                                        40.0004
        19.2504
   -511853.53548   -374043.88345
                  21882857.4924                                   21882851.9144
                                                                        48.2504
        35.2504
   -327616.78547   -239936.99644
                  22821039.1954                                   22821036.4384
                                                                        44.5004
        28.5004
   -355065.59846   -265346.41844
                  23903530.2194                                   23903527.0634
                                                                        41.5004
        26.2504
 09 10 14 23 13  0.0000000  0  8G02G04G12G13G20G23G30G31
  -1010450.23848   -746166.69547
                  20906536.9384                                   20906531.7854
                                                                        51.0004
        42.0004
   -425125.66048   -316084.48846
                  20782876.7034                                   20782873.7344
                                                                        52.5004
        41.5004
    -62135.32847    -47475.97745
                  23954722.9384                                   23954719.6764
                                                                        44.2504
        30.0004
  -1157469.17248   -856315.53945
                  22035268.7814                                   22035264.7234
                                                                        49.0004
        34.2504
     73784.37546     54885.69943
                  24389811.8594                                   24389808.2664
                                                                        39.7504
        21.0004
   -596546.35547   -440038.28145
                  21866740.4144                                   21866735.2974
                                                                        47.7504
        35.0004
   -380868.20747   -281431.51645
                  22810905.6884                                   22810903.4534
                                                                        45.2504
        30.5004
   -414403.67646   -311583.90644
                  23892238.3914                                   23892235.3054
                                                                        41.7504
        26.0004
 09 10 14 23 13 30.0000000  0  7G02G04G12G13G23G30G31
  -1155083.57048   -858868.02346
                  20879014.0314                                   20879008.7304
                                                                        51.5004
        41.5004
   -484100.44148   -362038.93046
                  20771654.5004                                   20771651.5124
                                                                        52.7504
        41.2504
    -70926.27347    -54326.07444
                  23953049.5234                                   23953046.1644
                                                                        44.2504
        29.2504
  -1323784.95748   -985912.25845
                  22003619.7734                                   22003616.0664
                                                                        49.0004
        33.5004
   -680138.22748   -505174.87545
                  21850833.2584                                   21850828.0204
                                                                        49.0004
        35.0004
   -433032.20347   -322078.68045
                  22800979.4534                                   22800976.7704
                                                                        44.5004
        30.0004
   -472716.47347   -357022.48444
                  23881142.3134                                   23881138.9224
                                                                        42.0004
        27.0004
 09 10 14 23 14  0.0000000  0  7G02G04G12G13G23G30G31
  -1298760.77348   -970824.27047
                  20851673.2814                                   20851668.3204
                                                                        52.0004
        42.0004
   -542085.25448   -407221.90246
                  20760620.0474                                   20760617.2974
                                                                        53.0004
        41.5004
    -78913.21547    -60549.70744
                  23951529.4384                                   23951526.9024
                                                                        44.0004
        29.7504
  -1489108.39148  -1114735.71945
                  21972159.6174                                   21972155.9384
                                                                        50.2504
        33.5004
   -762641.46548   -569463.10945
                  21835134.1334                                   21835127.7114
                                                                        48.5004
        35.5004
   -484122.57847   -361889.27044
                  22791256.9304                                   22791254.4224
                                                                        44.0004
        29.2504
   -530017.28947   -401672.44144
                  23870238.1724                                   23870234.8094
                                                                        43.2504
        27.5004
 09 10 14 23 14 30.0000000  0  8G02G04G12G13G29G23G30G31
  -1441488.56248  -1082040.73847
                  20824513.1094                                   20824507.8834
                                                                        52.0004
        42.2504
   -599089.08648   -451640.50446
                  20749772.4614                                   20749769.5314
                                                                        53.0004
        41.2504
    -86107.02347    -66155.32044
                  23950161.3914                                   23950157.7384
                                                                        44.5004
        29.2504
  -1653444.58648  -1242789.88745
                  21940887.7974                                   21940883.8444
                                                                        49.5004
        33.7504
   -292217.50856   -186392.78153
                  24400537.0084                                   24400534.0594
                                                                        40.5004
        22.5004
   -844064.17648   -632909.27045
                  21819639.6954                                   21819633.9184
                                                                        49.5004
        35.2504
   -534149.54347   -400871.24244
                  22781737.2194                                   22781735.1764
                                                                        45.2504
        29.0004
   -586315.48447   -445541.19144
                  23859524.9614                                   23859521.4024
                                                                        43.0004
        27.0004
 09 10 14 23 15  0.0000000  0  8G02G04G12G13G29G23G30G31
  -1583283.21148  -1192530.06647
                  20797530.7974                                   20797525.1644
                                                                        51.2504
        42.0004
   -655131.19148   -495309.72746
                  20739108.1174                                   20739105.2584
                                                                        53.2504
        41.5004
    -92528.69547    -71159.27744
                  23948938.4614                                   23948935.9494
                                                                        45.0004
        29.0004
  -1816809.62148  -1370087.30945
                  21909800.3524                                   21909796.4884
                                                                        49.7504
        34.0004
   -489806.23846   -340358.15243
                  24362936.5864                                   24362933.6024
                                                                        41.5004
        22.7504
   -924425.78948   -695528.80545
                  21804347.5234                                   21804342.0004
                                                                        49.5004
        35.0004
   -583132.99647   -439040.08645
                  22772415.7194                                   22772413.7584
                                                                        45.0004
        30.5004
   -641630.65647   -488643.93444
                  23848998.8284                                   23848995.3754
                                                                        42.5004
        27.2504
 09 10 14 23 15 30.0000000  0  8G02G04G12G13G29G23G30G31
  -1724172.08648  -1302313.59447
                  20770720.3444                                   20770714.9884
                                                                        51.0004
        42.0004
   -710242.26648   -538253.68446
                  20728621.2734                                   20728618.1054
                                                                        53.0004
        41.5004
    -98209.61747    -75585.96944
                  23947857.9224                                   23947854.6454
                                                                        44.7504
        29.2504
  -1979230.07848  -1496648.69945
                  21878892.7504                                   21878888.7814
                                                                        49.5004
        33.5004
   -686760.71547   -493829.16044
                  24325457.4144                                   24325455.3674
                                                                        42.0004
        27.2504
  -1003755.41448   -757344.14145
                  21789251.6644                                   21789246.0314
                                                                        48.7504
        35.2504
   -631103.54747   -476419.75044
                  22763287.4454                                   22763285.0274
                                                                        44.7504
        29.7504
   -695993.00046   -531004.19944
                  23838653.8834                                   23838650.6414
                                                                        41.2504
        27.5004
 09 10 14 23 16  0.0000000  0  8G02G04G12G13G29G23G30G31
  -1864171.63348  -1411404.12947
                  20744079.2424                                   20744074.3324
                                                                        50.5004
        42.5004
   -764440.29748   -580485.96946
                  20718307.7424                                   20718304.7074
                                                                        52.2504
        41.2504
   -103171.03147    -79452.05944
                  23946914.1644                                   23946910.7424
                                                                        45.5004
        29.5004
  -2140721.69948  -1622486.32445
                  21848161.4614                                   21848157.8444
                                                                        50.0004
        34.2504
   -883096.95747   -646818.40644
                  24288095.8984                                   24288093.9964
                                                                        42.0004
        27.0004
  -1082071.25848   -818369.37145
                  21774348.2344                                   21774342.8554
                                                                        49.0004
        35.5004
   -678081.02347   -513025.60245
                  22754347.8054                                   22754345.8404
                                                                        43.2504
        30.0004
   -749422.17246   -572637.30544
                  23828487.0864                                   23828482.5664
                                                                        40.7504
        27.5004
 09 10 14 23 16 30.0000000  0  8G02G04G12G13G29G23G30G31
  -2003295.77748  -1519812.56247
                  20717604.9064                                   20717599.7194
                                                                        50.0004
        42.5004
   -817741.71148   -622019.47346
                  20708164.5234                                   20708161.9104
                                                                        53.0004
        41.5004
   -107430.83247    -82771.43445
                  23946103.7664                                   23946099.7344
                                                                        44.7504
        30.5004
  -2301297.03548  -1747609.93745
                  21817605.4694                                   21817601.4964
                                                                        50.0004
        34.2504
  -1078827.11346   -799335.44944
                  24250849.6724                                   24250847.9694
                                                                        40.0004
        26.5004
  -1159389.36348   -878617.15245
                  21759634.7504                                   21759629.7704
                                                                        48.0004
        35.0004
   -724082.72747   -548871.11344
                  22745593.7894                                   22745591.7854
                                                                        44.2504
        29.5004
   -801934.68747   -613556.12144
                  23818494.0554                                   23818490.3404
                                                                        42.2504
        28.5004
 09 10 14 23 17  0.0000000  0  8G02G04G12G13G29G23G30G31
  -2141559.84848  -1627550.82847
                  20691293.9614                                   20691288.6764
                                                                        50.5004
        42.5004
   -870164.69948   -662868.36746
                  20698188.8754                                   20698186.0984
                                                                        52.7504
        41.5004
   -111008.70747    -85559.43444
                  23945422.2584                                   23945419.1294
                                                                        44.5004
        29.5004
  -2460971.05548  -1872031.25845
                  21787220.2814                                   21787216.6054
                                                                        50.0004
        34.5004
  -1273965.57446   -951391.31244
                  24213716.3444                                   24213714.1564
                                                                        40.0004
        26.5004
  -1235727.57848   -938101.48845
                  21745108.3054                                   21745102.5784
                                                                        48.5004
        35.2504
   -769127.56247   -583970.96944
                  22737022.0314                                   22737020.0204
                                                                        44.7504
        28.7504
   -853549.43447   -653775.42244
                  23808672.2034                                   23808668.8794
                                                                        43.2504
        28.5004
 09 10 14 23 17 30.0000000  0  8G02G04G12G13G29G23G30G31
  -2278974.86348  -1734627.45747
                  20665144.6804                                   20665139.7114
                                                                        51.2504
        42.0004
   -921723.32048   -703043.86746
                  20688377.4384                                   20688374.4264
                                                                        52.5004
        41.5004
   -113920.24247    -87828.21144
                  23944868.8364                                   23944865.2034
                                                                        45.5004
        27.5004
  -2619753.63348  -1995757.96945
                  21757004.9614                                   21757001.0664
                                                                        50.0004
        34.0004
  -1468522.37146  -1102993.84044
                  24176692.3834                                   24176690.8954
                                                                        40.0004
        25.0004
  -1311098.85948   -996832.31245
                  21730765.7664                                   21730760.3284
                                                                        49.2504
        35.2504
   -813230.37547   -618336.87545
                  22728630.1254                                   22728627.8204
                                                                        44.5004
        30.0004
   -904280.17647   -693305.88744
                  23799018.4694                                   23799014.5784
                                                                        43.5004
        26.2504
 09 10 14 23 18  0.0000000  0  8G02G04G12G13G29G23G30G31
  -2415557.58648  -1841055.57047
                  20639153.8754                                   20639148.9804
                                                                        50.5004
        42.2504
   -972437.32448   -742561.40246
                  20678726.9224                                   20678724.2544
                                                                        52.5004
        41.2504
   -116186.43447    -89594.08644
                  23944437.6954                                   23944433.4804
                                                                        45.0004
        27.5004
  -2777660.68448  -2118802.41445
                  21726956.4064                                   21726952.4414
                                                                        50.2504
        34.0004
  -1662513.40646  -1254155.59044
                  24139777.7664                                   24139775.5784
                                                                        41.5004
        26.7504
  -1385522.43747  -1054824.80145
                  21716603.7584                                   21716597.9654
                                                                        47.5004
        34.7504
   -856410.96947   -651984.14844
                  22720412.5704                                   22720410.0084
                                                                        44.5004
        29.0004
   -954146.52747   -732162.84444
                  23789529.2894                                   23789525.3834
                                                                        43.2504
        28.0004
 09 10 14 23 18 30.0000000  0  9G02G04G12G13G29G23G10G30G31
  -2551320.59048  -1946844.93047
                  20613319.0704                                   20613314.1954
                                                                        49.5004
        42.0004
  -1022321.55548   -781432.40646
                  20669234.3914                                   20669231.4264
                                                                        51.7504
        41.5004
   -117824.24647    -90870.30944
                  23944125.7424                                   23944121.7034
                                                                        44.5004
        27.0004
  -2934704.62148  -2241174.30545
                  21697071.7114                                   21697067.6024
                                                                        49.5004
        34.0004
  -1855950.38346  -1404885.60244
                  24102968.2584                                   24102965.1724
                                                                        41.7504
        25.5004
  -1459012.64547  -1112089.88345
                  21702618.9534                                   21702612.8244
                                                                        47.0004
        35.5004
   -311673.90657   -230754.73854
                  23977390.2734                                   23977387.4844
                                                                        43.0004
        24.0004
   -898685.52347   -684925.41844
                  22712368.5864                                   22712365.7234
                                                                        44.0004
        29.2504
  -1003164.29747   -770358.57444
                  23780201.3204                                   23780197.8244
                                                                        43.7504
        28.7504
 09 10 14 23 19  0.0000000  0  9G02G04G12G13G29G23G10G30G31
  -1110854.02348   -824403.43747
                  20887430.7504                                   20887425.4574
                                                                        50.5004
        42.5004
    504029.54748    407932.32846
                  20959689.0634                                   20959686.5004
                                                                        52.7504
        41.7504
   1456567.75047   1135928.62144
                  24243722.3834                                   24243719.2114
                                                                        43.2504
        27.5004
  -1515473.30948  -1135279.74645
                  21967142.5554                                   21967138.9534
                                                                        49.5004
        34.7504
   -473419.99646   -327589.17243
                  24366054.2194                                   24366051.5124
                                                                        40.5004
        23.2504
     43835.89148     58960.79745
                  21988601.8444                                   21988596.0164
                                                                        49.0004
        35.7504
   1052749.35247    832432.29743
                  24237031.2424                                   24237028.4774
                                                                        43.7504
        23.5004
    635349.57047    510426.57845
                  23004285.0554                                   23004283.0744
                                                                        44.7504
        30.0004
    524070.43046    419694.38744
                  24070824.7814                                   24070821.0704
                                                                        41.5004
        27.0004
 09 10 14 23 19 30.0000000  0  9G02G04G12G13G29G23G10G30G31
  -1245020.67648   -928948.92647
                  20861899.7424                                   20861894.2194
                                                                        51.0004
        42.5004
    455754.82448    370315.62547
                  20950502.7734                                   20950500.1094
                                                                        52.0004
        42.0004
   1456131.06347   1135588.28144
                  24243639.3054                                   24243636.4884
                                                                        44.2504
        28.0004
  -1670830.16848  -1256337.02045
                  21937578.9844                                   21937575.5434
                                                                        49.5004
        34.7504
   -665787.93046   -477486.19544
                  24329447.6724                                   24329445.3794
                                                                        41.5004
        25.7504
    -27837.22348      3111.62945
                  21974962.2274                                   21974956.6914
                                                                        48.5004
        34.5004
    842164.81347    668340.55544
                  24196957.9144                                   24196956.1134
                                                                        43.0004
        26.2504
    594833.95347    478855.94144
                  22996575.3134                                   22996573.4064
                                                                        44.0004
        28.7504
    476697.68846    382780.49644
                  24061810.2274                                   24061806.4224
                                                                        40.7504
        26.2504
 09 10 14 23 20  0.0000000  0  9G02G04G12G13G29G23G10G30G31
  -1378403.10948  -1032883.34447
                  20836517.9064                                   20836512.8164
                                                                        50.7504
        42.5004
    408266.30548    333311.49647
                  20941466.0004                                   20941463.3714
                                                                        52.7504
        42.2504
   1456274.33247   1135699.87544
                  24243666.4924                                   24243663.7304
                                                                        44.5004
        29.2504
  -1825357.10948  -1376747.60945
                  21908173.6564                                   21908170.0984
                                                                        49.0004
        35.7504
   -857633.96146   -626976.58644
                  24292940.9844                                   24292938.8284
                                                                        41.2504
        26.0004
    -98619.60547    -52043.48045
                  21961492.8524                                   21961487.1644
                                                                        47.0004
        34.7504
    631992.90646    504570.33244
                  24156963.1564                                   24156961.2074
                                                                        41.2504
        24.7504
    555178.11747    447955.25444
                  22989028.8134                                   22989027.0124
                                                                        44.0004
        28.7504
    430128.80146    346493.10244
                  24052948.1804                                   24052944.2934
                                                                        40.7504
        28.2504
 09 10 14 23 20 30.0000000  0  9G02G04G12G13G29G23G10G30G31
  -1511008.21148  -1136212.11747
                  20811284.2274                                   20811279.0904
                                                                        51.0004
        42.2504
    361554.70348    296912.85946
                  20932577.3204                                   20932574.3914
                                                                        52.5004
        41.0004
   1456986.14547   1136254.47744
                  24243802.5944                                   24243799.6764
                                                                        45.5004
        29.0004
  -1979059.86348  -1496515.99245
                  21878925.0634                                   21878921.7034
                                                                        49.2504
        35.2504
  -1048963.91846   -776064.93044
                  24256531.9454                                   24256529.3914
                                                                        40.7504
        25.0004
   -168520.07048   -106511.51645
                  21948191.5234                                   21948186.2894
                                                                        49.0004
        35.0004
    422227.66847    341117.02044
                  24117046.5234                                   24117044.0784
                                                                        43.5004
        26.2504
    516371.63747    417716.39844
                  22981644.4454                                   22981642.9574
                                                                        44.5004
        28.7504
    384353.80946    310824.25844
                  24044236.7194                                   24044233.5634
                                                                        40.7504
        26.0004
 09 10 14 23 21  0.0000000  0  9G02G04G12G13G29G23G10G30G31
  -1642841.41848  -1238939.31647
                  20786197.0944                                   20786191.9534
                                                                        51.7504
        42.2504
    315611.91848    261113.28546
                  20923834.4924                                   20923831.5864
                                                                        52.5004
        41.0004
   1458256.96947   1137244.70744
                  24244044.1954                                   24244040.9654
                                                                        45.5004
        29.0004
  -2131943.41848  -1615646.04345
                  21849832.1174                                   21849828.8094
                                                                        49.2504
        35.0004
  -1239782.33246   -924754.62944
                  24220220.3134                                   24220218.7234
                                                                        40.0004
        26.0004
   -237545.80548   -160297.81245
                  21935056.3984                                   21935051.0234
                                                                        49.5004
        35.5004
    212864.40647    177976.88344
                  24077206.0944                                   24077203.3364
                                                                        43.5004
        24.5004
    478405.50447    388132.53544
                  22974419.9224                                   22974417.8714
                                                                        45.0004
        28.5004
    339364.12946    275767.30944
                  24035675.6724                                   24035672.4774
                                                                        41.0004
        26.0004
 09 10 14 23 21 30.0000000  0  9G02G04G12G13G29G23G10G30G31
  -1773908.35548  -1341069.44547
                  20761256.0084                                   20761250.6644
                                                                        51.0004
        42.2504
    270429.40248    225906.10546
                  20915236.6254                                   20915233.9264
                                                                        52.5004
        41.2504
   1460076.61347   1138662.57844
                  24244390.7894                                   24244387.3444
                                                                        44.2504
        29.2504
  -2284012.23848  -1734141.27345
                  21820894.5864                                   21820890.9804
                                                                        49.5004
        34.2504
  -1430093.16446  -1073048.80544
                  24184005.9224                                   24184003.3984
                                                                        40.7504
        26.5004
   -305705.27347   -213409.16045
                  21922085.8284                                   21922080.3444
                                                                        47.2504
        34.2504
      3898.19146     15146.10943
                  24037440.2194                                   24037438.4024
                                                                        41.5004
        23.2504
    441270.43047    359196.21144
                  22967353.3834                                   22967350.8954
                                                                        45.5004
        28.7504
    295150.99246    241315.46944
                  24027262.5784                                   24027258.5864
                                                                        41.5004
        25.5004
 09 10 14 23 22  0.0000000  0  9G02G04G12G13G29G23G10G30G31
  -1904216.95348  -1442608.79747
                  20736459.1954                                   20736454.1724
                                                                        51.0004
        43.0004
    225997.34848    191283.70346
                  20906781.5474                                   20906779.0434
                                                                        52.2504
        41.2504
   1462433.97747   1140499.48444
                  24244838.4774                                   24244835.8954
                                                                        43.5004
        28.0004
  -2435273.09048  -1852006.88345
                  21792110.4384                                   21792106.7304
                                                                        50.0004
        34.7504
  -1619902.89547  -1220952.52344
                  24147886.3444                                   24147884.0124
                                                                        42.5004
        27.5004
   -373007.85948   -265852.60245
                  21909278.6804                                   21909272.9414
                                                                        48.5004
        34.7504
   -204677.63747   -147380.41844
                  23997749.8524                                   23997747.4654
                                                                        42.0004
        26.5004
    404955.43447    330898.89144
                  22960442.7034                                   22960440.3834
                                                                        45.0004
        29.5004
    251704.14846    207460.83643
                  24018994.1724                                   24018991.3954
                                                                        41.2504
        23.7504
 09 10 14 23 22 30.0000000  0  9G02G04G12G13G29G23G10G30G31
  -2033772.94948  -1543561.62147
                  20711805.7664                                   20711800.5434
                                                                        51.5004
        43.2504
    182306.84048    157239.20746
                  20898467.5004                                   20898464.8094
                                                                        52.5004
        41.5004
   1465318.26247   1142746.96544
                  24245386.9144                                   24245384.3714
                                                                        43.0004
        26.0004
  -2585731.65648  -1969247.31645
                  21763479.1884                                   21763475.3674
                                                                        49.5004
        34.2504
  -1809217.00847  -1368470.09844
                  24111860.8204                                   24111858.8914
                                                                        42.5004
        27.7504
   -439462.08248   -317635.04345
                  21896632.9304                                   21896627.6684
                                                                        48.7504
        35.5004
   -412868.26647   -309606.81644
                  23958132.7034                                   23958131.2704
                                                                        42.7504
        26.0004
    369450.57047    303232.77044
                  22953686.5474                                   22953684.1094
                                                                        44.5004
        29.5004
    209013.94146    174195.75444
                  24010870.9064                                   24010867.0124
                                                                        39.7504
        24.5004
 09 10 14 23 23  0.0000000  0  9G02G04G12G13G29G23G10G30G31
  -2162582.06648  -1643932.40247
                  20687293.9774                                   20687288.6994
                                                                        51.0004
        42.5004
    139349.48448    123765.99246
                  20890292.7034                                   20890290.1764
                                                                        52.2504
        41.5004
   1468718.89547   1145396.78144
                  24246034.8284                                   24246031.0594
                                                                        42.7504
        26.5004
  -2735392.66048  -2085866.25445
                  21734999.4534                                   21734995.7504
                                                                        49.5004
        34.7504
  -1998039.40147  -1515604.46844
                  24075929.1724                                   24075926.6564
                                                                        42.5004
        26.5004
   -505076.13748   -368762.80945
                  21884146.7114                                   21884141.2074
                                                                        48.2504
        34.5004
   -620678.58647   -471536.89144
                  23918588.0784                                   23918585.6644
                                                                        43.0004
        27.7504
    334746.75847    276190.80145
                  22947082.6094                                   22947080.3484
                                                                        45.0004
        30.5004
    167071.78546    141513.54744
                  24002890.2584                                   24002886.5354
                                                                        40.0004
        25.5004
 09 10 14 23 23 30.0000000  0  9G02G04G12G13G29G23G10G30G31
  -2290651.18748  -1743726.55947
                  20662923.2424                                   20662918.4614
                                                                        52.2504
        42.7504
     97115.50048     90856.40246
                  20882255.9844                                   20882253.3594
                                                                        52.5004
        41.0004
   1472625.25047   1148440.70744
                  24246777.7344                                   24246774.7974
                                                                        43.0004
        26.2504
  -2884262.46948  -2201868.66845
                  21706670.1484                                   21706666.3054
                                                                        50.0004
        35.0004
  -2186376.05147  -1662360.39844
                  24040089.7974                                   24040087.2344
                                                                        42.5004
        27.0004
   -569859.36348   -419243.19545
                  21871818.8524                                   21871813.7704
                                                                        49.2504
        34.5004
   -828114.85947   -633175.46944
                  23879113.7504                                   23879111.4964
                                                                        42.2504
        26.5004
    300833.48847    249764.84444
                  22940628.9144                                   22940626.7664
                                                                        45.7504
        29.0004
    125867.59846    109406.39844
                  23995048.6094                                   23995045.4224
                                                                        41.5004
        26.0004
 09 10 14 23 24  0.0000000  0  9G02G04G12G13G29G23G10G30G31
  -2417988.34448  -1842950.39146
                  20638692.0314                                   20638686.9534
                                                                        51.2504
        41.7504
     55594.30148     58502.10246
                  20874354.6954                                   20874352.6134
                                                                        52.0004
        41.2504
   1477024.97747   1151869.06344
                  24247615.3134                                   24247612.1054
                                                                        44.0004
        27.0004
  -3032348.33248  -2317260.22745
                  21678490.6564                                   21678486.9024
                                                                        49.5004
        34.7504
  -2374233.89547  -1808743.23444
                  24004341.9844                                   24004339.0314
                                                                        42.0004
        25.2504
   -633821.65248   -469083.88345
                  21859647.4224                                   21859641.7934
                                                                        48.5004
        34.0004
  -1035183.96947   -794527.98444
                  23839709.7194                                   23839707.4964
                                                                        42.7504
        27.7504
    267699.16047    223945.83244
                  22934323.9454                                   22934321.4184
                                                                        46.5004
        29.2504
     85390.18047     77865.62144
                  23987346.6174                                   23987342.2974
                                                                        42.0004
        26.5004
 09 10 14 23 24 30.0000000  0  9G02G04G12G13G29G23G10G30G31
  -2544601.91848  -1941610.35247
                  20614597.9614                                   20614593.2464
                                                                        51.2504
        43.0004
     14775.43048     26695.36746
                  20866587.2504                                   20866584.2774
                                                                        52.0004
        41.0004
   1481905.78947   1155672.30144
                  24248544.0634                                   24248541.5044
                                                                        44.2504
        28.5004
  -3179657.79348  -2432046.80945
                  21650458.6564                                   21650454.7074
                                                                        49.7504
        34.7504
  -2561620.06646  -1954758.60544
                  23968683.0234                                   23968680.6564
                                                                        40.5004
        25.0004
   -696973.85248   -518293.35945
                  21847630.0554                                   21847624.3794
                                                                        48.5004
        34.5004
  -1241893.31647   -955600.14844
                  23800374.3834                                   23800372.2034
                                                                        43.7504
        26.2504
    235331.84047    198724.51244
                  22928164.3444                                   22928162.1564
                                                                        44.7504
        29.0004
     45628.08647     46882.14844
                  23979780.1174                                   23979776.1254
                                                                        42.0004
        25.7504
 09 10 14 23 25  0.0000000  0  9G02G04G12G13G29G23G10G30G31
  -2670495.75448  -2039709.46547
                  20590641.5234                                   20590636.2194
                                                                        51.0004
        42.2504
    -25348.13748     -4569.75046
                  20858951.8984                                   20858948.9104
                                                                        52.2504
        41.2504
   1487259.25847   1159843.78944
                  24249563.2584                                   24249560.0594
                                                                        43.5004
        28.5004
  -3326194.51248  -2546231.25045
                  21622573.7424                                   21622569.7464
                                                                        50.0004
        35.5004
  -2748537.02346  -2100408.23844
                  23933114.2584                                   23933112.4024
                                                                        40.7504
        26.5004
   -759322.35248   -566876.61745
                  21835765.4454                                   21835759.8094
                                                                        48.5004
        35.0004
  -1448246.53547  -1116394.83244
                  23761106.3674                                   23761104.0354
                                                                        43.7504
        27.0004
    203723.96947    174095.00044
                  22922149.4304                                   22922147.3054
                                                                        46.0004
        29.2504
      6574.34447     16450.62944
                  23972348.0164                                   23972344.7734
                                                                        42.0004
        26.2504
 09 10 14 23 25 30.0000000  0  9G02G04G12G13G29G23G10G30G31
  -2795674.59848  -2137251.50047
                  20566820.5864                                   20566815.5314
                                                                        52.0004
        42.5004
    -64783.96548    -35298.98046
                  20851447.5084                                   20851444.7814
                                                                        52.0004
        41.2504
   1493076.22347   1164376.47745
                  24250669.8134                                   24250667.6214
                                                                        43.2504
        30.0004
  -3471961.65648  -2659816.01645
                  21594835.1724                                   21594831.4304
                                                                        50.2504
        35.0004
  -2934988.28546  -2245695.00444
                  23897633.9774                                   23897632.1024
                                                                        41.2504
        27.2504
   -820873.82448   -614838.78145
                  21824052.0234                                   21824046.7664
                                                                        49.0004
        34.2504
  -1654247.02747  -1276914.65244
                  23721906.0394                                   23721903.4064
                                                                        43.2504
        26.7504
    172867.04347    150050.57044
                  22916278.2034                                   22916275.6414
                                                                        45.0004
        28.2504
    -31778.78946    -13434.96544
                  23965049.9614                                   23965046.4454
                                                                        41.0004
        27.5004
 09 10 14 23 26  0.0000000  0  9G02G04G12G13G29G23G10G30G31
  -2920143.61348  -2234240.34847
                  20543134.8594                                   20543129.9264
                                                                        51.7504
        42.7504
   -103539.64848    -65498.22746
                  20844072.6564                                   20844069.8164
                                                                        52.0004
        41.0004
   1499347.59447   1169263.21544
                  24251863.6024                                   24251860.7464
                                                                        42.0004
        27.0004
  -3616964.15648  -2772804.98045
                  21567241.9384                                   21567238.1954
                                                                        50.0004
        35.2504
  -3120977.38746  -2390621.59044
                  23862241.4224                                   23862239.7584
                                                                        41.5004
        27.7504
   -881636.07048   -662186.02345
                  21812489.6644                                   21812483.8284
                                                                        49.2504
        35.0004
  -1859899.17247  -1437163.05944
                  23682771.8834                                   23682769.1764
                                                                        43.2504
        26.7504
    142752.54747    126584.71144
                  22910547.3134                                   22910545.3444
                                                                        44.7504
        28.5004
    -69439.76247    -42781.20744
                  23957882.8914                                   23957879.8754
                                                                        42.0004
        28.2504
 09 10 14 23 26 30.0000000  0  9G02G04G12G13G29G23G10G30G31
  -3043907.96948  -2330680.10247
                  20519583.1254                                   20519578.2774
                                                                        51.5004
        42.5004
   -141623.05148    -95173.64546
                  20836825.9454                                   20836822.7114
