     2.11           OBSERVATION DATA    G (GPS)             RINEX VERSION / TYPE
teqc  2019Feb25                         20221121 12:28:50UTCPGM / RUN BY / DATE
OSX ker:10.11.6|Core i5|gcc 4.3 -m64|OSX ker:10.10+|=+      COMMENT
BIT 2 OF LLI FLAGS DATA COLLECTED UNDER A/S CONDITION       COMMENT
04713011                                                    MARKER NAME
3011                                                        MARKER NUMBER
-Unknown-           -Unknown-                               OBSERVER / AGENCY
0220400471          TRIMBLE R7          2.30                REC # / TYPE / VERS
-Unknown-           TRM39105.00     NONE                    ANT # / TYPE
  1449458.9533 -1709243.7591  5952442.7358                  APPROX POSITION XYZ
        0.0000        0.0000        0.0000                  ANTENNA: DELTA H/E/N
     1     1                                                WAVELENGTH FACT L1/2
    20    L1    L2    L5    L6    L7    L8    C1    P1    C2# / TYPES OF OBSERV
          P2    C5    C6    C7    C8    S1    S2    S5    S6# / TYPES OF OBSERV
          S7    S8                                          # / TYPES OF OBSERV
    30.0000                                                 INTERVAL
    15                                                      LEAP SECONDS
Forced Modulo Decimation to 30 seconds                      COMMENT
 SNR is mapped to RINEX snr flag value [0-9]                COMMENT
  L1 & L2: min(max(int(snr_dBHz/6), 0), 9)                  COMMENT
teqc edited: Beidou # 1 - 37 excluded                       COMMENT
  2009    10    28    23    11   30.0000000     GPS         TIME OF FIRST OBS
                                                            END OF HEADER
 09 10 28 23 11 30.0000000  0  7G02G04G05G10G13G23G29
   -153026.28558    -97519.83257
                  20557372.2504                                   20557365.9414
                                                                        53.0004
        42.5004
    -14769.50858     -9958.04356
                  22241033.1484                                   22241029.3204
                                                                        49.5004
        36.0004
   -359537.05958   -228650.12155
                  22911165.1334                                   22911160.8404
                                                                        48.7504
        35.5004
   -340795.14558   -220566.82056
                  22012938.4694                                   22012935.0474
                                                                        49.2504
        36.5004
   -176418.93058   -112391.34856
                  21303356.5944                                   21303352.0784
                                                                        50.5004
        37.2504
    -41412.14557    -26947.65655
                  22837267.5864                                   22837260.5634
                                                                        46.2504
        31.0004
   -289094.96157   -184777.67255
                  22702328.8754                                   22702324.8244
                                                                        45.7504
        34.5004
 09 10 28 23 12  0.0000000  0  7G02G04G05G10G13G23G29
   -237734.48848   -163526.23047
                  20541252.9774                                   20541246.7854
                                                                        53.0004
        42.0004
    -23783.44948    -16982.28545
                  22239317.8914                                   22239314.5164
                                                                        49.2504
        35.5004
   -558296.98848   -383528.02045
                  22873342.8984                                   22873338.4224
                                                                        48.5004
        35.0004
   -529085.74648   -367286.80546
                  21977107.8134                                   21977104.1644
                                                                        48.0004
        36.2504
   -273879.14848   -188334.37146
                  21284810.7194                                   21284805.9654
                                                                        49.5004
        36.5004
    -64973.11747    -45306.87545
                  22832784.2114                                   22832777.3404
                                                                        47.2504
        30.0004
   -448787.78147   -309213.62945
                  22671940.1334                                   22671936.4224
                                                                        45.2504
        34.5004
 09 10 28 23 12 30.0000000  0  7G02G04G05G10G13G23G29
   -321494.90648   -228794.09447
                  20525313.6644                                   20525307.6294
                                                                        53.2504
        42.7504
    -32091.36347    -23456.08645
                  22237737.2274                                   22237733.7854
                                                                        47.7504
        35.7504
   -756424.94148   -537913.41445
                  22835639.8914                                   22835635.6914
                                                                        48.5004
        35.2504
   -716632.93748   -513427.49646
                  21941418.7194                                   21941415.2034
                                                                        48.0004
        36.0004
   -370306.49248   -263472.58246
                  21266461.1564                                   21266456.5234
                                                                        49.5004
        37.2504
    -87714.72747    -63027.63744
                  22828455.9924                                   22828449.6254
                                                                        46.5004
        29.5004
   -607619.23047   -432978.40645
                  22641715.7034                                   22641711.7424
                                                                        45.5004
        34.2504
 09 10 28 23 13  0.0000000  0  7G02G04G05G10G13G23G29
   -404166.30548   -293213.37547
                  20509581.8674                                   20509575.8594
                                                                        53.0004
        42.5004
    -39554.60548    -29271.80945
                  22236316.5704                                   22236313.2034
                                                                        48.0004
        35.0004
   -953777.80548   -691694.90645
                  22798085.3984                                   22798080.9304
                                                                        49.0004
        35.7504
   -903292.85248   -658876.83246
                  21905898.5554                                   21905894.7274
                                                                        48.2504
        36.0004
   -465559.76248   -337695.94146
                  21248335.1954                                   21248330.6484
                                                                        49.0004
        36.7504
   -109497.93047    -80001.59044
                  22824311.0634                                   22824304.5824
                                                                        45.5004
        29.0004
   -765445.84847   -555960.18445
                  22611682.5784                                   22611678.2114
                                                                        46.7504
        34.7504
 09 10 28 23 13 30.0000000  0  7G02G04G05G10G13G23G29
   -485708.50848   -356752.73847
                  20494064.9454                                   20494058.6214
                                                                        51.7504
        42.7504
    -46134.21548    -34398.88745
                  22235065.2664                                   22235061.7424
                                                                        48.5004
        35.0004
  -1150312.64148   -844838.97346
                  22760685.6804                                   22760681.9384
                                                                        49.0004
        36.0004
  -1089022.62948   -803601.23446
                  21870555.3284                                   21870551.5204
                                                                        48.7504
        36.5004
   -559598.11748   -410972.58246
                  21230440.2344                                   21230435.7464
                                                                        49.0004
        36.7504
   -130284.81647    -96199.18744
                  22820355.6254                                   22820349.1954
                                                                        45.7504
        28.2504
   -922225.18747   -678125.90645
                  22581847.9924                                   22581844.2774
                                                                        47.5004
        35.2504
 09 10 28 23 14  0.0000000  0  7G02G04G05G10G13G23G29
   -566119.29348   -419410.50447
                  20478763.0554                                   20478757.0784
                                                                        51.7504
        42.7504
    -51830.31248    -38837.43745
                  22233980.8524                                   22233977.6174
                                                                        48.5004
        34.7504
  -1346025.25048   -997342.28146
                  22723442.9144                                   22723438.7274
                                                                        48.2504
        36.0004
  -1273818.43048   -947597.85246
                  21835390.1174                                   21835385.9384
                                                                        48.5004
        37.0004
   -652420.29748   -483301.60246
                  21212776.8984                                   21212772.3554
                                                                        48.5004
        36.0004
   -150075.02047   -111620.10944
                  22816589.0634                                   22816582.9264
                                                                        46.0004
        29.2504
  -1077952.97347   -799472.24645
                  22552214.3674                                   22552209.8674
                                                                        46.0004
        35.0004
 09 10 28 23 14 30.0000000  0  7G02G04G05G10G13G23G29
   -645413.84448   -481198.45347
                  20463673.8984                                   20463667.7664
                                                                        52.5004
        42.7504
    -56659.23048    -42600.13345
                  22233062.0084                                   22233059.0864
                                                                        48.5004
        35.7504
  -1540928.78148  -1149215.02745
                  22686353.4384                                   22686350.1024
                                                                        48.2504
        35.5004
  -1457693.19147  -1090876.92246
                  21800399.6414                                   21800395.9384
                                                                        47.2504
        36.5004
   -744040.88748   -554694.26646
                  21195342.3054                                   21195337.3324
                                                                        48.2504
        37.0004
   -168886.19947   -126278.18144
                  22813010.3594                                   22813003.5514
                                                                        46.5004
        29.2504
  -1232642.15247   -920009.27745
                  22522777.5784                                   22522773.7464
                                                                        46.0004
        35.0004
 09 10 28 23 15  0.0000000  0  7G02G04G05G10G13G23G29
   -723617.37548   -542136.32847
                  20448792.4304                                   20448786.2974
                                                                        53.0004
        42.5004
    -60648.37148    -45708.34845
                  22232302.6094                                   22232299.4924
                                                                        48.2504
        35.5004
  -1735046.50447  -1300475.65245
                  22649414.5314                                   22649410.3834
                                                                        47.7504
        35.5004
  -1640669.38348  -1233455.74246
                  21765580.5084                                   21765576.6414
                                                                        48.0004
        36.7504
   -834485.61348   -625170.68446
                  21178130.9694                                   21178126.2624
                                                                        49.7504
        37.0004
   -186745.86747   -140194.83644
                  22809611.7194                                   22809605.3054
                                                                        47.0004
        29.5004
  -1386315.57447  -1039754.81245
                  22493534.2894                                   22493530.6454
                                                                        47.0004
        34.5004
 09 10 28 23 15 30.0000000  0  7G02G04G05G10G13G23G29
   -800755.26248   -602243.77047
                  20434113.1724                                   20434107.4844
                                                                        52.0004
        42.7504
    -63825.85948    -48184.32045
                  22231698.1254                                   22231694.9384
                                                                        48.7504
        35.0004
  -1928401.42647  -1451141.86346
                  22612620.1484                                   22612616.5784
                                                                        47.0004
        36.5004
  -1822770.76648  -1375352.93446
                  21730927.7664                                   21730923.8204
                                                                        48.5004
        36.5004
   -923780.05948   -694750.79346
                  21161138.7974                                   21161134.4144
                                                                        50.0004
        37.2504
   -203681.39147   -153391.37544
                  22806388.7584                                   22806382.1914
                                                                        46.7504
        29.7504
  -1538996.25847  -1158726.78545
                  22464480.3524                                   22464476.5864
                                                                        47.7504
        35.5004
 09 10 28 23 16  0.0000000  0  7G02G04G05G10G13G23G29
   -876855.25448   -661542.43447
                  20419632.5164                                   20419626.1454
                                                                        52.7504
        42.7504
    -66219.66048    -50049.28145
                  22231242.1804                                   22231238.9264
                                                                        48.5004
        35.5004
  -2121019.03148  -1601233.52746
                  22575966.7344                                   22575962.5474
                                                                        48.0004
        36.5004
  -2004022.34448  -1516588.01646
                  21696436.7424                                   21696433.0594
                                                                        49.0004
        36.5004
  -1011951.53948   -763455.85246
                  21144360.4384                                   21144355.4454
                                                                        50.0004
        37.0004
   -219722.88347   -165891.25845
                  22803336.1174                                   22803329.8054
                                                                        47.0004
        30.0004
  -1690710.20747  -1276945.44945
                  22435610.2974                                   22435606.3984
                                                                        47.0004
        35.5004
 09 10 28 23 16 30.0000000  0  7G02G04G05G10G13G23G29
   -951938.59848   -720048.99647
                  20405344.2974                                   20405338.3674
                                                                        52.0004
        42.5004
    -67853.66848    -51322.27345
                  22230931.0634                                   22230928.4454
                                                                        48.0004
        35.2504
  -2312917.96947  -1750765.27045
                  22539449.5314                                   22539445.0784
                                                                        46.5004
        35.5004
  -2184443.05148  -1657175.60246
                  21662103.9774                                   21662100.2384
                                                                        48.5004
        37.5004
  -1099021.68748   -831302.73046
                  21127791.5234                                   21127786.7504
                                                                        50.5004
        37.0004
   -234893.77347   -177712.76244
                  22800449.5164                                   22800442.8954
                                                                        46.0004
        29.2504
  -1841476.31648  -1394425.56245
                  22406920.4224                                   22406916.5514
                                                                        48.0004
        34.7504
 09 10 28 23 17  0.0000000  0  7G02G04G05G10G13G23G29
  -1026026.46548   -777779.74247
                  20391245.8284                                   20391239.5394
                                                                        52.2504
        42.7504
    -68751.30148    -52021.65245
                  22230760.2584                                   22230757.2074
                                                                        48.0004
        34.7504
  -2504117.43447  -1899751.94946
                  22503065.6724                                   22503061.4264
                                                                        46.5004
        36.0004
  -2364051.78148  -1797130.49246
                  21627925.5944                                   21627921.8754
                                                                        48.5004
        37.5004
  -1185011.96148   -898308.15246
                  21111428.0084                                   21111422.8054
                                                                        50.0004
        37.0004
   -249217.25447   -188873.93744
                  22797723.5394                                   22797717.0634
                                                                        45.7504
        28.7504
  -1991313.18047  -1511181.57845
                  22378407.6254                                   22378403.7234
                                                                        47.5004
        35.2504
 09 10 28 23 17 30.0000000  0  7G02G04G05G10G13G23G29
  -1099140.55548   -834751.75847
                  20377332.7114                                   20377326.5434
                                                                        52.2504
        43.0004
    -68935.54348    -52165.19545
                  22230725.0164                                   22230721.7664
                                                                        48.7504
        34.7504
  -2694636.81247  -2048208.63346
                  22466810.5944                                   22466807.0234
                                                                        46.2504
        36.2504
  -2542867.85548  -1936467.67646
                  21593898.0554                                   21593893.8874
                                                                        48.7504
        37.0004
  -1269943.76648   -964488.78946
                  21095265.9454                                   21095261.1024
                                                                        50.7504
        36.2504
   -262716.63747   -199392.94944
                  22795154.6564                                   22795147.5314
                                                                        46.0004
        27.2504
  -2140240.21147  -1627228.63745
                  22350067.2974                                   22350063.7384
                                                                        47.5004
        35.5004
 09 10 28 23 18  0.0000000  0  7G02G04G05G10G13G23G29
  -1171298.46948   -890978.66447
                  20363601.5394                                   20363595.2504
                                                                        51.7504
        42.0004
    -68425.71948    -51767.89845
                  22230822.1414                                   22230818.7074
                                                                        48.0004
        34.5004
  -2884491.35247  -2196147.23046
                  22430683.0784                                   22430678.8094
                                                                        46.7504
        36.5004
  -2720906.75848  -2075199.18746
                  21560018.5004                                   21560014.4694
                                                                        48.5004
        37.0004
  -1353835.52348  -1029859.00046
                  21079301.9694                                   21079297.1214
                                                                        50.5004
        36.7504
   -275412.91447   -209286.14144
                  22792738.1174                                   22792732.0664
                                                                        45.5004
        27.5004
  -2288273.40647  -1742579.19545
                  22321897.6254                                   22321893.9694
                                                                        47.0004
        35.0004
 09 10 28 23 18 30.0000000  0  7G02G04G05G10G13G23G29
    332902.09848    281125.67247
                  20649841.1564                                   20649835.0004
                                                                        52.2504
        42.5004
   1508176.38347   1176753.24245
                  22530839.5864                                   22530836.1644
                                                                        46.7504
        34.0004
  -1498272.21947  -1115976.43046
                  22694471.5164                                   22694467.1214
                                                                        47.0004
        36.0004
  -1322760.01648   -985734.14146
                  21826076.6414                                   21826072.9384
                                                                        49.0004
        37.0004
    138716.09048    133168.20746
                  21363325.0234                                   21363320.7234
                                                                        51.2504
        37.2504
   1288093.07047   1009030.18844
                  23090264.3054                                   23090257.0514
                                                                        45.7504
        29.0004
   -860004.84047   -629642.67245
                  22593688.2034                                   22593684.3634
                                                                        47.2504
        35.5004
 09 10 28 23 19  0.0000000  0  7G02G04G05G10G13G23G29
    262600.58648    226345.32047
                  20636463.3914                                   20636457.1994
                                                                        52.0004
        42.0004
   1510013.41047   1178184.68445
                  22531189.2734                                   22531185.4964
                                                                        47.7504
        34.5004
  -1686845.91447  -1262916.96946
                  22658587.0314                                   22658583.0004
                                                                        47.5004
        36.0004
  -1499293.21548  -1123292.50046
                  21792483.6954                                   21792479.9924
                                                                        49.5004
        37.7504
     56849.10948     69375.73846
                  21347746.2734                                   21347741.5554
                                                                        51.0004
        36.5004
   1276942.18447   1000341.18044
                  23088142.3594                                   23088135.5634
                                                                        45.5004
        28.2504
  -1006298.21947   -743637.52745
                  22565849.5234                                   22565845.3484
                                                                        47.7504
        35.5004
 09 10 28 23 19 30.0000000  0  7G02G04G05G10G13G23G29
    193203.29748    172269.50047
                  20623257.3674                                   20623251.4264
                                                                        52.0004
        42.2504
   1512488.03947   1180112.98845
                  22531660.3914                                   22531656.4964
                                                                        47.5004
        34.2504
  -1874799.22347  -1409374.00846
                  22622820.6644                                   22622816.3794
                                                                        46.7504
        37.0004
  -1675093.57848  -1260279.79346
                  21759029.9064                                   21759025.9384
                                                                        50.0004
        37.7504
    -24029.25848      6353.63346
                  21332355.8284                                   21332350.9024
                                                                        51.5004
        37.0004
   1266537.27747    992233.43844
                  23086161.8594                                   23086155.7384
                                                                        45.2504
        28.7504
  -1151742.24647   -856970.53945
                  22538172.5864                                   22538168.3014
                                                                        47.7504
        35.2504
 09 10 28 23 20  0.0000000  0  7G02G04G05G10G13G23G29
    124694.52048    118886.05147
                  20610220.6724                                   20610214.5704
                                                                        52.5004
        42.5004
   1515582.11747   1182523.98045
                  22532248.5554                                   22532245.4414
                                                                        47.5004
        34.5004
  -2062145.94148  -1555358.32846
                  22587169.4924                                   22587165.4264
                                                                        48.5004
        36.7504
  -1850175.12148  -1396707.00446
                  21725712.9694                                   21725708.8594
                                                                        49.7504
        38.5004
   -103935.37548    -55910.88346
                  21317150.2974                                   21317145.2384
                                                                        51.2504
        36.5004
   1256859.97747    984692.67644
                  23084320.6564                                   23084314.5204
                                                                        45.5004
        29.5004
  -1296350.53947   -969652.33245
                  22510654.4844                                   22510650.2424
                                                                        47.2504
        35.2504
 09 10 28 23 20 30.0000000  0  7G02G04G05G10G13G23G29
     57061.03148     66184.70346
                  20597350.1334                                   20597344.0274
                                                                        51.5004
        41.7504
   1519281.16047   1185406.35945
                  22532952.9064                                   22532949.3634
                                                                        47.0004
        34.7504
  -2248896.99248  -1700878.61346
                  22551632.0704                                   22551627.8524
                                                                        48.5004
        36.5004
  -2024548.26248  -1532582.11746
                  21692530.8444                                   21692527.0354
                                                                        50.2504
        37.7504
   -182882.69548   -117428.27346
                  21302126.7424                                   21302122.0664
                                                                        51.0004
        37.0004
   1247895.09847    977707.03544
                  23082614.8134                                   23082608.6024
                                                                        44.0004
        29.5004
  -1440134.50047  -1081691.81245
                  22483293.0164                                   22483289.2624
                                                                        47.5004
        35.2504
 09 10 28 23 21  0.0000000  0  7G02G04G05G10G13G23G29
     -9710.99648     14154.62547
                  20584643.8594                                   20584637.7074
                                                                        51.5004
        42.2504
   1523569.71547   1188748.05545
                  22533768.5554                                   22533765.5354
                                                                        47.0004
        33.2504
  -2435063.68048  -1845943.54746
                  22516205.8054                                   22516201.5274
                                                                        48.0004
        36.0004
  -2198224.36748  -1667914.13346
                  21659481.1024                                   21659477.2664
                                                                        49.5004
        38.0004
   -260885.23848   -178209.48046
                  21287283.6484                                   21287279.1484
                                                                        50.5004
        36.5004
   1239626.94147    971264.27344
                  23081041.4064                                   23081034.9414
                                                                        43.7504
        29.2504
  -1583105.16047  -1193097.51645
                  22456086.7344                                   22456082.8364
                                                                        47.7504
        34.7504
 09 10 28 23 21 30.0000000  0  7G02G04G05G10G13G23G29
    -75633.10248    -37213.28547
                  20572099.5314                                   20572093.7034
                                                                        52.5004
        42.7504
   1528434.52047   1192538.87545
                  22534694.7664                                   22534691.1644
                                                                        46.7504
        34.5004
  -2620654.90248  -1990560.09846
                  22480888.6564                                   22480884.9574
                                                                        48.5004
        36.5004
  -2371212.36348  -1802710.01646
                  21626562.7424                                   21626558.8754
                                                                        50.0004
        37.5004
   -337954.34448   -238263.31645
                  21272617.6954                                   21272612.9264
                                                                        51.0004
        35.7504
   1232042.07447    965353.97344
                  23079597.7194                                   23079591.4774
                                                                        42.2504
        28.0004
  -1725271.36747  -1303876.38745
                  22429033.3984                                   22429029.8054
                                                                        47.7504
        35.5004
 09 10 28 23 22  0.0000000  0  7G02G04G05G10G13G23G29
   -140720.44548    -87930.70346
                  20559713.9924                                   20559707.8284
                                                                        52.7504
        41.7504
   1533858.89847   1196765.66045
                  22535726.4144                                   22535722.8594
                                                                        47.0004
        33.7504
  -2805683.91448  -2134738.53146
                  22445679.3754                                   22445674.6374
                                                                        48.2504
        36.7504
  -2543525.18048  -1936979.76246
                  21593773.0944                                   21593769.2934
                                                                        50.5004
        38.0004
   -414105.63348   -297601.97346
                  21258126.5704                                   21258121.9924
                                                                        50.5004
        36.5004
   1225122.71147    959962.24244
                  23078281.1484                                   23078274.9454
                                                                        43.0004
        26.5004
  -1866646.74248  -1414039.02046
                  22402130.4614                                   22402126.8014
                                                                        48.0004
        36.0004
 09 10 28 23 22 30.0000000  0  7G02G04G05G10G13G23G29
   -204981.27748   -138004.05147
                  20547484.7894                                   20547478.7704
                                                                        52.0004
        42.2504
   1539833.05947   1201420.79745
                  22536863.7664                                   22536859.8404
                                                                        47.0004
        33.7504
  -2990156.03148  -2278483.01246
                  22410575.0314                                   22410570.7974
                                                                        48.5004
        36.5004
  -2715168.33248  -2070727.67246
                  21561110.1414                                   21561106.4184
                                                                        49.5004
        38.7504
   -489347.34848   -356231.89146
                  21243808.5634                                   21243803.8444
                                                                        50.2504
        36.5004
   1218858.98447    955081.39544
                  23077089.3674                                   23077082.6334
                                                                        43.5004
        27.5004
  -2007236.82447  -1523589.72345
                  22375377.0784                                   22375373.7114
                                                                        47.2504
        35.5004
 09 10 28 23 23  0.0000000  0  7G02G04G05G10G13G23G29
   -268427.83248   -187442.88746
                  20535411.8204                                   20535405.5474
                                                                        51.2504
        41.7504
   1546342.87147   1206493.29345
                  22538102.5634                                   22538099.2274
                                                                        47.5004
        34.0004
  -3174081.06648  -2421801.17246
                  22375575.5314                                   22375570.8484
                                                                        48.7504
        37.0004
  -2886152.07048  -2203961.78146
                  21528572.5864                                   21528569.3164
                                                                        49.5004
        37.2504
   -563692.58248   -414163.23846
                  21229661.1174                                   21229656.7034
                                                                        50.0004
        36.5004
   1213236.38747    950700.19544
                  23076019.6174                                   23076012.2154
                                                                        44.0004
        27.0004
  -2147051.91847  -1632536.55146
                  22348771.3594                                   22348767.5664
                                                                        47.5004
        36.2504
 09 10 28 23 23 30.0000000  0  7G02G04G05G10G13G23G29
   -331071.21548   -236255.89547
                  20523490.9614                                   20523484.8794
                                                                        51.7504
        42.2504
   1553376.19947   1211973.77345
                  22539440.7114                                   22539437.7464
                                                                        46.2504
        34.2504
  -3357467.87148  -2564700.03146
                  22340677.8284                                   22340674.0164
                                                                        48.5004
        37.0004
  -3056484.86748  -2336688.67646
                  21496159.5704                                   21496155.7934
                                                                        49.5004
        37.7504
   -637152.00048   -471404.34446
                  21215682.3284                                   21215677.7034
                                                                        51.0004
        36.5004
   1208242.06347    946808.52744
                  23075068.8914                                   23075062.0124
                                                                        43.7504
        28.5004
  -2286100.83647  -1740886.34845
                  22322310.8364                                   22322307.5704
                                                                        47.5004
        35.7504
 09 10 28 23 24  0.0000000  0  7G02G04G05G10G13G23G29
   -392920.85948   -284450.41047
                  20511721.5554                                   20511715.6804
                                                                        51.2504
        43.2504
   1560922.12947   1217853.73445
                  22540876.7114                                   22540873.4414
                                                                        46.5004
        33.2504
  -3540322.86748  -2707184.46146
                  22305881.7424                                   22305877.4924
                                                                        48.5004
        36.7504
  -3226173.27748  -2468913.43046
                  21463869.1724                                   21463864.9184
                                                                        49.7504
        38.5004
   -709734.89548   -527962.44146
                  21201870.2504                                   21201865.8484
                                                                        50.2504
        36.5004
   1203865.01647    943397.80944
                  23074236.0164                                   23074229.5634
                                                                        43.0004
        27.5004
  -2424390.09448  -1848644.20346
                  22295995.7424                                   22295992.0394
                                                                        48.5004
        36.0004
 09 10 28 23 24 30.0000000  0  7G02G04G05G10G13G23G29
   -453986.09848   -332033.69547
                  20500101.3984                                   20500095.0164
                                                                        52.0004
        42.0004
   1568969.37547   1224124.19545
                  22542408.2814                                   22542404.8914
                                                                        47.7504
        33.5004
  -3722653.08648  -2849260.00446
                  22271185.6174                                   22271181.5594
                                                                        48.5004
        37.0004
  -3395224.88748  -2600641.98446
                  21431699.8204                                   21431696.2504
                                                                        49.7504
        37.7504
   -781451.36348   -583845.39546
                  21188223.0784                                   21188218.4964
                                                                        51.0004
        36.2504
   1200093.34047    940458.85244
                  23073517.6414                                   23073511.2704
                                                                        43.5004
        28.0004
  -2561927.14847  -1955815.93446
                  22269823.3524                                   22269819.5474
                                                                        47.7504
        36.2504
 09 10 28 23 25  0.0000000  0  7G02G04G05G10G13G23G29
   -514274.43748   -379011.60247
                  20488628.7974                                   20488622.5124
                                                                        51.7504
        42.7504
   1577508.73847   1230778.08645
                  22544033.5474                                   22544029.5314
                                                                        47.2504
        33.0004
  -3904463.94947  -2990930.90246
                  22236588.1024                                   22236584.5004
                                                                        47.5004
        37.2504
  -3563644.04348  -2731877.75446
                  21399650.6884                                   21399646.7424
                                                                        49.7504
        38.0004
   -852309.13348   -639059.25046
                  21174739.0634                                   21174734.5514
                                                                        50.7504
        36.0004
   1196917.48847    937984.14544
                  23072913.8524                                   23072907.4344
                                                                        44.0004
        27.5004
  -2698717.62148  -2062405.90246
                  22243792.6804                                   22243789.1174
                                                                        48.7504
        36.0004
 09 10 28 23 25 30.0000000  0  8G02G04G05G10G13G23G29G16
   -573793.73448   -425390.24647
                  20477302.4694                                   20477296.2544
                                                                        51.7504
        42.0004
   1586531.35247   1237808.46545
                  22545750.5474                                   22545747.2424
                                                                        47.0004
        33.7504
  -4085760.33647  -3132200.92646
                  22202088.5554                                   22202085.0474
                                                                        46.5004
        38.5004
  -3731435.92648  -2862624.60246
                  21367720.8524                                   21367717.1884
                                                                        49.2504
        38.2504
   -922316.22748   -693610.22346
                  21161417.2504                                   21161412.9104
                                                                        51.0004
        36.5004
   1194327.95347    935966.31344
                  23072420.9064                                   23072415.0554
                                                                        42.5004
        27.0004
  -2834766.43048  -2168417.96545
                  22217903.4304                                   22217899.8404
                                                                        48.2504
        35.7504
   1339495.03956   1082606.76253
                  24243920.5634                                   24243915.8524
                                                                        37.2504
        19.2504
 09 10 28 23 26  0.0000000  0  8G02G04G05G10G13G23G29G16
   -632555.52348   -471178.68047
                  20466120.4384                                   20466114.1174
                                                                        51.7504
        42.5004
   1596024.73047   1245205.82045
                  22547557.3284                                   22547553.6724
                                                                        47.5004
        33.5004
  -4266551.01247  -3273076.78546
                  22167685.2274                                   22167681.4734
                                                                        47.0004
        37.2504
  -3898609.95748  -2992890.09446
                  21335908.7584                                   21335904.7304
                                                                        50.0004
        38.2504
   -991484.07048   -747507.25846
                  21148255.0704                                   21148250.2584
                                                                        51.0004
        36.2504
   1192311.43047    934394.96944
                  23072037.2974                                   23072031.1094
                                                                        43.7504
        28.2504
  -2970082.78148  -2273859.27045
                  22192153.8524                                   22192149.9844
                                                                        48.7504
        35.7504
   1181603.35246    959574.34043
                  24213875.1954                                   24213870.0314
                                                                        37.2504
        19.0004
 09 10 28 23 26 30.0000000  0  8G02G04G05G10G13G23G29G16
   -690573.57848   -516387.50447
                  20455079.8594                                   20455074.2704
                                                                        51.0004
        42.2504
   1605973.09847   1252957.79345
                  22549450.4844                                   22549447.0594
                                                                        47.0004
        33.0004
  -4446847.32847  -3413567.35546
                  22133376.0164                                   22133372.1884
                                                                        47.5004
        38.0004
  -4065177.39148  -3122682.83246
                  21304212.0164                                   21304208.4144
                                                                        50.5004
        38.2504
  -1059827.18748   -800761.64146
                  21135250.2894                                   21135245.0514
                                                                        50.5004
        36.7504
   1190851.82047    933257.63744
                  23071759.7274                                   23071753.3554
                                                                        44.0004
        28.0004
  -3104678.41448  -2378738.98446
                  22166541.2194                                   22166537.1954
                                                                        49.2504
        36.0004
   1024343.23446    837034.03543
                  24183949.0004                                   24183944.8134
                                                                        39.0004
        20.5004
 09 10 28 23 27  0.0000000  0  8G02G04G05G10G13G23G29G16
    827571.43048    666582.65647
                  20743973.5474                                   20743967.1484
                                                                        51.0004
        42.0004
   3191791.42247   2488660.06645
                  22851221.5944                                   22851218.1334
                                                                        47.7504
        31.5004
  -3051223.34048  -2326068.18746
                  22398954.8054                                   22398950.2854
                                                                        48.2504
        38.0004
  -2655712.56648  -2024398.47746
                  21572424.0084                                   21572420.0084
                                                                        51.0004
        38.5004
    448074.29348    374226.52746
                  21422193.9614                                   21422189.4884
                                                                        50.2504
        36.0004
   2765364.79347   2160150.82444
                  23371379.2664                                   23371373.1564
                                                                        45.2504
        27.0004
  -1663128.99648  -1255453.73446
                  22440858.8054                                   22440854.9454
                                                                        49.0004
        36.5004
   2443140.53946   1942590.41443
                  24453938.2034                                   24453932.7194
                                                                        41.2504
        21.0004
 09 10 28 23 27 30.0000000  0  8G02G04G05G10G13G23G29G16
    771031.71148    622525.73047
                  20733214.1414                                   20733207.8554
                                                                        50.7504
        42.2504
   3202636.22748   2497110.34045
                  22853285.2584                                   22853281.8054
                                                                        48.2504
        32.5004
  -3230531.99648  -2465789.23446
                  22364833.2734                                   22364828.7934
                                                                        48.2504
        37.7504
  -2821067.93748  -2153246.77746
                  21540958.1254                                   21540954.1604
                                                                        49.0004
        38.2504
    381371.53948    322250.34446
                  21409500.6254                                   21409496.2384
                                                                        50.2504
        36.0004
   2765004.92647   2159870.39844
                  23371311.2424                                   23371304.5394
                                                                        45.0004
        27.2504
  -1796284.99247  -1359211.64845
                  22415520.1884                                   22415516.3954
                                                                        46.7504
        35.7504
   2287144.19547   1821034.83643
                  24424252.8204                                   24424247.3874
                                                                        43.0004
        23.0004
 09 10 28 23 28  0.0000000  0  8G02G04G05G10G13G23G29G16
    715227.66448    579042.04747
                  20722594.9774                                   20722588.9344
                                                                        51.5004
        42.0004
   3213923.71548   2505905.73045
                  22855433.7194                                   22855430.0904
                                                                        48.2504
        33.0004
  -3409346.60948  -2605125.23046
                  22330805.7504                                   22330802.2074
                                                                        48.0004
        37.2504
  -2985817.03548  -2281622.65646
                  21509607.2814                                   21509603.5824
                                                                        50.2504
        38.7504
    315484.85948    270910.09846
                  21396962.7734                                   21396958.7504
                                                                        51.0004
        36.5004
   2765188.25447   2160013.20344
                  23371346.1644                                   23371339.5314
                                                                        45.0004
        26.5004
  -1928721.52747  -1462408.95346
                  22390318.4144                                   22390314.0124
                                                                        47.7504
        36.2504
   2131780.87547   1699972.50843
                  24394688.1414                                   24394683.0944
                                                                        43.0004
        23.5004
 09 10 28 23 28 30.0000000  0  8G02G04G05G10G13G23G29G16
    660153.67648    536127.24246
                  20712114.9064                                   20712108.8164
                                                                        52.7504
        41.7504
   3225646.69947   2515040.29745
                  22857664.3524                                   22857661.3404
                                                                        47.2504
        33.0004
  -3587670.44148  -2744078.86346
                  22296871.9224                                   22296867.9024
                                                                        49.2504
        38.0004
  -3149962.91048  -2409528.46146
                  21478371.4064                                   21478367.7194
                                                                        50.2504
        39.0004
    250408.19148    220201.00046
                  21384579.1884                                   21384574.7704
                                                                        50.7504
        36.7504
   2765907.43447   2160573.57444
                  23371483.0634                                   23371476.5634
                                                                        45.0004
        26.5004
  -2060441.66048  -1565048.00846
                  22365252.5084                                   22365248.8404
                                                                        48.0004
        36.0004
   1977047.57447   1579401.07843
                  24365243.4224                                   24365238.1644
                                                                        42.5004
        22.2504
 09 10 28 23 29  0.0000000  0  8G02G04G05G10G13G23G29G16
    605803.25848    493776.22747
                  20701772.2194                                   20701766.2234
                                                                        52.2504
        42.0004
   3237797.59047   2524508.24245
                  22859976.6174                                   22859973.9774
                                                                        47.2504
        32.5004
  -3765506.77048  -2882652.59446
                  22263030.5864                                   22263026.5204
                                                                        49.0004
        38.2504
  -3313509.41448  -2536967.17646
                  21447249.4694                                   21447245.2974
                                                                        50.0004
        38.7504
    186135.27048    170118.21146
                  21372348.3204                                   21372343.7704
                                                                        50.7504
        36.2504
   2767154.47747   2161545.27344
                  23371720.3834                                   23371714.0634
                                                                        44.2504
        27.0004
  -2191449.77747  -1667132.25846
                  22340322.6884                                   22340318.6644
                                                                        47.5004
        36.0004
   1822941.50446   1459318.43443
                  24335917.7194                                   24335912.9654
                                                                        41.5004
        20.2504
 09 10 28 23 29 30.0000000  0  8G02G04G05G10G13G23G29G16
    552173.12148    451986.51647
                  20691566.7664                                   20691560.7624
                                                                        52.7504
        42.0004
   3250372.59047   2534307.18845
                  22862369.3594                                   22862366.9264
                                                                        47.5004
        33.0004
  -3942856.84048  -3020847.43046
                  22229282.1414                                   22229278.0514
                                                                        50.0004
        38.0004
  -3476457.39148  -2663939.59846
                  21416241.5784                                   21416237.3594
                                                                        51.0004
        39.0004
    122661.86748    120658.41446
                  21360270.1884                                   21360265.3754
                                                                        51.5004
        36.0004
   2768923.41847   2162923.64844
                  23372056.6564                                   23372050.3794
                                                                        44.2504
        26.5004
  -2321746.98047  -1768662.53546
                  22315527.5784                                   22315524.3324
                                                                        47.7504
        36.2504
   1669461.88746   1339723.91843
                  24306709.9844                                   24306706.6804
                                                                        38.5004
        20.7504
 09 10 28 23 30  0.0000000  0  8G02G04G05G10G13G23G29G16
    499262.25448    410757.28146
                  20681497.9224                                   20681491.9654
