     2.11           OBSERVATION DATA    G (GPS)             RINEX VERSION / TYPE
teqc  2019Feb25                         20221121 12:28:33UTCPGM / RUN BY / DATE
OSX ker:10.11.6|Core i5|gcc 4.3 -m64|OSX ker:10.10+|=+      COMMENT
BIT 2 OF LLI FLAGS DATA COLLECTED UNDER A/S CONDITION       COMMENT
04712931                                                    MARKER NAME
2931                                                        MARKER NUMBER
-Unknown-           -Unknown-                               OBSERVER / AGENCY
0220400471          TRIMBLE R7          2.30                REC # / TYPE / VERS
-Unknown-           TRM39105.00     NONE                    ANT # / TYPE
  1449459.5963 -1709242.1988  5952441.3882                  APPROX POSITION XYZ
        0.0000        0.0000        0.0000                  ANTENNA: DELTA H/E/N
     1     1                                                WAVELENGTH FACT L1/2
    20    L1    L2    L5    L6    L7    L8    C1    P1    C2# / TYPES OF OBSERV
          P2    C5    C6    C7    C8    S1    S2    S5    S6# / TYPES OF OBSERV
          S7    S8                                          # / TYPES OF OBSERV
    30.0000                                                 INTERVAL
    15                                                      LEAP SECONDS
Forced Modulo Decimation to 30 seconds                      COMMENT
 SNR is mapped to RINEX snr flag value [0-9]                COMMENT
  L1 & L2: min(max(int(snr_dBHz/6), 0), 9)                  COMMENT
teqc edited: Beidou # 1 - 37 excluded                       COMMENT
  2009    10    20    23    11    0.0000000     GPS         TIME OF FIRST OBS
                                                            END OF HEADER
 09 10 20 23 11  0.0000000  0  9G02G04G05G10G13G23G29G30G31
   -245393.81658   -162499.32057
                  20658654.3134                                   20658647.8834
                                                                        51.0004
        42.5004
    -71935.69958    -47282.73056
                  21282372.8984                                   21282369.2074
                                                                        51.2504
        40.2504
   -400542.91857   -247977.03554
                  24338605.4774                                   24338601.4574
                                                                        43.7504
        27.2504
   -413687.26257   -271908.67254
                  23414166.7424                                   23414162.3834
                                                                        43.7504
        29.7504
   -283573.23458   -184109.93056
                  21606030.5704                                   21606025.8834
                                                                        50.5004
        36.2504
   -114863.40658    -74642.88355
                  22148972.4844                                   22148966.5904
                                                                        48.5004
        34.2504
   -373590.63757   -243965.40254
                  23724226.6174                                   23724222.6564
                                                                        44.2504
        28.7504
    -53171.91457    -35258.82854
                  23366538.5704                                   23366535.2384
                                                                        44.0004
        27.2504
    -66448.59056    -41139.56254
                  24396969.9534                                   24396965.4804
                                                                        41.0004
        25.2504
 09 10 20 23 11 30.0000000  0  9G02G04G05G10G13G23G29G30G31
   -366919.94948   -257195.06247
                  20635528.7894                                   20635522.6644
                                                                        51.5004
        43.0004
   -107894.32848    -75302.42646
                  21275530.2114                                   21275526.4774
                                                                        52.2504
        40.5004
   -611810.97747   -412601.52044
                  24298402.4304                                   24298397.9384
                                                                        44.0004
        27.2504
   -622350.11747   -434503.12544
                  23374459.5634                                   23374455.4304
                                                                        42.7504
        29.2504
   -423877.53148   -293437.95746
                  21579331.5864                                   21579327.0474
                                                                        50.7504
        36.0004
   -171764.84048   -118981.72345
                  22138144.7424                                   22138138.5004
                                                                        48.5004
        34.0004
   -560691.15247   -389757.98844
                  23688621.9454                                   23688619.0394
                                                                        44.0004
        29.5004
    -79994.45347    -56159.61744
                  23361434.2664                                   23361430.7544
                                                                        44.5004
        26.2504
   -101304.26647    -68299.82044
                  24390337.1484                                   24390332.4384
                                                                        42.0004
        24.7504
 09 10 20 23 12  0.0000000  0  9G02G04G05G10G13G23G29G30G31
   -487421.24648   -351092.19147
                  20612598.4694                                   20612591.6294
                                                                        52.2504
        43.2504
   -142914.37548   -102590.74246
                  21268866.2504                                   21268862.0474
                                                                        52.0004
        40.5004
   -822476.44147   -576756.40244
                  24258314.1724                                   24258309.4804
                                                                        44.0004
        27.2504
   -830317.90647   -596555.95744
                  23334884.4454                                   23334880.5634
                                                                        43.0004
        29.7504
   -563088.03148   -401913.67646
                  21552840.8134                                   21552836.0864
                                                                        51.0004
        36.2504
   -227610.92648   -162498.22345
                  22127517.6334                                   22127511.1954
                                                                        49.0004
        33.5004
   -746982.63347   -534920.17244
                  23653172.0164                                   23653169.3444
                                                                        43.7504
        29.5004
   -105837.11347    -76296.87144
                  23356516.7974                                   23356513.2194
                                                                        44.5004
        27.0004
   -135220.82047    -94728.28943
                  24383883.2274                                   24383877.7194
                                                                        43.2504
        23.0004
 09 10 20 23 12 30.0000000  0  9G02G04G05G10G13G23G29G30G31
   -606806.64548   -444119.79747
                  20589879.8444                                   20589873.3914
                                                                        52.0004
        42.7504
   -176907.43448   -129078.80546
                  21262397.2114                                   21262393.6054
                                                                        52.2504
        39.7504
  -1032447.32047   -740370.08644
                  24218357.9924                                   24218353.7934
                                                                        42.2504
        27.7504
  -1037498.69947   -757995.46944
                  23295458.5314                                   23295455.6214
                                                                        42.0004
        29.7504
   -701113.35248   -509465.86345
                  21526575.1954                                   21526570.8484
                                                                        51.0004
        35.7504
   -282313.03948   -205123.32045
                  22117108.3914                                   22117101.6294
                                                                        49.0004
        34.0004
   -932372.37547   -679379.69945
                  23617893.0864                                   23617890.1954
                                                                        43.0004
        30.0004
   -130612.24247    -95602.25444
                  23351802.1564                                   23351798.2774
                                                                        44.2504
        27.0004
   -168110.21547   -120356.30944
                  24377624.5474                                   24377619.2504
                                                                        43.0004
        24.5004
 09 10 20 23 13  0.0000000  0  9G02G04G05G10G13G23G29G30G31
   -725046.04748   -536254.41847
                  20567379.5234                                   20567373.2934
                                                                        52.2504
        42.5004
   -209846.03548   -154745.27346
                  21256128.9924                                   21256125.4964
                                                                        51.2504
        39.7504
  -1241692.53146   -903418.30544
                  24178539.7734                                   24178536.3984
                                                                        40.5004
        28.0004
  -1243860.90647   -918797.19545
                  23256189.1024                                   23256186.1094
                                                                        42.7504
        30.0004
   -837922.62548   -616070.48845
                  21500541.1094                                   21500537.1454
                                                                        51.2504
        35.7504
   -335843.11748   -246835.06245
                  22106921.5474                                   22106915.1724
                                                                        49.7504
        34.2504
  -1116828.50447   -823111.68445
                  23582792.5004                                   23582789.8484
                                                                        43.2504
        30.5004
   -154293.77347   -114055.39144
                  23347295.5474                                   23347291.9654
                                                                        45.0004
        26.5004
   -199945.40646   -145162.94944
                  24371566.5474                                   24371561.2894
                                                                        41.5004
        25.5004
 09 10 20 23 13 30.0000000  0  9G02G04G05G10G13G23G29G30G31
   -842143.73848   -627499.41447
                  20545096.5864                                   20545090.1414
                                                                        52.7504
        42.5004
   -241737.18748   -179595.53946
                  21250060.6414                                   21250056.9384
                                                                        52.0004
        40.2504
  -1450215.08246  -1065903.29344
                  24138858.6174                                   24138855.7544
                                                                        40.0004
        27.7504
  -1449407.43747  -1078963.31645
                  23217075.5864                                   23217071.8554
                                                                        43.7504
        31.0004
   -973519.91448   -721730.69945
                  21474737.9144                                   21474733.5864
                                                                        51.0004
        35.7504
   -388208.37948   -287639.18045
                  22096957.0944                                   22096950.3244
                                                                        48.5004
        33.2504
  -1300353.91847   -966118.45344
                  23547869.0234                                   23547865.9144
                                                                        44.5004
        29.7504
   -176889.69947   -131662.71544
                  23342995.8364                                   23342992.3164
                                                                        44.2504
        27.2504
   -230734.00046   -169154.05144
                  24365708.0634                                   24365702.3594
                                                                        41.2504
        24.2504
 09 10 20 23 14  0.0000000  0  9G02G04G05G10G13G23G29G30G31
   -958117.14548   -717868.35947
                  20523027.5634                                   20523021.5234
                                                                        51.5004
        43.0004
   -272600.89548   -203645.17646
                  21244187.4774                                   21244183.7624
                                                                        51.5004
        40.0004
  -1658031.72347  -1227838.27345
                  24099312.8984                                   24099309.6724
                                                                        42.5004
        30.0004
  -1654154.50847  -1238506.44145
                  23178113.5554                                   23178109.3634
                                                                        44.5004
        31.0004
  -1107921.92648   -826459.53145
                  21449162.3754                                   21449157.7274
                                                                        51.0004
        35.5004
   -439428.87548   -327551.25445
                  22087210.0084                                   22087203.8284
                                                                        50.0004
        34.2504
  -1482964.87147  -1108412.63345
                  23513119.3444                                   23513116.0944
                                                                        43.7504
        30.0004
   -198421.29347   -148440.64844
                  23338897.9774                                   23338895.3134
                                                                        43.7504
        27.5004
   -260496.81646   -192345.85944
                  24360043.4774                                   24360038.6294
                                                                        40.0004
        24.0004
 09 10 20 23 14 30.0000000  0  9G02G04G05G10G13G23G29G30G31
  -1072985.38348   -807376.08647
                  20501168.7034                                   20501162.5474
                                                                        51.7504
        43.5004
   -302458.59448   -226910.91446
                  21238505.8364                                   21238501.9734
                                                                        50.5004
        40.2504
  -1865160.34447  -1389237.10245
                  24059897.6414                                   24059893.8674
                                                                        42.0004
        31.0004
  -1858120.44947  -1397441.06245
                  23139300.1174                                   23139296.3594
                                                                        45.0004
        31.5004
  -1241147.43048   -930271.60945
                  21423810.0554                                   21423805.3834
                                                                        51.0004
        35.7504
   -489525.69148   -366587.71145
                  22077677.0784                                   22077670.3634
                                                                        48.7504
        33.5004
  -1664678.25447  -1250007.42645
                  23478540.5944                                   23478537.0744
                                                                        44.5004
        30.5004
   -218910.96947   -164406.75444
                  23334999.3754                                   23334996.4774
                                                                        44.0004
        26.7504
   -289255.85546   -214755.53144
                  24354570.5394                                   24354566.3674
                                                                        38.0004
        25.2504
 09 10 20 23 15  0.0000000  0  9G02G04G05G10G13G23G29G30G31
  -1186777.80548   -896045.53147
                  20479515.0704                                   20479508.9614
                                                                        52.0004
        42.7504
   -331342.41448   -249417.82846
                  21233009.3204                                   21233005.9924
                                                                        51.2504
        40.0004
  -2071629.24247  -1550121.89545
                  24020608.1724                                   24020603.7934
                                                                        42.5004
        30.0004
  -2061332.50447  -1555788.03944
                  23100629.7504                                   23100625.6954
                                                                        46.0004
        29.7504
  -1373224.97748  -1033189.18045
                  21398676.7274                                   21398671.9734
                                                                        51.0004
        35.5004
   -538530.69948   -404773.40245
                  22068351.6564                                   22068344.6024
                                                                        49.2504
        32.5004
  -1845521.94147  -1390924.53545
                  23444127.1094                                   23444123.2074
                                                                        44.5004
        31.0004
   -238391.85947   -179586.74644
                  23331292.4064                                   23331289.3754
                                                                        43.5004
        26.7504
   -317043.64146   -236408.39143
                  24349282.7424                                   24349278.4694
                                                                        37.0004
        22.5004
 09 10 20 23 15 30.0000000  0  9G02G04G05G10G13G23G29G30G31
  -1299516.35948   -983893.78147
                  20458061.6414                                   20458055.7894
                                                                        52.0004
        43.0004
   -359276.77348   -271184.86346
                  21227693.7194                                   21227689.7854
                                                                        50.7504
        39.5004
  -2277459.60946  -1710509.19944
                  23981439.8134                                   23981435.1094
                                                                        41.5004
        28.2504
  -2263811.87147  -1713564.23044
                  23062099.4454                                   23062095.4494
                                                                        45.7504
        29.5004
  -1504176.48448  -1135229.29346
                  21373757.6804                                   21373752.9384
                                                                        51.2504
        36.2504
   -586468.71148   -442127.66445
                  22059229.0864                                   22059222.5164
                                                                        48.7504
        33.0004
  -2025516.82847  -1531180.28145
                  23409875.2894                                   23409871.0744
                                                                        43.5004
        30.5004
   -256889.85947   -194000.77344
                  23327771.9614                                   23327769.6604
                                                                        45.0004
        26.5004
   -343885.11746   -257323.85944
                  24344175.2034                                   24344171.2154
                                                                        38.5004
        25.5004
 09 10 20 23 16  0.0000000  0  9G02G04G05G10G13G23G29G30G31
  -1411225.44548  -1070939.84047
                  20436804.1334                                   20436797.8674
                                                                        53.0004
        43.2504
   -386288.75848   -292233.16046
                  21222553.6094                                   21222549.8594
                                                                        52.0004
        40.0004
  -2482674.42246  -1870416.84444
                  23942387.9924                                   23942384.1054
                                                                        41.5004
        25.2504
  -2465581.56647  -1870787.47344
                  23023704.1334                                   23023700.0704
                                                                        46.0004
        29.5004
  -1634025.94948  -1236410.69946
                  21349048.0394                                   21349043.3914
                                                                        51.5004
        36.7504
   -633366.63748   -478671.44545
                  22050304.5784                                   22050297.8404
                                                                        49.5004
        33.0004
  -2204685.28147  -1670792.09045
                  23375780.6484                                   23375776.7154
                                                                        43.5004
        30.0004
   -274432.99647   -207670.88344
                  23324434.3054                                   23324431.4694
                                                                        43.5004
        27.7504
   -369808.18746   -277523.68044
                  24339242.2424                                   24339238.5554
                                                                        41.0004
        25.2504
 09 10 20 23 16 30.0000000  0  9G02G04G05G10G13G23G29G30G31
  -1521930.02048  -1157203.15247
                  20415737.5164                                   20415731.6954
                                                                        52.7504
        42.7504
   -412405.78148   -312584.07446
                  21217583.4304                                   21217579.9144
                                                                        51.5004
        40.0004
  -2687297.84446  -2029863.69144
                  23903449.9064                                   23903445.5124
                                                                        40.0004
        28.2504
  -2666665.10247  -2027475.88345
                  22985438.8754                                   22985435.3094
                                                                        45.0004
        31.0004
  -1762797.85548  -1336752.46546
                  21324543.6024                                   21324539.0084
                                                                        51.0004
        36.7504
   -679251.63748   -514425.97345
                  22041573.2424                                   22041566.1414
                                                                        48.7504
        32.7504
  -2383051.13747  -1809778.50444
                  23341838.1804                                   23341835.1844
                                                                        43.5004
        29.2504
   -291049.85247   -220619.25444
                  23321272.0944                                   23321269.5004
                                                                        44.0004
        27.5004
   -394840.96147   -297029.77744
                  24334479.0704                                   24334474.4964
                                                                        42.0004
        25.0004
 09 10 20 23 17  0.0000000  0  9G02G04G05G10G13G23G29G30G31
  -1631651.09448  -1242700.09847
                  20394858.3204                                   20394852.4144
                                                                        52.2504
        42.5004
   -437651.22348   -332255.84846
                  21212779.3984                                   21212775.7544
                                                                        52.0004
        39.7504
  -2891349.22747  -2188864.75444
                  23864620.7504                                   23864616.4344
                                                                        44.5004
        29.2504
  -2867081.71147  -2183644.68445
                  22947301.0634                                   22947297.4734
                                                                        46.2504
        31.7504
  -1890512.18448  -1436270.09446
                  21300239.9774                                   21300235.5864
                                                                        51.0004
        36.7504
   -724147.37948   -549409.66445
                  22033029.2894                                   22033023.3054
                                                                        49.0004
        33.5004
  -2560632.69947  -1948153.70745
                  23308045.5164                                   23308042.5594
                                                                        43.2504
        30.0004
   -306764.89847   -232864.87944
                  23318281.9304                                   23318278.8284
                                                                        43.7504
        25.5004
   -419007.15247   -315860.59844
                  24329880.4304                                   24329875.7734
                                                                        43.0004
        25.7504
 09 10 20 23 17 30.0000000  0  9G02G04G05G10G13G23G29G30G31
  -1740406.91848  -1327444.90647
                  20374162.9454                                   20374156.7814
                                                                        52.5004
        43.0004
   -462045.89148   -351264.67646
                  21208137.3284                                   21208133.5394
                                                                        51.5004
        39.2504
  -3094846.05147  -2347433.71545
                  23825896.5554                                   23825892.5554
                                                                        43.7504
        30.5004
  -3066848.70347  -2339307.24245
                  22909286.8754                                   22909282.8404
                                                                        45.0004
        32.0004
  -2017187.23448  -1534977.92646
                  21276134.5704                                   21276129.8634
                                                                        50.7504
        36.5004
   -768074.44948   -583638.55545
                  22024670.8754                                   22024664.7194
                                                                        49.0004
        33.7504
  -2737447.27347  -2085931.26645
                  23274399.2974                                   23274395.7664
                                                                        42.7504
        30.0004
   -321600.48847   -244425.21944
                  23315459.1484                                   23315455.6884
                                                                        44.2504
        26.7504
   -442328.32047   -334032.95344
                  24325442.3834                                   24325437.7344
                                                                        43.5004
        25.5004
 09 10 20 23 18  0.0000000  0  9G02G04G05G10G13G23G29G30G31
  -1848214.91848  -1411451.13747
                  20353648.0864                                   20353641.6254
                                                                        52.2504
        43.2504
   -485610.13748   -369626.41046
                  21203653.4924                                   21203649.4614
                                                                        51.7504
        39.7504
  -3297804.66847  -2505583.35545
                  23787274.6414                                   23787270.7504
                                                                        44.0004
        31.5004
  -3265981.71147  -2494475.82845
                  22871392.8364                                   22871389.3714
                                                                        43.7504
        31.0004
  -2142839.91448  -1632889.10546
                  21252223.9304                                   21252219.1414
                                                                        51.0004
        36.2504
   -811052.92248   -617128.27745
                  22016492.2894                                   22016486.1054
                                                                        49.5004
        33.5004
  -2913510.71947  -2223123.53945
                  23240896.0234                                   23240892.3164
                                                                        44.2504
        31.0004
   -335577.76647   -255316.73044
                  23312799.7274                                   23312795.8794
                                                                        43.5004
        25.5004
   -464825.59447   -351563.30144
                  24321161.2424                                   24321157.0084
                                                                        42.2504
        25.0004
 09 10 20 23 18 30.0000000  0  9G02G04G05G10G13G23G29G30G31
   -379672.59848   -267132.46547
                  20633102.2274                                   20633095.5004
                                                                        52.0004
        42.5004
   1067053.53148    840241.38346
                  21499115.3914                                   21499111.6294
                                                                        52.0004
        39.2504
  -1924817.62547  -1435723.30145
                  24048544.8054                                   24048541.1564
                                                                        45.2504
        31.0004
  -1889074.09847  -1421560.75045
                  23133409.4844                                   23133406.2424
                                                                        43.2504
        31.2504
   -692066.49248   -502416.32046
                  21528296.7504                                   21528292.1484
                                                                        51.2504
        36.2504
    722315.18448    577703.99645
                  22308282.6174                                   22308276.0594
                                                                        48.2504
        33.2504
  -1513416.25847  -1132140.91045
                  23507324.8284                                   23507321.0274
                                                                        43.7504
        31.0004
   1226699.54347    962042.15244
                  23610090.7114                                   23610087.2074
                                                                        42.5004
        26.0004
   1088898.28547    859130.61744
                  24616825.3834                                   24616820.8324
                                                                        42.7504
        25.2504
 09 10 20 23 19  0.0000000  0  9G02G04G05G10G13G23G29G30G31
   -485642.13348   -349706.14847
                  20612936.5634                                   20612930.3164
                                                                        52.5004
        42.5004
   1045086.10948    823123.88746
                  21494935.2664                                   21494931.0394
                                                                        51.5004
        39.5004
  -2126752.36747  -1593074.96544
                  24010117.9384                                   24010113.9104
                                                                        44.2504
        29.2504
  -2086992.45347  -1575782.82445
                  23095746.9614                                   23095742.8754
                                                                        43.7504
        31.0004
   -815730.04748   -598777.52346
                  21504764.3444                                   21504759.6764
                                                                        51.5004
        36.2504
    681169.46148    545642.38345
                  22300452.5234                                   22300446.2504
                                                                        48.7504
        33.2504
  -1688028.77347  -1268202.66445
                  23474096.7504                                   23474093.0664
                                                                        43.0004
        31.2504
   1214371.71947    952436.06644
                  23607744.8284                                   23607741.4574
                                                                        43.0004
        26.2504
   1067983.59447    842833.49244
                  24612845.2034                                   24612840.2584
                                                                        42.2504
        25.2504
 09 10 20 23 19 30.0000000  0  9G02G04G05G10G13G23G29G30G31
   -590716.31648   -431582.16847
                  20592941.5474                                   20592935.5984
                                                                        52.7504
        43.0004
   1023889.62948    806607.14146
                  21490901.1884                                   21490897.6724
                                                                        51.7504
        40.0004
  -2328197.09847  -1750044.82844
                  23971784.6094                                   23971780.2664
                                                                        43.5004
        28.7504
  -2284324.89547  -1729548.34445
                  23058195.5784                                   23058191.9264
                                                                        43.7504
        30.7504
   -938422.41048   -694381.94546
                  21481416.7504                                   21481412.1254
                                                                        51.0004
        36.5004
    640912.63748    514273.39145
                  22292791.9144                                   22292785.6764
                                                                        48.0004
        33.2504
  -1861937.22747  -1403715.76245
                  23441003.4384                                   23440999.5984
                                                                        44.0004
        30.0004
   1202839.16046    943449.61744
                  23605549.9774                                   23605547.2734
                                                                        41.2504
        25.7504
   1047831.66446    827130.69543
                  24609010.1804                                   24609005.4964
                                                                        41.7504
        22.7504
 09 10 20 23 20  0.0000000  0  9G02G04G05G10G13G23G29G30G31
   -694909.10248   -512771.34447
                  20573114.6094                                   20573108.5434
                                                                        52.2504
        43.2504
   1003447.11348    790677.88746
                  21487011.4064                                   21487007.7934
                                                                        51.7504
        39.5004
  -2529165.56247  -1906643.65644
                  23933541.2504                                   23933536.9964
                                                                        43.0004
        27.7504
  -2481084.41847  -1882867.44145
                  23020753.8284                                   23020749.6294
                                                                        44.7504
        30.2504
  -1060157.39548   -789240.36346
                  21458251.2974                                   21458246.5864
                                                                        51.5004
        36.5004
    601527.56648    483583.70345
                  22285297.0084                                   22285291.0234
                                                                        49.5004
        32.2504
  -2035153.90247  -1538689.80145
                  23408041.1804                                   23408037.2194
                                                                        43.5004
        30.5004
   1192083.93847    935068.90244
                  23603503.3204                                   23603500.8554
                                                                        42.0004
        25.2504
   1028424.83646    812008.50043
                  24605317.1804                                   24605312.4884
                                                                        41.2504
        22.2504
 09 10 20 23 20 30.0000000  0  9G02G04G05G10G13G23G29G30G31
   -798237.24248   -593286.80147
                  20553451.8834                                   20553445.6884
                                                                        52.0004
        43.0004
    983740.11748    775321.80546
                  21483261.4454                                   21483257.6684
                                                                        51.5004
        39.7504
  -2729672.34847  -2062882.62945
                  23895386.3984                                   23895382.1884
                                                                        43.7504
        30.2504
  -2677285.76647  -2035751.57045
                  22983418.0314                                   22983413.6134
                                                                        45.0004
        31.0004
  -1180950.55148   -883364.87946
                  21435265.1724                                   21435260.6844
                                                                        51.0004
        36.5004
    562995.75448    453558.85245
                  22277965.0944                                   22277958.5004
                                                                        49.0004
        34.0004
  -2207693.66047  -1673136.38745
                  23375208.0084                                   23375204.3634
                                                                        43.0004
        30.2504
   1182085.92647    927278.10544
                  23601601.0474                                   23601598.3954
                                                                        43.0004
        26.5004
   1009743.94946    797451.98843
                  24601761.9454                                   24601757.9574
                                                                        39.7504
        22.7504
 09 10 20 23 21  0.0000000  0  9G02G04G05G10G13G23G29G30G31
   -900712.73448   -673137.89847
                  20533951.2974                                   20533945.3914
                                                                        51.2504
        43.2504
    964753.48448    760527.02346
                  21479648.2274                                   21479644.4614
                                                                        51.0004
        39.2504
  -2929728.50047  -2218770.50845
                  23857316.8054                                   23857312.9414
                                                                        43.7504
        31.2504
  -2872939.81247  -2188209.28945
                  22946186.1564                                   22946182.2504
                                                                        44.5004
        32.0004
  -1300814.25848   -976765.19146
                  21412456.0944                                   21412451.2034
                                                                        51.0004
        36.5004
    525302.94548    424187.85545
                  22270792.1484                                   22270786.1334
                                                                        48.2504
        33.0004
  -2379566.80147  -1807063.49644
                  23342500.9614                                   23342497.6134
                                                                        43.0004
        29.7504
   1172829.60947    920065.32044
                  23599840.5314                                   23599837.3014
                                                                        42.5004
        27.0004
    991773.87546    783449.33243
                  24598342.4924                                   24598338.3284
                                                                        38.5004
        21.7504
 09 10 20 23 21 30.0000000  0  9G02G04G05G10G13G23G29G30G31
  -1002346.22348   -752332.78147
                  20514611.1564                                   20514605.1334
                                                                        52.5004
        42.7504
    946474.09448    746283.35246
                  21476169.6484                                   21476166.0394
                                                                        51.0004
        39.2504
  -3129343.59047  -2374314.68045
                  23819331.7974                                   23819327.4964
                                                                        45.0004
        32.0004
  -3068055.57847  -2340247.48845
                  22909056.7504                                   22909053.4264
                                                                        44.0004
        32.5004
  -1419758.98448  -1069449.39146
                  21389821.3444                                   21389816.6134
                                                                        51.0004
        36.5004
    488435.12548    395459.70745
                  22263776.5704                                   22263770.2704
                                                                        48.7504
        33.2504
  -2550782.53947  -1940478.34845
                  23309920.6564                                   23309916.8054
                                                                        43.5004
        31.5004
   1164300.18847    913418.98444
                  23598217.1804                                   23598214.1214
                                                                        44.0004
        26.0004
    974500.42246    769989.48043
                  24595055.5704                                   24595051.0594
                                                                        37.2504
        22.0004
 09 10 20 23 22  0.0000000  0  9G02G04G05G10G13G23G29G30G31
  -1103148.84848   -830880.29747
                  20495429.0314                                   20495422.9694
                                                                        52.0004
        43.2504
    928888.95748    732580.66046
                  21472823.5864                                   21472819.4924
                                                                        50.0004
        39.5004
  -3328527.01247  -2529522.53145
                  23781427.8284                                   23781423.9384
                                                                        43.7504
        31.7504
  -3262642.20347  -2491873.35545
                  22872027.9534                                   22872024.4024
                                                                        45.0004
        32.0004
  -1537794.83248  -1161425.35546
                  21367359.8364                                   21367355.3284
                                                                        50.5004
        36.5004
    452379.23448    367364.23845
                  22256915.0164                                   22256908.8914
                                                                        49.0004
        32.5004
  -2721349.66047  -2073387.80945
                  23277462.6804                                   23277459.0164
                                                                        44.5004
        32.0004
   1156483.27047    907327.77344
                  23596729.6884                                   23596726.9344
                                                                        43.0004
        26.2504
    957909.76246    757061.66843
                  24591897.8204                                   24591894.1294
                                                                        40.0004
        22.0004
 09 10 20 23 22 30.0000000  0  9G02G04G05G10G13G23G29G30G31
  -1203130.43748   -908787.98047
                  20476403.0864                                   20476396.8794
                                                                        52.5004
        43.0004
    911985.12948    719408.82846
                  21469606.8134                                   21469603.0594
                                                                        50.0004
        38.7504
  -3527287.66047  -2684400.90245
                  23743604.8364                                   23743601.1724
                                                                        42.5004
        30.0004
  -3456708.75047  -2643094.01645
                  22835098.4774                                   22835094.5744
                                                                        45.0004
        32.0004
  -1654931.75448  -1252700.90646
                  21345069.3284                                   21345064.6644
                                                                        50.7504
        36.7504
    417122.33248    339891.31345
                  22250206.3204                                   22250199.5784
                                                                        48.0004
        32.2504
  -2891276.91447  -2205798.65245
                  23245126.6254                                   23245123.1524
                                                                        45.5004
        33.0004
   1149365.32447    901781.28944
                  23595375.2114                                   23595372.1684
                                                                        42.0004
        26.7504
    941988.51246    744655.48844
                  24588869.0164                                   24588864.7384
                                                                        39.0004
        24.5004
 09 10 20 23 23  0.0000000  0  9G02G04G05G10G13G23G29G30G31
  -1302302.71148   -986065.07447
                  20457531.4384                                   20457525.2464
                                                                        52.2504
        43.0004
    895748.77348    706757.12546
                  21466517.0634                                   21466513.7624
                                                                        51.0004
        38.7504
  -3725635.78147  -2838957.85245
                  23705860.3984                                   23705857.0864
                                                                        43.0004
        31.0004
  -3650265.14147  -2793917.13345
                  22798265.4224                                   22798262.3364
                                                                        44.0004
        31.7504
  -1771180.89548  -1343284.64546
                  21322947.9064                                   21322943.5124
                                                                        50.5004
        36.7504
    382650.73448    313030.36745
                  22243646.2584                                   22243640.1454
                                                                        48.5004
        32.5004
  -3060573.97347  -2337718.48045
                  23212910.0554                                   23212906.8914
                                                                        45.5004
        32.5004
   1142930.86746    896767.40244
                  23594150.7344                                   23594147.9924
                                                                        41.7504
        26.5004
    926722.16447    732759.63344
                  24585963.9844                                   24585959.9804
                                                                        42.2504
        27.2504
 09 10 20 23 23 30.0000000  0  9G02G04G05G10G13G23G29G30G31
  -1400673.83248  -1062717.90647
                  20438811.8984                                   20438805.6764
                                                                        52.0004
        43.0004
    880169.12548    694617.11746
                  21463552.5704                                   21463548.7584
                                                                        51.0004
        39.0004
  -3923578.01247  -2993198.54745
                  23668193.4384                                   23668189.4304
                                                                        43.2504
        30.0004
  -3843317.46947  -2944347.44945
                  22761529.1334                                   22761525.2734
                                                                        45.5004
        32.0004
  -1886549.86748  -1433182.52746
                  21300994.0394                                   21300989.5944
                                                                        51.0004
        36.7504
    348953.87948    286773.08245
                  22237234.2194                                   22237227.8014
                                                                        48.5004
        32.0004
  -3229247.00047  -2469151.97745
                  23180813.2734                                   23180809.4384
                                                                        45.2504
        31.2504
   1137168.45746    892277.21944
                  23593053.9774                                   23593051.0864
                                                                        41.2504
        24.7504
    912099.46947    721365.30544
                  24583181.7114                                   24583177.1604
                                                                        42.7504
        27.2504
 09 10 20 23 24  0.0000000  0  9G02G04G05G10G13G23G29G30G31
  -1498258.00848  -1138757.53147
                  20420242.2584                                   20420235.9924
                                                                        52.5004
        43.2504
    865229.92648    682976.18446
                  21460709.6174                                   21460705.6024
                                                                        49.2504
        39.0004
  -4121127.01247  -3147132.76645
                  23630600.7894                                   23630596.8714
                                                                        45.0004
        30.7504
  -4035878.86747  -3094395.24245
                  22724886.0864                                   22724881.8364
                                                                        45.5004
        32.0004
  -2001052.60248  -1522405.41446
                  21279204.8134                                   21279200.0704
                                                                        50.7504
        37.0004
    316014.93848    261106.38745
                  22230966.1724                                   22230959.6174
                                                                        49.0004
        32.5004
  -3397308.23847  -2600108.75445
                  23148832.1334                                   23148828.1644
                                                                        45.0004
        30.7504
   1132059.95347    888296.55543
                  23592081.8134                                   23592078.3984
                                                                        42.0004
        22.7504
    898103.36346    710459.26644
                  24580518.0554                                   24580514.2624
                                                                        40.0004
        27.0004
 09 10 20 23 24 30.0000000  0 10G02G04G05G10G25G13G23G29G30G31
  -1595059.43748  -1214187.29347
                  20401821.5314                                   20401815.5784
                                                                        52.7504
        43.5004
    850924.40648    671829.00446
                  21457987.2504                                   21457983.8634
                                                                        50.5004
        39.0004
  -4318285.86347  -3300763.04345
                  23593083.0084                                   23593078.9384
                                                                        44.5004
        31.2504
  -4227951.28547  -3244062.03945
                  22688336.1254                                   22688331.8134
                                                                        45.5004
        32.2504
   1276819.99657   1036391.06353
                  24144181.3444                                   24144177.0784
                                                                        42.5004
        22.0004
  -2114693.19148  -1610956.51646
                  21257579.9384                                   21257575.5744
                                                                        51.2504
        36.2504
    283827.16448    236025.00445
                  22224840.9694                                   22224834.4574
                                                                        48.5004
        32.2504
  -3564760.32847  -2730590.89145
                  23116966.5004                                   23116963.2274
                                                                        45.0004
        30.7504
   1127598.25046    884819.99244
                  23591232.5164                                   23591229.0704
                                                                        41.5004
        24.0004
    884726.72747    700035.89543
                  24577972.9144                                   24577968.1644
                                                                        42.0004
        23.5004
 09 10 20 23 25  0.0000000  0  9G02G04G05G10G25G13G23G29G30
  -1691088.40648  -1289015.04347
                  20383547.7814                                   20383541.4964
                                                                        53.0004
        43.0004
    837239.78948    661165.66046
                  21455383.3054                                   21455379.4734
                                                                        50.2504
        39.5004
  -4515063.33647  -3454096.10245
                  23555637.3444                                   23555633.5354
                                                                        44.7504
        31.5004
  -4419544.27347  -3393355.25445
                  22651877.1024                                   22651872.9224
                                                                        46.2504
        32.5004
   1100418.23046    898935.05943
                  24110612.8364                                   24110609.3404
                                                                        41.5004
        22.5004
  -2227481.39548  -1698843.42646
                  21236117.0864                                   21236112.4064
                                                                        50.5004
        36.5004
    252377.60948    211518.81345
                  22218856.2194                                   22218849.8874
                                                                        48.2504
        31.7504
  -3731611.52747  -2860604.82845
                  23085215.8444                                   23085212.0084
                                                                        45.5004
        30.2504
   1123769.07047    881836.26643
                  23590503.9924                                   23590500.3204
                                                                        42.0004
        23.2504
 09 10 20 23 25 30.0000000  0  9G02G04G05G10G25G13G23G29G30
  -1786354.11348  -1363248.08247
                  20365419.4304                                   20365413.3794
                                                                        52.7504
        43.0004
    824164.66448    650977.25446
                  21452895.1024                                   21452891.8364
                                                                        51.0004
        38.2504
  -4711467.10547  -3607137.96545
                  23518263.1414                                   23518259.2344
                                                                        44.5004
        32.0004
  -4610664.73447  -3542280.28145
                  22615507.5314                                   22615503.9494
                                                                        45.5004
        32.5004
    924490.83246    761848.66443
                  24077134.6414                                   24077131.1484
                                                                        40.0004
        19.5004
  -2339426.27048  -1786073.17246
                  21214814.4844                                   21214810.2584
                                                                        50.7504
        36.2504
    221654.91048    187579.03945
                  22213009.9304                                   22213003.4964
                                                                        49.0004
        33.0004
  -3897869.31247  -2990156.40245
                  23053578.0004                                   23053574.4064
                                                                        45.0004
        30.0004
   1120559.37546    879335.18044
