     2.11           OBSERVATION DATA    G (GPS)             RINEX VERSION / TYPE
teqc  2019Feb25                         20221121 12:28:52UTCPGM / RUN BY / DATE
OSX ker:10.11.6|Core i5|gcc 4.3 -m64|OSX ker:10.10+|=+      COMMENT
BIT 2 OF LLI FLAGS DATA COLLECTED UNDER A/S CONDITION       COMMENT
04713030                                                    MARKER NAME
3030                                                        MARKER NUMBER
-Unknown-           -Unknown-                               OBSERVER / AGENCY
0220400471          TRIMBLE R7          2.30                REC # / TYPE / VERS
-Unknown-           TRM39105.00     NONE                    ANT # / TYPE
  1449458.1908 -1709244.0228  5952442.8129                  APPROX POSITION XYZ
        0.0000        0.0000        0.0000                  ANTENNA: DELTA H/E/N
     1     1                                                WAVELENGTH FACT L1/2
    20    L1    L2    L5    L6    L7    L8    C1    P1    C2# / TYPES OF OBSERV
          P2    C5    C6    C7    C8    S1    S2    S5    S6# / TYPES OF OBSERV
          S7    S8                                          # / TYPES OF OBSERV
    30.0000                                                 INTERVAL
    15                                                      LEAP SECONDS
Forced Modulo Decimation to 30 seconds                      COMMENT
 SNR is mapped to RINEX snr flag value [0-9]                COMMENT
  L1 & L2: min(max(int(snr_dBHz/6), 0), 9)                  COMMENT
teqc edited: Beidou # 1 - 37 excluded                       COMMENT
  2009    10    30     0     0    0.0000000     GPS         TIME OF FIRST OBS
                                                            END OF HEADER
 09 10 30  0  0  0.0000000  0  8G02G04G05G10G13G16G29G07
  -5073733.52748  -3929027.39846
                  21244364.2814                                   21244358.2304
                                                                        51.5004
        40.2504
    797729.07047    619562.76244
                  24144698.4694                                   24144695.9964
                                                                        42.0004
        24.7504
 -17543833.19548 -13606706.99247
                  21076192.9534                                   21076188.8554
                                                                        51.7504
        42.0004
 -15890386.70748 -12324883.85246
                  20500683.8834                                   20500679.6254
                                                                        52.0004
        41.7504
  -5896746.09848  -4565749.17645
                  21818657.5394                                   21818653.2854
                                                                        48.5004
        32.5004
 -11433776.31647  -8870296.19144
                  23537471.7814                                   23537467.4414
                                                                        42.7504
        25.7504
 -12491843.73048  -9683196.05546
                  21880532.1644                                   21880528.7894
                                                                        50.5004
        38.7504
 -12488267.21547  -9715625.41044
                  23217116.8914                                   23217112.5514
                                                                        43.5004
        29.0004
 09 10 30  0  0 30.0000000  0  8G02G04G05G10G13G16G29G07
  -5097936.31648  -3947886.87146
                  21239758.5554                                   21239752.7234
                                                                        51.7504
        40.0004
    816632.72746    634292.84043
                  24148294.8754                                   24148293.4454
                                                                        41.2504
        22.7504
 -17700613.01248 -13728873.08246
                  21046358.8444                                   21046354.8324
                                                                        52.0004
        41.7504
 -16025210.71148 -12429941.33246
                  20475027.6884                                   20475023.5164
                                                                        53.0004
        41.2504
  -5926089.57848  -4588614.25045
                  21813073.4534                                   21813068.9924
                                                                        48.5004
        32.0004
 -11556504.35246  -8965928.46944
                  23514117.8054                                   23514113.3954
                                                                        41.5004
        24.2504
 -12587598.85248  -9757810.36746
                  21862310.9304                                   21862307.5004
                                                                        49.7504
        38.7504
 -12660139.08247  -9849551.49244
                  23184410.3204                                   23184405.9694
                                                                        45.7504
        29.7504
 09 10 30  0  1  0.0000000  0  8G02G04G05G10G13G16G29G07
  -5121643.81248  -3966360.35546
                  21235247.4384                                   21235241.1994
                                                                        51.5004
        40.2504
    835680.84447    649135.54743
                  24151920.2034                                   24151917.6484
                                                                        42.5004
        22.2504
 -17856912.75848 -13850665.11747
                  21016616.1644                                   21016612.1454
                                                                        52.2504
        42.2504
 -16159462.60548 -12534553.21146
                  20449479.9144                                   20449476.5864
                                                                        52.2504
        41.2504
  -5954889.03148  -4611055.39145
                  21807593.2114                                   21807588.3324
                                                                        48.2504
        31.7504
 -11678611.77746  -9061077.06644
                  23490881.4774                                   23490876.9734
                                                                        41.0004
        25.5004
 -12682714.23448  -9831926.33646
                  21844211.3444                                   21844207.9144
                                                                        49.5004
        38.7504
 -12831548.91447  -9983117.87544
                  23151792.7274                                   23151787.7734
                                                                        45.0004
        29.5004
 09 10 30  0  1 30.0000000  0  8G02G04G05G10G13G16G29G07
  -5144860.87548  -3984451.67646
                  21230829.4304                                   21230823.3634
                                                                        51.5004
        39.7504
    854868.19147    664086.56344
                  24155572.1414                                   24155568.7664
                                                                        44.5004
        24.7504
 -18012734.23448 -13972084.46946
                  20986964.1174                                   20986960.2584
                                                                        51.5004
        41.7504
 -16293144.61348 -12638720.98047
                  20424041.0164                                   20424037.2774
                                                                        52.0004
        42.0004
  -5983149.37948  -4633076.37545
                  21802215.4144                                   21802210.8484
                                                                        48.5004
        31.7504
 -11800100.44547  -9155743.44944
                  23467762.4534                                   23467757.8284
                                                                        42.0004
        26.2504
 -12777191.94548  -9905545.25046
                  21826232.5394                                   21826229.0944
                                                                        49.7504
        39.0004
 -13002495.78947 -10116323.31244
                  23119262.1644                                   23119257.9734
                                                                        43.5004
        29.0004
 09 10 30  0  2  0.0000000  0  8G02G04G05G10G13G16G29G07
  -3592170.48448  -2774563.14146
                  21526296.7584                                   21526290.5744
                                                                        51.7504
        39.2504
   2449611.28947   1906743.58644
                  24459041.4454                                   24459038.8524
                                                                        43.2504
        25.2504
 -16592651.69548 -12865526.60247
                  21257196.8284                                   21257192.9384
                                                                        50.7504
        42.0004
 -14850832.54748 -11514841.50446
                  20698504.2894                                   20698500.5514
                                                                        51.5004
        41.7504
  -4435453.91447  -3427079.94545
                  22096732.0234                                   22096727.5204
                                                                        47.2504
        32.0004
 -10345547.28547  -8022325.33244
                  23744555.0554                                   23744550.2624
                                                                        42.2504
        27.2504
 -11295610.54748  -8751066.25046
                  22108168.2504                                   22108164.8324
                                                                        48.5004
        38.7504
 -11597554.27047  -9021564.19544
                  23386613.7344                                   23386610.3134
                                                                        42.0004
        29.5004
 09 10 30  0  2 30.0000000  0  8G02G04G05G10G13G16G29G07
  -3614417.22348  -2791898.27046
                  21522063.2034                                   21522057.0944
                                                                        50.7504
        39.5004
   2469067.18447   1921904.03144
                  24462743.4694                                   24462741.3014
                                                                        43.0004
        25.7504
 -16747515.80948 -12986199.89547
                  21227727.0864                                   21227723.0004
                                                                        51.5004
        42.0004
 -14983376.28548 -11618122.36347
                  20673282.0784                                   20673278.1254
                                                                        52.2504
        42.0004
  -4462648.80147  -3448270.88345
                  22091557.0784                                   22091552.4384
                                                                        47.7504
        31.5004
 -10465801.05147  -8116029.64144
                  23721671.2664                                   23721666.8054
                                                                        42.0004
        26.0004
 -11388818.05148  -8823695.52046
                  22090431.3444                                   22090428.1644
                                                                        48.5004
        38.7504
 -11767573.72747  -9154047.10945
                  23354260.6414                                   23354256.8594
                                                                        43.5004
        30.2504
 09 10 30  0  3  0.0000000  0  8G02G04G05G10G13G16G29G07
  -3636180.84448  -2808857.08246
                  21517922.0314                                   21517916.4804
                                                                        51.5004
        39.5004
   2488655.30547   1937167.57444
                  24466470.8524                                   24466469.0314
                                                                        43.2504
        25.0004
 -16901898.29748 -13106497.87147
                  21198349.2424                                   21198344.9184
                                                                        51.0004
        42.0004
 -15115348.00048 -11720957.37546
                  20648168.6024                                   20648164.6804
                                                                        52.2504
        41.7504
  -4489313.03548  -3469048.24245
                  22086483.0314                                   22086478.5864
                                                                        48.0004
        31.7504
 -10585434.96147  -8209250.94144
                  23698906.0164                                   23698901.2704
                                                                        43.0004
        26.5004
 -11481389.86748  -8895829.46146
                  22072815.7664                                   22072812.3484
                                                                        48.5004
        38.0004
 -11937123.89547  -9286164.04744
                  23321995.9304                                   23321992.4774
                                                                        45.2504
        29.5004
 09 10 30  0  3 30.0000000  0  8G02G04G05G10G13G16G29G07
  -3657459.09048  -2825437.49646
                  21513872.6644                                   21513866.8444
                                                                        50.7504
        39.7504
   2508376.62546   1952534.70744
                  24470223.4614                                   24470221.5944
                                                                        41.5004
        24.2504
 -17055793.78548 -13226416.37947
                  21169063.4774                                   21169059.4654
                                                                        51.5004
        42.0004
 -15246743.45348 -11823343.46147
                  20623164.7424                                   20623160.9534
                                                                        52.7504
        42.0004
  -4515445.37547  -3489410.92245
                  22081510.3444                                   22081505.8284
                                                                        47.2504
        32.5004
 -10704443.68747  -8301984.99244
                  23676259.5084                                   23676254.6524
                                                                        43.2504
        26.7504
 -11573322.14848  -8967465.12546
                  22055321.7114                                   22055318.4144
                                                                        49.5004
        39.0004
 -12106198.81647  -9417910.61345
                  23289822.6174                                   23289818.6454
                                                                        43.2504
        30.7504
 09 10 30  0  4  0.0000000  0  8G02G04G05G10G13G16G29G07
  -3678258.03548  -2841644.50846
                  21509915.1334                                   21509909.1644
                                                                        52.0004
        39.5004
   2528225.97347   1968001.55144
                  24474000.9614                                   24473999.3834
                                                                        43.2504
        24.5004
 -17209205.23848 -13345957.69146
                  21139870.3914                                   21139866.2814
                                                                        51.2504
        41.7504
 -15377565.77748 -11925282.86746
                  20598269.9304                                   20598266.5904
                                                                        53.0004
        41.2504
  -4541052.20348  -3509364.21145
                  22076637.3524                                   22076632.6604
                                                                        48.5004
        31.5004
 -10822831.00447  -8394234.79744
                  23653731.3834                                   23653726.0704
                                                                        42.5004
        26.2504
 -11664618.64548  -9038605.27346
                  22037948.3054                                   22037945.1214
                                                                        49.0004
        38.7504
 -12274800.12147  -9549288.40645
                  23257739.2344                                   23257734.8754
                                                                        46.0004
        30.7504
 09 10 30  0  4 30.0000000  0  8G02G04G05G10G13G16G29G07
  -3698579.30148  -2857479.27746
                  21506048.0234                                   21506041.8284
                                                                        51.5004
        39.2504
   2548201.24647   1983566.60244
                  24477802.2664                                   24477800.1724
                                                                        44.2504
        24.2504
 -17362131.12548 -13465120.75447
                  21110769.5944                                   21110765.4574
                                                                        51.7504
        42.0004
 -15507814.33648 -12026775.25846
                  20573484.3754                                   20573480.9264
                                                                        53.0004
        41.7504
  -4566136.77047  -3528910.68045
                  22071864.0004                                   22071859.4694
                                                                        47.7504
        30.7504
 -10940595.75847  -8485999.43044
                  23631321.0084                                   23631316.4304
                                                                        43.0004
        25.5004
 -11755279.71948  -9109250.25846
                  22020696.1564                                   22020692.9144
                                                                        49.0004
        39.0004
 -12442925.23047  -9680295.14545
                  23225745.5314                                   23225741.6484
                                                                        44.7504
        30.7504
 09 10 30  0  5  0.0000000  0  8G02G04G05G10G13G16G29G07
  -3718426.27748  -2872944.43046
                  21502271.0784                                   21502265.2584
                                                                        52.0004
        39.7504
   2568299.27747   1999227.42644
                  24481626.9614                                   24481624.7304
                                                                        43.2504
        24.5004
 -17514571.39848 -13583905.38747
                  21081761.1724                                   21081757.2114
                                                                        52.0004
        42.5004
 -15637489.01648 -12127820.28946
                  20548808.3134                                   20548804.3404
                                                                        52.7504
        41.0004
  -4590702.03147  -3548052.57045
                  22067189.3834                                   22067184.4384
                                                                        47.7504
        31.7504
 -11057738.86747  -8577279.80543
                  23609028.9614                                   23609024.2384
                                                                        42.7504
        22.7504
 -11845306.82848  -9179401.17246
                  22003564.3524                                   22003561.0164
                                                                        49.2504
        38.5004
 -12610572.81647  -9810929.65245
                  23193843.2664                                   23193839.4774
                                                                        45.2504
        30.7504
 09 10 30  0  5 30.0000000  0  8G02G04G05G10G13G16G29G07
  -3737799.96148  -2888040.80146
                  21498584.3834                                   21498578.1564
                                                                        50.5004
        40.0004
   2588518.84047   2014982.99644
                  24485474.6334                                   24485472.7304
                                                                        43.5004
        24.5004
 -17666523.27348 -13702309.36747
                  21052845.5004                                   21052841.3054
                                                                        50.0004
        42.2504
 -15766588.80948 -12228417.51246
                  20524241.3444                                   20524237.5084
                                                                        52.2504
        41.7504
  -4614749.15247  -3566790.68045
                  22062613.1414                                   22062609.0004
                                                                        47.5004
        31.0004
 -11174258.23047  -8668074.17643
                  23586856.6334                                   23586851.2114
                                                                        42.0004
        23.7504
 -11934698.77748  -9249057.11346
                  21986553.6094                                   21986550.0864
                                                                        48.2504
        38.7504
 -12777738.99247  -9941188.94545
                  23162032.6174                                   23162028.8014
                                                                        45.5004
        31.5004
 09 10 30  0  6  0.0000000  0  8G02G04G05G10G13G16G29G07
  -3756703.41048  -2902770.80946
                  21494987.1954                                   21494981.2624
                                                                        50.7504
        39.7504
   2608857.07846   2030831.10243
                  24489344.6414                                   24489342.5514
                                                                        41.2504
        22.7504
 -17817986.25048 -13820332.40247
                  21024023.2424                                   21024019.3674
                                                                        50.5004
        42.0004
 -15895113.06648 -12328566.29347
                  20499784.0944                                   20499779.9224
                                                                        53.0004
        42.5004
  -4638282.06247  -3585128.16045
                  22058135.4924                                   22058130.9304
                                                                        46.7504
        30.5004
 -11290153.49246  -8758382.16844
                  23564802.3914                                   23564796.9804
                                                                        41.7504
        25.0004
 -12023456.88348  -9318219.12946
                  21969663.5944                                   21969660.0824
                                                                        48.0004
        38.5004
 -12944422.23447 -10071071.78145
                  23130313.7504                                   23130309.7384
                                                                        45.0004
        30.2504
 09 10 30  0  6 30.0000000  0  8G02G04G05G10G13G16G29G07
  -3775133.88748  -2917132.21546
                  21491480.2974                                   21491474.0004
                                                                        50.2504
        39.2504
   2629316.34446   2046773.53943
                  24493237.8674                                   24493235.7974
                                                                        40.7504
        21.2504
 -17968954.94148 -13937970.32847
                  20995295.1024                                   20995290.6724
                                                                        51.7504
        43.0004
 -16023057.06248 -12428262.90646
                  20475437.4844                                   20475433.0704
                                                                        53.0004
        41.7504
  -4661298.48447  -3603063.17245
                  22053755.1884                                   22053751.1954
                                                                        46.7504
        31.0004
 -11405420.33647  -8848200.52044
                  23542867.9844                                   23542862.5594
                                                                        42.0004
        25.5004
 -12111577.42648  -9386884.35546
                  21952894.8984                                   21952891.0434
                                                                        49.0004
        38.7504
 -13110614.99247 -10200572.05944
                  23098687.8754                                   23098683.6684
                                                                        44.2504
        29.2504
 09 10 30  0  7  0.0000000  0  8G02G04G05G10G13G16G29G07
  -3793094.28148  -2931127.33246
                  21488062.3204                                   21488056.5084
                                                                        50.5004
        39.7504
   2649893.54346   2062807.86743
                  24497153.1484                                   24497151.0274
                                                                        40.0004
        22.0004
 -18119428.74648 -14055222.56247
                  20966660.6954                                   20966656.5904
                                                                        51.5004
        42.5004
 -16150420.02348 -12527506.71547
                  20451200.9774                                   20451196.6254
                                                                        52.5004
        42.0004
  -4683801.55147  -3620598.05945
                  22049473.0784                                   22049469.2584
                                                                        46.5004
        30.7504
 -11520058.05147  -8937528.64843
                  23521052.9454                                   23521047.6334
                                                                        42.5004
        22.7504
 -12199060.59048  -9455052.97746
                  21936247.2034                                   21936243.4184
                                                                        48.7504
        38.2504
 -13276317.19947 -10329690.48044
                  23067155.3594                                   23067151.2504
                                                                        42.0004
        29.2504
 09 10 30  0  7 30.0000000  0  8G02G04G05G10G13G16G29G07
  -3810595.32448  -2944764.51646
                  21484731.8754                                   21484725.8524
                                                                        50.7504
        39.5004
   2670577.85946   2078925.55143
                  24501089.2814                                   24501086.9304
                                                                        40.5004
        22.2504
 -18269415.18448 -14172095.09447
                  20938118.9774                                   20938115.0164
                                                                        51.7504
        42.2504
 -16277210.79348 -12626304.67246
                  20427073.2194                                   20427069.2894
                                                                        52.5004
        41.7504
  -4705802.44947  -3637741.52045
                  22045286.6954                                   22045282.6954
                                                                        47.0004
        30.7504
 -11634075.37947  -9026373.32443
                  23499355.9534                                   23499350.8134
                                                                        42.5004
        23.2504
 -12285915.95748  -9522732.41446
                  21919719.0234                                   21919714.9654
                                                                        49.5004
        38.7504
 -13441534.87947 -10458431.53945
                  23035715.2814                                   23035711.5944
                                                                        43.5004
        31.0004
 09 10 30  0  8  0.0000000  0  8G02G04G05G10G13G16G29G07
  -3827632.35248  -2958040.11346
                  21481490.0084                                   21481483.9414
                                                                        50.2504
        39.2504
   2691374.23846   2095130.61744
                  24505046.8204                                   24505044.7974
                                                                        41.0004
        25.0004
 -18418906.21948 -14288581.58647
                  20909672.0164                                   20909668.1254
                                                                        51.0004
        42.5004
 -16403421.78948 -12724650.84846
                  20403055.8524                                   20403052.3054
                                                                        53.0004
        41.7504
  -4727297.60247  -3654491.00045
                  22041196.5234                                   22041192.4064
                                                                        47.0004
        31.0004
 -11747464.78947  -9114728.69544
                  23477779.0634                                   23477773.7234
                                                                        42.7504
        25.0004
 -12372137.55148  -9589918.02046
                  21903311.4694                                   21903307.7814
                                                                        49.0004
        38.5004
 -13606258.40247 -10586787.68045
                  23004370.0554                                   23004365.9574
                                                                        43.0004
        30.5004
 09 10 30  0  8 30.0000000  0  8G02G04G05G10G13G16G29G07
  -3844208.26248  -2970956.41846
                  21478335.6804                                   21478329.3594
                                                                        50.2504
        39.0004
   2712279.86747   2111420.76244
                  24509025.9774                                   24509023.4494
                                                                        43.5004
        26.0004
 -18567900.89548 -14404681.32447
                  20881319.0084                                   20881314.9024
                                                                        52.0004
        42.2504
 -16529052.87148 -12822545.17246
                  20379149.1094                                   20379145.0904
                                                                        52.5004
        41.5004
  -4748289.51647  -3670848.12945
                  22037201.8834                                   22037197.5554
                                                                        47.5004
        31.0004
 -11860226.03547  -9202594.54344
                  23456321.1804                                   23456316.4344
                                                                        42.7504
        24.7504
 -12457725.81248  -9656610.12146
                  21887024.4694                                   21887020.7854
                                                                        49.7504
        38.5004
 -13770485.81247 -10714756.95745
                  22973118.3134                                   22973114.9024
                                                                        45.0004
        30.7504
 09 10 30  0  9  0.0000000  0  8G02G04G05G10G13G16G29G07
  -3860321.53548  -2983512.16046
                  21475269.3054                                   21475263.2814
                                                                        48.7504
        39.0004
   2733296.11747   2127797.24244
                  24513024.2894                                   24513021.8984
                                                                        43.5004
        25.5004
 -18716395.10548 -14520391.13747
                  20853061.5234                                   20853057.3794
                                                                        51.0004
        42.2504
 -16654100.59048 -12919984.93747
                  20355353.2814                                   20355348.8954
                                                                        52.0004
        42.0004
  -4768777.99647  -3686812.95745
                  22033302.7274                                   22033298.4454
                                                                        46.0004
        31.0004
 -11972355.57447  -9289968.13343
                  23434983.3834                                   23434978.4384
                                                                        43.0004
        23.5004
 -12542678.35248  -9722806.89546
                  21870858.6414                                   21870854.9384
                                                                        49.0004
        38.5004
 -13934211.94547 -10842335.54345
                  22941962.3364                                   22941958.6914
                                                                        45.5004
        31.5004
 09 10 30  0  9 30.0000000  0  8G02G04G05G10G13G16G29G07
  -3875980.37548  -2995713.87946
                  21472289.3054                                   21472283.4964
                                                                        49.7504
        39.0004
   2754414.45747   2144253.12543
                  24517042.8754                                   24517040.7734
                                                                        42.5004
        22.5004
 -18864393.50048 -14635714.63747
                  20824898.5084                                   20824894.5514
                                                                        52.0004
        43.0004
 -16778569.84848 -13016973.97747
                  20331667.5084                                   20331663.5474
                                                                        53.0004
        42.0004
  -4788772.16047  -3702392.89145
                  22029498.0394                                   22029493.6174
                                                                        46.2504
        31.0004
 -12083858.68747  -9376853.61744
                  23413765.5394                                   23413759.7974
                                                                        43.0004
        24.0004
 -12627001.12548  -9788512.91446
                  21854812.5234                                   21854808.7704
                                                                        49.7504
        38.0004
 -14097440.11347 -10969526.11345
                  22910901.0314                                   22910897.0044
                                                                        43.7504
        31.5004
 09 10 30  0 10  0.0000000  0  7G02G05G10G13G16G29G07
  -2315764.82848  -1779961.48846
                  21769188.9064                                   21769183.2154
                                                                        50.0004
        39.5004
 -17436468.45348 -13523045.87147
                  21096623.8594                                   21096619.8284
                                                                        51.0004
        42.7504
 -15327034.44548 -11885907.42246
                  20607885.7424                                   20607881.7664
                                                                        53.2504
        41.7504
  -3232851.98847  -2489987.60245
                  22325579.4384                                   22325574.9574
                                                                        45.5004
        30.2504
 -10619309.85947  -8235646.69944
                  23692459.4454                                   23692453.9184
                                                                        43.2504
        24.2504
 -11135270.50448  -8626125.39546
                  22138679.1724                                   22138675.8204
                                                                        50.0004
        38.5004
 -12684741.32447  -9868721.80545
                  23179729.1254                                   23179724.8674
                                                                        45.2504
        31.5004
 09 10 30  0 10 30.0000000  0  7G02G05G10G13G16G29G07
  -2330517.46148  -1791457.03146
                  21766381.3594                                   21766375.3634
                                                                        50.5004
        39.0004
 -17583467.90248 -13637591.18447
                  21068650.7274                                   21068646.7504
                                                                        52.2504
        42.0004
 -15450341.40648 -11981990.85947
                  20584421.1724                                   20584417.3794
                                                                        53.0004
        42.0004
  -3251860.62547  -2504799.52045
                  22321962.3914                                   22321957.7774
                                                                        46.7504
        30.5004
 -10729555.22347  -8321552.14544
                  23671480.2274                                   23671475.3794
                                                                        42.5004
        24.0004
 -11218331.52048  -8690848.29346
                  22122873.5004                                   22122869.4144
                                                                        50.0004
        39.2504
 -12846963.19147  -9995128.28545
                  23148858.8054                                   23148854.6174
                                                                        45.0004
        32.5004
 09 10 30  0 11  0.0000000  0  7G02G05G10G13G16G29G07
  -2344812.91048  -1802596.33246
                  21763661.1024                                   21763655.1214
                                                                        50.7504
        39.0004
 -17729958.28948 -13751739.53947
                  21040774.4454                                   21040770.8164
                                                                        52.5004
        42.7504
 -15573059.00048 -12077614.97747
                  20561068.9304                                   20561065.0434
                                                                        53.0004
        42.0004
  -3270372.68747  -2519224.46544
                  22318439.7894                                   22318435.2704
                                                                        46.7504
        29.5004
 -10839163.64147  -8406961.27744
                  23650622.5084                                   23650617.3954
                                                                        42.7504
        25.5004
 -11300755.77748  -8755075.00046
                  22107188.6334                                   22107184.9184
                                                                        49.7504
        38.5004
 -13008671.54747 -10121134.82045
                  23118086.9384                                   23118082.3014
                                                                        45.5004
        31.0004
 09 10 30  0 11 30.0000000  0  7G02G05G10G13G16G29G07
  -2358650.29348  -1813378.69146
                  21761027.8674                                   21761021.8324
                                                                        50.0004
        39.2504
 -17875935.42248 -13865487.82047
                  21012996.1174                                   21012992.0164
                                                                        52.5004
        42.5004
 -15695183.76648 -12172777.16046
                  20537829.0004                                   20537825.3404
                                                                        53.2504
        41.5004
  -3288388.20347  -2533262.47345
                  22315011.4224                                   22315006.9694
                                                                        46.0004
        30.2504
 -10948132.10247  -8491871.90244
                  23629886.4144                                   23629881.7234
                                                                        43.0004
        24.5004
 -11382540.03148  -8818803.04746
                  22091625.6254                                   22091622.3244
                                                                        50.0004
        38.5004
 -13169860.69947 -10246736.75044
                  23087413.0314                                   23087409.0314
                                                                        44.7504
        29.5004
 09 10 30  0 12  0.0000000  0  7G02G05G10G13G16G29G07
  -2372027.96548  -1823802.81246
                  21758482.1804                                   21758476.0084
                                                                        51.0004
        38.5004
 -18021395.32448 -13978833.24247
                  20985315.8284                                   20985311.6174
                                                                        52.2504
        43.0004
 -15816711.65248 -12267474.39146
                  20514703.1174                                   20514699.6954
                                                                        52.5004
        41.7504
  -3305906.06647  -2546912.78545
                  22311677.6644                                   22311673.4924
                                                                        46.0004
        30.0004
 -11056455.83647  -8576280.06643
                  23609273.5164                                   23609267.9694
                                                                        42.2504
        22.7504
 -11463681.56248  -8882030.26646
                  22076184.9454                                   22076181.3094
                                                                        50.2504
        38.7504
 -13330524.88347 -10371929.78945
                  23056840.0314                                   23056835.5594
                                                                        45.0004
        30.5004
 09 10 30  0 12 30.0000000  0  7G02G05G10G13G16G29G07
  -2384953.09048  -1833874.37546
                  21756022.7114                                   21756016.6884
                                                                        50.0004
        38.5004
 -18166341.33648 -14091778.19547
                  20957733.5634                                   20957729.4264
                                                                        52.2504
        42.5004
 -15937646.71948 -12361709.59446
                  20491690.0944                                   20491686.4924
                                                                        53.2504
        41.5004
  -3322933.33647  -2560180.67645
                  22308437.5864                                   22308433.1844
                                                                        45.0004
        30.5004
 -11164139.77346  -8660189.70744
                  23588781.4454                                   23588776.9924
                                                                        41.5004
        24.5004
 -11544185.80948  -8944760.91446
                  22060865.5004                                   22060861.8244
                                                                        49.5004
        39.0004
 -13490666.76247 -10496716.03145
                  23026366.2114                                   23026361.8754
                                                                        45.0004
        30.0004
 09 10 30  0 13  0.0000000  0  7G02G05G10G13G16G29G07
  -2397435.02048  -1843600.54746
                  21753647.4454                                   21753641.4774
                                                                        50.0004
        38.5004
 -18310779.09848 -14204326.92247
                  20930247.8834                                   20930244.1454
                                                                        52.5004
        42.5004
 -16057995.52348 -12455487.75446
                  20468788.4694                                   20468784.7584
                                                                        52.5004
        41.5004
  -3339480.07447  -2573073.93045
                  22305289.0084                                   22305284.0044
                                                                        44.2504
        30.5004
 -11271190.53547  -8743605.90644
                  23568411.4454                                   23568405.8324
                                                                        42.7504
        24.2504
 -11624060.63748  -9007001.13746
                  22045666.0944                                   22045662.1764
                                                                        49.5004
        38.7504
 -13650290.25447 -10621097.85245
                  22995990.7584                                   22995986.3524
                                                                        44.5004
        30.5004
 09 10 30  0 13 30.0000000  0  7G02G05G10G13G16G29G07
  -2409478.76648  -1852985.33246
                  21751355.4064                                   21751349.3054
                                                                        49.5004
        38.0004
 -18454710.61748 -14316481.19147
                  20902858.4844                                   20902854.2234
                                                                        52.0004
        42.7504
 -16177761.18048 -12548811.77746
                  20445998.2194                                   20445994.2934
                                                                        52.7504
        41.5004
  -3355552.11747  -2585597.37145
                  22302230.1254                                   22302225.6884
                                                                        44.2504
        31.2504
 -11377610.43746  -8826530.51644
                  23548160.0164                                   23548154.7114
                                                                        41.5004
        25.5004
 -11703309.05548  -9068753.18746
                  22030585.2974                                   22030581.9104
                                                                        49.5004
        38.7504
 -13809397.30147 -10745077.59445
                  22965713.9694                                   22965709.4144
                                                                        44.5004
        30.7504
 09 10 30  0 14  0.0000000  0  7G02G05G10G13G16G29G07
  -2421086.31648  -1862030.27346
                  21749146.8134                                   21749140.4734
                                                                        49.5004
        39.0004
 -18598134.34448 -14428239.90247
                  20875565.9304                                   20875561.9654
                                                                        52.5004
        42.5004
 -16296942.04748 -12641680.12946
                  20423318.8284                                   20423314.7274
                                                                        52.5004
        41.7504
  -3371152.41047  -2597753.45345
                  22299261.4304                                   22299257.2774
                                                                        45.0004
        30.5004
 -11483399.43447  -8908963.59044
                  23528029.4144                                   23528024.1914
                                                                        42.2504
        25.7504
 -11781931.76648  -9130017.68746
                  22015624.0864                                   22015620.3094
                                                                        50.0004
        38.5004
 -13967984.31247 -10868651.81645
                  22935535.5474                                   22935531.4694
                                                                        45.2504
        30.7504
 09 10 30  0 14 30.0000000  0  7G02G05G10G13G16G29G07
  -2432263.39548  -1870739.82446
                  21747019.8364                                   21747014.4104
                                                                        48.5004
        39.0004
 -18741052.75048 -14539604.78947
                  20848369.3284                                   20848365.2194
                                                                        52.5004
        43.0004
 -16415541.31648 -12734095.16046
                  20400750.0004                                   20400746.1884
                                                                        52.5004
        41.7504
  -3386286.60947  -2609546.42645
                  22296381.5634                                   22296377.5234
                                                                        43.7504
        31.0004
 -11588560.21547  -8990907.06244
                  23508017.6484                                   23508012.4454
                                                                        43.0004
        25.7504
 -11859932.74248  -9190797.68046
                  22000781.0474                                   22000777.6564
                                                                        49.2504
        38.0004
 -14126053.81247 -10991823.02045
                  22905456.3524                                   22905452.1604
                                                                        45.0004
        32.0004
 09 10 30  0 15  0.0000000  0  7G02G05G10G13G16G29G07
  -2443008.61348  -1879112.73846
                  21744975.2504                                   21744969.1214
                                                                        49.7504
        38.0004
 -18883462.23448 -14650573.14147
                  20821269.7344                                   20821265.4024
                                                                        52.7504
        42.7504
 -16533555.30148 -12826053.98846
                  20378292.4694                                   20378288.8594
                                                                        52.5004
        41.5004
  -3400953.84047  -2620975.34045
                  22293590.5554                                   22293586.1134
                                                                        45.2504
        30.0004
 -11693090.14147  -9072359.02744
                  23488126.5164                                   23488121.1254
                                                                        42.7504
        25.5004
 -11937310.34048  -9251092.00846
                  21986056.9064                                   21986052.5164
                                                                        50.2504
        38.0004
 -14283599.22347 -11114585.58245
                  22875476.0944                                   22875472.0864
                                                                        46.0004
        30.5004
 09 10 30  0 15 30.0000000  0  7G02G05G10G13G16G29G07
  -2453325.53148  -1887152.13346
                  21743012.1954                                   21743006.5204
                                                                        49.5004
        39.0004
 -19025361.51648 -14761144.09047
                  20794267.3054                                   20794263.0864
                                                                        53.0004
        42.2504
 -16650984.58248 -12917557.19546
                  20355946.6174                                   20355942.6414
                                                                        52.5004
        41.7504
  -3415158.16047  -2632043.64845
                  22290887.5084                                   22290882.7464
                                                                        44.7504
        30.0004
 -11796989.14147  -9153319.34044
                  23468355.5784                                   23468349.7074
                                                                        43.2504
        26.0004
 -12014064.79348  -9310900.71146
                  21971450.9614                                   21971447.2854
                                                                        50.0004
        39.0004
 -14440620.59447 -11236940.14845
                  22845596.1094                                   22845592.1254
                                                                        46.2504
        32.2504
 09 10 30  0 16  0.0000000  0  7G02G05G10G13G16G29G07
  -2463213.85248  -1894857.41446
                  21741130.5474                                   21741124.9144
                                                                        49.2504
        37.5004
 -19166748.18748 -14871315.58247
                  20767362.1804                                   20767358.0164
                                                                        52.7504
        42.7504
 -16767826.66848 -13008602.73846
                  20333711.7814                                   20333708.0664
                                                                        52.5004
        41.5004
  -3428899.60947  -2642751.19945
                  22288272.2504                                   22288267.9804
                                                                        44.5004
        30.0004
 -11900255.20346  -9233786.57444
                  23448704.6954                                   23448699.0274
                                                                        41.7504
        25.5004
 -12090195.71948  -9370223.63746
                  21956963.8754                                   21956960.1214
                                                                        49.5004
        39.0004
 -14597112.08247 -11358881.56245
                  22815816.9844                                   22815813.3524
                                                                        45.2504
        31.7504
 09 10 30  0 16 30.0000000  0  7G02G05G10G13G16G29G07
  -2472684.45348  -1902237.06246
                  21739328.2194                                   21739322.5784
                                                                        49.0004
        38.0004
 -19307629.53548 -14981093.22347
                  20740553.2504                                   20740548.8874
                                                                        53.0004
        43.0004
 -16884090.53548 -13099197.90246
                  20311587.8204                                   20311583.7774
                                                                        52.7504
        41.5004
  -3442190.21147  -2653107.45344
                  22285743.2734                                   22285738.2384
                                                                        43.5004
        29.5004
 -12002896.62947  -9313767.09044
                  23429172.6644                                   23429167.4614
                                                                        42.0004
        25.5004
 -12165712.40248  -9429067.90646
                  21942593.4924                                   21942589.7544
                                                                        49.5004
        38.5004
 -14753081.08647 -11480415.86345
                  22786136.7974                                   22786133.2114
                                                                        46.2504
        31.7504
 09 10 30  0 17  0.0000000  0  7G02G05G10G13G16G29G07
  -2481735.35248  -1909289.67646
                  21737605.6804                                   21737599.6914
                                                                        49.0004
        37.7504
 -19448000.09848 -15090472.84447
                  20713841.7114                                   20713837.4494
                                                                        52.2504
        43.0004
 -16999770.60948 -13189337.98846
                  20289574.2114                                   20289570.4734
                                                                        52.7504
        41.7504
  -3455027.90247  -2663110.85544
                  22283299.8674                                   22283295.5904
                                                                        44.7504
        29.0004
 -12104908.84047  -9393257.21144
                  23409760.4844                                   23409754.9304
                                                                        43.0004
        25.5004
 -12240611.35948  -9487430.88746
                  21928340.6254                                   21928337.2974
                                                                        49.0004
        38.2504
 -14908521.29347 -11601538.18045
                  22756557.3444                                   22756554.2154
                                                                        46.0004
        31.2504
 09 10 30  0 17 30.0000000  0  7G02G05G10G13G16G29G07
  -2490369.14848  -1916017.48846
                  21735963.0784                                   21735957.4654
                                                                        49.0004
        37.7504
 -19587858.55948 -15199453.44147
                  20687227.3984                                   20687223.1844
                                                                        52.5004
        43.5004
 -17114867.24248 -13279023.75846
                  20267672.3594                                   20267668.4884
                                                                        53.0004
        41.0004
  -3467415.42647  -2672763.45744
                  22280943.1484                                   22280938.2934
                                                                        44.5004
        29.5004
 -12206291.83247  -9472257.12544
