     2.11           OBSERVATION DATA    G (GPS)             RINEX VERSION / TYPE
teqc  2019Feb25                         20221121 12:28:51UTCPGM / RUN BY / DATE
OSX ker:10.11.6|Core i5|gcc 4.3 -m64|OSX ker:10.10+|=+      COMMENT
BIT 2 OF LLI FLAGS DATA COLLECTED UNDER A/S CONDITION       COMMENT
04713021                                                    MARKER NAME
3021                                                        MARKER NUMBER
-Unknown-           -Unknown-                               OBSERVER / AGENCY
0220400471          TRIMBLE R7          2.30                REC # / TYPE / VERS
-Unknown-           TRM39105.00     NONE                    ANT # / TYPE
  1449458.0983 -1709244.0820  5952441.0680                  APPROX POSITION XYZ
        0.0000        0.0000        0.0000                  ANTENNA: DELTA H/E/N
     1     1                                                WAVELENGTH FACT L1/2
    20    L1    L2    L5    L6    L7    L8    C1    P1    C2# / TYPES OF OBSERV
          P2    C5    C6    C7    C8    S1    S2    S5    S6# / TYPES OF OBSERV
          S7    S8                                          # / TYPES OF OBSERV
    30.0000                                                 INTERVAL
    15                                                      LEAP SECONDS
Forced Modulo Decimation to 30 seconds                      COMMENT
 SNR is mapped to RINEX snr flag value [0-9]                COMMENT
  L1 & L2: min(max(int(snr_dBHz/6), 0), 9)                  COMMENT
teqc edited: Beidou # 1 - 37 excluded                       COMMENT
  2009    10    29    23    11   30.0000000     GPS         TIME OF FIRST OBS
                                                            END OF HEADER
 09 10 29 23 11 30.0000000  0  7G02G04G05G10G13G23G29
   -112138.95758    -62849.85257
                  20389769.6954                                   20389763.2934
                                                                        53.2504
        43.0004
      1000.48457      -494.12156
                  22194327.0784                                   22194323.4304
                                                                        47.5004
        36.5004
   -289277.73058   -161599.14556
                  22560871.6414                                   22560867.4184
                                                                        48.7504
        37.0004
   -271871.98058   -154612.84856
                  21674033.9064                                   21674030.4964
                                                                        48.7504
        38.0004
   -131099.98058    -73037.44156
                  21117068.7734                                   21117063.6684
                                                                        50.0004
        37.0004
    -20319.97757    -12198.43755
                  22761939.1884                                   22761932.1724
                                                                        46.7504
        30.0004
   -227204.18457   -126334.96955
                  22415662.3984                                   22415658.8134
                                                                        47.7504
        34.7504
 09 10 29 23 12  0.0000000  0  7G02G04G05G10G13G23G29
   -188716.25048   -122520.40247
                  20375197.7194                                   20375191.0554
                                                                        53.5004
        43.0004
     -1779.32048     -2660.20746
                  22193798.2424                                   22193794.4804
                                                                        48.5004
        36.0004
   -482312.16448   -312015.50846
                  22524138.5234                                   22524133.9264
                                                                        48.0004
        36.7504
   -453354.01248   -296027.34046
                  21639498.8834                                   21639495.1484
                                                                        48.0004
        38.0004
   -219634.51648   -142025.40646
                  21100220.8834                                   21100216.3164
                                                                        49.2504
        36.7504
    -36869.48047    -25094.23445
                  22758789.7894                                   22758783.8324
                                                                        46.5004
        30.5004
   -379271.57447   -244829.04346
                  22386724.8524                                   22386721.2624
                                                                        46.0004
        36.0004
 09 10 29 23 12 30.0000000  0  7G02G04G05G10G13G23G29
   -265542.80948   -182385.19947
                  20360578.1334                                   20360571.9614
                                                                        52.7504
        42.7504
     -5066.43048     -5221.66845
                  22193172.8914                                   22193169.3634
                                                                        49.5004
        35.5004
   -675893.20348   -462857.82846
                  22487301.0084                                   22487296.7384
                                                                        48.2504
        36.7504
   -635269.94548   -437779.96146
                  21604881.6094                                   21604878.2074
                                                                        48.7504
        37.7504
   -308334.04748   -211141.92646
                  21083342.1174                                   21083337.1214
                                                                        50.5004
        37.2504
    -53813.89147    -38297.54344
                  22755565.2274                                   22755558.6994
                                                                        46.0004
        29.2504
   -531656.44148   -363570.60945
                  22357726.6804                                   22357723.7384
                                                                        48.0004
        35.5004
 09 10 29 23 13  0.0000000  0  7G02G04G05G10G13G23G29
   1233147.71948    985425.58647
                  20645769.2504                                   20645762.8954
                                                                        52.0004
        42.7504
   1566901.96148   1219688.71945
                  22492308.6804                                   22492304.9024
                                                                        48.0004
        35.2504
    705751.44548    613748.31646
                  22750219.3914                                   22750215.2074
                                                                        48.0004
        37.5004
    758152.77748    648004.00846
                  21870040.8754                                   21870037.3204
                                                                        49.0004
        38.5004
   1178568.33248    947483.26646
                  21366290.2734                                   21366285.3444
                                                                        50.5004
        36.5004
   1504608.52047   1176057.64144
                  23052123.0634                                   23052116.1684
                                                                        45.7504
        28.0004
    891412.69947    745314.48845
                  22628527.7974                                   22628524.1294
                                                                        47.5004
        35.5004
 09 10 29 23 13 30.0000000  0  7G02G04G05G10G13G23G29
   1156657.98048    925823.20347
                  20631213.9304                                   20631207.5664
                                                                        53.2504
        43.0004
   1563431.34048   1216984.20345
                  22491648.2814                                   22491644.6134
                                                                        48.0004
        34.5004
    511918.60547    462709.56346
                  22713334.2034                                   22713330.1294
                                                                        47.7504
        36.5004
    576212.30148    506232.28946
                  21835418.9924                                   21835415.0354
                                                                        49.5004
        38.0004
   1090374.58648    878760.87946
                  21349507.6484                                   21349502.7464
                                                                        50.5004
        36.5004
   1487702.04747   1162883.74644
                  23048905.5234                                   23048898.7304
                                                                        45.7504
        27.5004
    739235.56347    626734.93445
                  22599569.6954                                   22599566.1954
                                                                        47.0004
        35.7504
 09 10 29 23 14  0.0000000  0  7G02G04G05G10G13G23G29
   1080510.68448    866487.50447
                  20616723.5634                                   20616717.2074
                                                                        52.5004
        42.5004
   1560041.07047   1214342.50445
                  22491002.6564                                   22490999.1024
                                                                        47.2504
        34.2504
    318138.10547    311711.54346
                  22676459.0944                                   22676454.9304
                                                                        47.7504
        36.7504
    394437.53148    364589.74646
                  21800828.0554                                   21800823.8554
                                                                        49.7504
        38.0004
   1002607.79348    810371.15246
                  21332806.0864                                   21332801.3714
                                                                        51.0004
        36.7504
   1470985.74247   1149857.90644
                  23045725.3444                                   23045718.3134
                                                                        45.0004
        27.5004
    587340.43047    508375.23846
                  22570664.4224                                   22570660.7234
                                                                        47.5004
        36.0004
 09 10 29 23 14 30.0000000  0  7G02G04G05G10G13G23G29
   1004757.34048    807458.85547
                  20602308.1334                                   20602301.9304
                                                                        52.0004
        42.5004
   1556780.14847   1211801.57445
                  22490382.1024                                   22490378.8484
                                                                        47.7504
        34.5004
    124463.59447    160796.23446
                  22639604.2194                                   22639600.3714
                                                                        47.0004
        37.2504
    212881.72348    223117.82446
                  21766279.0474                                   21766274.8834
                                                                        49.7504
        38.0004
    915319.02748    742353.89546
                  21316195.2344                                   21316190.4384
                                                                        51.7504
        37.5004
   1454508.58247   1137018.34044
                  23042589.8204                                   23042582.9884
                                                                        45.0004
        28.5004
    435780.00447    390276.30946
                  22541823.6024                                   22541819.7114
                                                                        47.5004
        36.0004
 09 10 29 23 15  0.0000000  0  7G02G04G05G10G13G23G29
    929441.04348    748770.77747
                  20587976.0944                                   20587969.5204
                                                                        51.2504
        43.2504
   1553690.23447   1209393.90245
                  22489794.4224                                   22489790.5234
                                                                        47.0004
        34.5004
    -69059.58247      9998.94946
                  22602777.9534                                   22602773.6524
                                                                        46.2504
        37.2504
     31590.40648     81851.93446
                  21731780.6094                                   21731776.8484
                                                                        50.0004
        38.2504
    828551.67248    674742.94146
                  21299684.2034                                   21299679.6374
                                                                        51.7504
        36.5004
   1438312.18447   1124397.66044
                  23039507.6024                                   23039501.2274
                                                                        44.7504
        28.7504
    284599.89848    272473.61746
                  22513055.2664                                   22513051.4734
                                                                        48.0004
        36.5004
 09 10 29 23 15 30.0000000  0  7G02G04G05G10G13G23G29
    854588.48048    690444.05547
                  20573732.0234                                   20573725.8284
                                                                        52.0004
        43.2504
   1550796.02347   1207138.75445
                  22489243.8364                                   22489239.6764
                                                                        47.2504
        34.5004
   -262402.57848   -140657.87546
                  22565986.0704                                   22565982.0554
                                                                        49.0004
        38.0004
   -149407.78148    -59185.74246
                  21697337.7424                                   21697333.2034
                                                                        50.2504
        38.5004
    742331.41448    607558.32846
                  21283276.8594                                   21283272.4654
                                                                        51.5004
        36.7504
   1422420.19947   1112014.10244
                  23036483.7504                                   23036477.4734
                                                                        45.0004
        28.2504
    133828.86347    154989.76246
                  22484364.3054                                   22484360.7234
                                                                        47.5004
        36.5004
 09 10 29 23 16  0.0000000  0  7G02G04G05G10G13G23G29
    780225.95748    632499.28547
                  20559581.2034                                   20559575.0164
                                                                        52.7504
        43.2504
   1548121.90647   1205055.02745
                  22488734.6094                                   22488731.0984
                                                                        47.0004
        34.2504
   -455536.74648   -291151.94146
                  22529233.6024                                   22529229.9104
                                                                        49.2504
        38.0004
   -330083.90648   -199972.50446
                  21662956.0864                                   21662952.3134
                                                                        50.5004
        38.7504
    656684.37148    540820.32446
                  21266979.0314                                   21266974.1214
                                                                        51.7504
        36.7504
   1406857.35947   1099887.09844
                  23033522.8444                                   23033516.0234
                                                                        45.0004
        29.7504
    -16504.33647     37847.10246
                  22455756.7194                                   22455753.2664
                                                                        47.2504
        36.0004
 09 10 29 23 16 30.0000000  0  7G02G04G05G10G13G23G29
    706371.50048    574950.35947
                  20545527.1414                                   20545520.6994
                                                                        53.0004
        42.7504
   1545685.18447   1203156.30145
                  22488270.6804                                   22488267.4774
                                                                        46.7504
        34.5004
   -648441.45348   -441467.27746
                  22492525.1644                                   22492521.4184
                                                                        49.0004
        37.7504
   -510417.10948   -340492.06246
                  21628640.2194                                   21628636.2854
                                                                        49.7504
        38.7504
    571629.56348    474543.82046
                  21250793.7114                                   21250789.1884
                                                                        51.0004
        36.7504
   1391640.53547   1088029.87544
                  23030626.6954                                   23030620.3984
                                                                        44.2504
        28.5004
   -166379.25447    -78938.39846
                  22427236.1724                                   22427232.6294
                                                                        47.7504
        36.0004
 09 10 29 23 17  0.0000000  0  7G02G04G05G10G13G23G29
    633043.07848    517811.34847
                  20531573.4694                                   20531567.2504
                                                                        52.7504
        43.0004
   1543501.46147   1201454.67645
                  22487855.2584                                   22487852.0634
                                                                        47.7504
        34.5004
   -841096.22748   -591587.81646
                  22455863.8754                                   22455859.9384
                                                                        48.2504
        37.5004
   -690387.25448   -480728.68446
                  21594392.8834                                   21594388.9454
                                                                        49.7504
        38.2504
    487183.94948    408742.02346
                  21234724.2504                                   21234719.4694
                                                                        50.5004
        37.2504
   1376784.70747   1076453.97744
                  23027799.4694                                   23027793.1334
                                                                        43.5004
        28.5004
   -315775.89847   -195351.28546
                  22398806.7734                                   22398803.3204
                                                                        47.0004
        36.2504
 09 10 29 23 17 30.0000000  0  7G02G04G05G10G13G23G29
    560252.00448    461091.03147
                  20517721.5474                                   20517715.6294
                                                                        52.2504
        43.0004
   1541580.40248   1199957.70345
                  22487489.9774                                   22487485.9534
                                                                        48.0004
        34.7504
  -1033487.68048   -741503.19946
                  22419253.0164                                   22419249.1484
                                                                        50.0004
        36.7504
   -869980.71148   -620671.71146
                  21560217.8134                                   21560214.1054
                                                                        50.0004
        38.5004
    403358.69548    343423.60946
                  21218772.7034                                   21218768.0634
                                                                        50.7504
        37.2504
   1362298.87147   1065166.25044
                  23025042.7424                                   23025036.7074
                                                                        42.5004
        28.5004
   -464680.71947   -311381.06245
                  22370471.2894                                   22370467.9414
                                                                        47.5004
        35.5004
 09 10 29 23 18  0.0000000  0  7G02G04G05G10G13G23G29
    488012.63748    404800.80947
                  20503974.4614                                   20503968.2274
                                                                        52.5004
        42.5004
   1539934.87947   1198675.44145
                  22487176.9224                                   22487172.7814
                                                                        47.5004
        33.7504
  -1225599.35548   -891200.60246
                  22382696.0704                                   22382691.6414
                                                                        49.5004
        37.7504
  -1049180.21548   -760307.62546
                  21526116.9774                                   21526113.2344
                                                                        49.5004
        38.7504
    320167.97748    278599.64846
                  21202942.0084                                   21202937.2774
                                                                        51.0004
        37.0004
   1348195.75047   1054176.88344
                  23022358.8524                                   23022352.8714
                                                                        43.7504
        27.7504
   -613077.07047   -427014.58246
                  22342232.1884                                   22342228.9574
                                                                        47.5004
        36.5004
 09 10 29 23 18 30.0000000  0  7G02G04G05G10G13G23G29
    416341.77348    348953.50047
                  20490336.0864                                   20490330.0984
                                                                        53.0004
        42.5004
   1538580.80547   1197620.31645
                  22486919.2504                                   22486915.3914
                                                                        46.7504
        34.0004
  -1417411.32848  -1040664.43446
                  22346194.8594                                   22346190.6484
                                                                        49.0004
        37.5004
  -1227966.82848   -899621.80546
                  21492095.0704                                   21492090.9224
                                                                        49.7504
        38.5004
    237628.84048    214283.39846
                  21187235.4144                                   21187230.8834
                                                                        51.0004
        37.0004
   1334489.74647   1043496.72744
                  23019750.9454                                   23019744.6054
                                                                        43.5004
        26.5004
   -760945.70347   -542236.86346
                  22314094.0474                                   22314090.6414
                                                                        47.5004
        36.5004
 09 10 29 23 19  0.0000000  0  7G02G04G05G10G13G23G29
    345241.57848    293550.57047
                  20476806.1254                                   20476800.3794
                                                                        51.7504
        42.7504
   1537518.50047   1196792.51645
                  22486716.6804                                   22486713.4654
                                                                        46.7504
        33.5004
  -1608918.36748  -1189890.68446
                  22309752.3834                                   22309748.2034
                                                                        49.0004
        37.5004
  -1406335.27048  -1038610.12146
                  21458152.6094                                   21458148.8794
                                                                        49.2504
        39.0004
    155743.14548    150476.33646
                  21171652.9774                                   21171648.7734
                                                                        51.0004
        37.0004
   1321181.93447   1033127.01244
                  23017218.8364                                   23017211.9734
                                                                        43.0004
        27.5004
   -908281.01247   -657043.61346
                  22286056.7894                                   22286053.2344
                                                                        46.2504
        37.0004
 09 10 29 23 19 30.0000000  0  7G02G04G05G10G13G23G29
    274715.76648    238595.35947
                  20463385.6414                                   20463379.1254
                                                                        52.5004
        42.5004
   1536749.82047   1196193.55545
                  22486570.5314                                   22486566.7854
                                                                        47.5004
        33.0004
  -1800115.59848  -1338875.52046
                  22273368.6414                                   22273364.4774
                                                                        48.7504
        38.0004
  -1584280.24648  -1177268.52346
                  21424290.4694                                   21424286.5904
                                                                        50.5004
        38.0004
     74514.33648     87181.19146
                  21156195.7504                                   21156191.3324
                                                                        51.0004
        36.7504
   1308273.55147   1023068.60944
                  23014762.5704                                   23014756.1174
                                                                        43.5004
        27.5004
  -1055078.98848   -771431.65646
                  22258122.3524                                   22258118.9804
                                                                        48.5004
        36.7504
 09 10 29 23 20  0.0000000  0  7G02G04G05G10G13G23G29
    204768.97748    184091.29747
                  20450075.3754                                   20450069.0394
                                                                        52.0004
        42.7504
   1536277.94147   1195825.83245
                  22486481.0084                                   22486477.1374
                                                                        47.5004
        33.0004
  -1990995.25848  -1487612.96146
                  22237045.6254                                   22237041.3524
                                                                        48.5004
        38.0004
  -1761794.31248  -1315591.15646
                  21390510.7894                                   21390506.6914
                                                                        50.0004
        38.2504
     -6053.27348     24401.23846
                  21140864.2344                                   21140859.8714
                                                                        51.0004
        36.5004
   1295767.35547   1013323.63344
                  23012382.6484                                   23012376.0084
                                                                        43.5004
        28.0004
  -1201331.85248   -885394.92646
                  22230291.5784                                   22230287.5554
                                                                        48.5004
        37.2504
 09 10 29 23 20 30.0000000  0  7G02G04G05G10G13G23G29
    135408.06348    130043.77747
                  20436876.4844                                   20436870.3054
                                                                        51.2504
        42.7504
   1536108.16847   1195693.52345
                  22486448.6804                                   22486445.0664
                                                                        47.7504
        33.2504
  -2181547.46548  -1636095.17246
                  22200784.5864                                   22200780.4884
                                                                        48.0004
        37.7504
  -1938868.30548  -1453570.87946
                  21356814.8754                                   21356810.7854
                                                                        50.2504
        39.0004
    -85953.12148    -37858.35946
                  21125659.8444                                   21125655.1844
                                                                        51.0004
        36.7504
   1283667.71947   1003895.22344
                  23010079.7584                                   23010074.2814
                                                                        44.0004
        27.5004
  -1347030.09848   -998925.98046
                  22202565.6954                                   22202562.1844
                                                                        48.0004
        37.5004
 09 10 29 23 21  0.0000000  0  7G02G04G05G10G13G23G29
   1642061.01248   1304058.99647
                  20723583.0234                                   20723576.8674
                                                                        52.5004
        42.7504
   3111665.05548   2423400.19145
                  22786267.4384                                   22786263.3014
                                                                        48.0004
        33.0004
   -796338.48848   -556711.53146
                  22464381.2814                                   22464376.9414
                                                                        48.5004
        38.2504
   -540067.88348   -363596.50846
                  21622997.4534                                   21622993.6564
                                                                        50.0004
        39.0004
   1410243.06348   1128008.79746
                  21410376.3594                                   21410372.1804
                                                                        51.5004
        36.7504
   2847398.96547   2222387.02044
                  23307648.0314                                   23307642.0164
                                                                        44.2504
        28.0004
     83259.01248    115585.13346
                  22474740.5474                                   22474737.1024
                                                                        48.5004
        36.0004
 09 10 29 23 21 30.0000000  0  8G02G04G05G10G13G16G23G29
   1573888.31348   1250937.39847
                  20710610.1804                                   20710603.9064
                                                                        51.7504
        42.7504
   3112111.78147   2423748.28945
                  22786352.0944                                   22786348.7504
                                                                        47.7504
        34.0004
   -986213.35247   -704665.96146
                  22428249.0784                                   22428245.2424
                                                                        47.7504
        38.2504
   -716237.71548   -500871.75846
                  21589473.5164                                   21589470.1954
                                                                        50.0004
        38.5004
   1331694.65648   1066802.27046
                  21395429.0704                                   21395424.1644
                                                                        51.0004
        36.7504
   2939059.03556   2329313.94153
                  24473777.8364                                   24473773.1914
                                                                        38.5004
        18.5004
   2836123.68847   2213600.94944
                  23305502.2974                                   23305496.1724
                                                                        43.0004
        26.7504
    -61307.44948      2935.93446
                  22447230.6094                                   22447226.7304
                                                                        49.0004
        36.0004
 09 10 29 23 22  0.0000000  0  8G02G04G05G10G13G16G23G29
   1506307.82848   1198277.26647
                  20697750.0864                                   20697744.0944
                                                                        52.0004
        42.7504
   3112862.46948   2424333.17245
                  22786495.1804                                   22786491.3954
                                                                        48.0004
        34.0004
  -1175747.12148   -852354.59046
                  22392181.8134                                   22392177.6214
                                                                        48.7504
        38.0004
   -891953.64548   -637793.31646
                  21556036.0394                                   21556032.3834
                                                                        50.7504
        38.5004
   1253819.82448   1006120.62146
                  21380610.1024                                   21380605.3014
                                                                        51.0004
        36.7504
   2772417.43846   2199463.14143
                  24442067.3364                                   24442063.3754
                                                                        38.5004
        19.2504
   2825255.98847   2205132.56644
                  23303434.9064                                   23303428.4964
                                                                        44.5004
        27.5004
   -205306.64548   -109271.23046
                  22419828.3524                                   22419824.7504
                                                                        49.0004
        36.0004
 09 10 29 23 22 30.0000000  0  8G02G04G05G10G13G16G23G29
   1439312.77048   1146073.32847
                  20685001.2194                                   20684995.2074
                                                                        51.5004
        42.7504
   3113909.10548   2425148.64845
                  22786694.4534                                   22786690.3634
                                                                        48.0004
        33.0004
  -1364943.83648   -999780.52746
                  22356179.0394                                   22356174.9454
                                                                        49.0004
        38.2504
  -1067219.40648   -774364.02046
                  21522684.0394                                   21522680.3324
                                                                        50.7504
        38.7504
   1176611.27748    945958.12546
                  21365917.9454                                   21365913.1484
                                                                        50.2504
        36.0004
   2606250.40246   2069982.25443
                  24410447.2194                                   24410442.6804
                                                                        40.2504
        20.5004
   2814787.19147   2196975.09044
                  23301442.6484                                   23301436.0234
                                                                        45.0004
        28.0004
   -348742.68048   -221039.56646
                  22392533.3834                                   22392529.8524
                                                                        48.5004
        36.5004
 09 10 29 23 23  0.0000000  0  8G02G04G05G10G13G16G23G29
   1372906.96548   1094328.53947
                  20672364.7194                                   20672358.4384
                                                                        51.2504
        42.5004
   3115254.17247   2426196.71545
                  22786950.2504                                   22786946.2234
                                                                        47.7504
        33.0004
  -1553797.17248  -1146938.91446
                  22320241.3674                                   22320236.8714
                                                                        48.7504
        38.5004
  -1242028.43748   -910578.86746
                  21489419.1254                                   21489415.0084
                                                                        50.0004
        38.7504
   1100072.80548    886317.73846
                  21351352.7734                                   21351348.1484
                                                                        50.7504
        36.0004
   2440564.82046   1940876.65643
                  24378919.1804                                   24378914.1764
                                                                        41.5004
        22.5004
   2804719.06647   2189129.84444
                  23299526.9924                                   23299520.4024
                                                                        44.7504
        27.2504
   -491608.89847   -332363.78546
                  22365346.7424                                   22365343.2274
                                                                        47.5004
        36.0004
 09 10 29 23 23 30.0000000  0  8G02G04G05G10G13G16G23G29
   1307097.21148   1043048.25847
                  20659841.5314                                   20659835.3874
                                                                        52.2504
        42.5004
   3116902.75048   2427481.24245
                  22787263.5234                                   22787260.5354
                                                                        48.0004
        33.0004
  -1742298.74648  -1293823.34046
                  22284370.9454                                   22284366.1214
                                                                        49.2504
        38.5004
  -1416372.26648  -1046431.19146
                  21456242.2114                                   21456238.5354
                                                                        50.7504
        39.2504
   1024210.74648    827204.41046
                  21336916.6254                                   21336912.2234
                                                                        50.2504
        36.5004
   2275369.26247   1812152.68443
                  24347483.2424                                   24347478.4574
                                                                        42.5004
        22.5004
   2795056.06347   2181600.20344
                  23297687.8754                                   23297681.5784
                                                                        44.5004
        26.7504
   -633897.53548   -443238.04746
                  22338270.1174                                   22338266.5004
                                                                        49.2504
        36.7504
 09 10 29 23 24  0.0000000  0  8G02G04G05G10G13G16G23G29
   1241893.35948    992240.08247
                  20647433.4384                                   20647427.3794
                                                                        52.5004
        42.0004
   3118863.73448   2429009.29745
                  22787637.1254                                   22787633.4924
                                                                        48.0004
        33.0004
  -1930435.18048  -1440423.15246
                  22248569.1724                                   22248565.1134
                                                                        48.7504
        38.2504
  -1590237.96148  -1181910.91046
                  21423156.9614                                   21423152.9264
                                                                        50.0004
        39.2504
    949034.77048    768625.71146
                  21322611.3204                                   21322606.9224
                                                                        50.5004
        37.0004
   2110678.50047   1683822.52743
                  24316142.9224                                   24316138.6604
                                                                        42.5004
        22.2504
   2785806.39847   2174392.73044
                  23295927.5944                                   23295920.7624
                                                                        44.7504
        26.7504
   -775595.62548   -553652.06246
                  22311305.9924                                   22311302.5314
                                                                        48.0004
        36.0004
 09 10 29 23 24 30.0000000  0  8G02G04G05G10G13G16G23G29
   1177289.02348    941899.01647
                  20635139.6414                                   20635133.4614
                                                                        52.2504
        42.5004
   3121129.46548   2430774.84045
                  22788068.2504                                   22788064.8594
                                                                        48.7504
        33.0004
  -2118209.73048  -1586741.03546
                  22212837.0864                                   22212832.9844
                                                                        49.5004
        38.2504
  -1763629.07448  -1317020.81246
                  21390161.8364                                   21390157.8364
                                                                        50.7504
        39.0004
    874538.37148    710576.54746
                  21308435.2424                                   21308430.9734
                                                                        51.0004
        36.0004
   1946487.96947   1555881.93843
                  24284898.0164                                   24284894.1174
                                                                        42.0004
        22.5004
   2776962.82447   2167501.69944
                  23294244.9144                                   23294237.9184
                                                                        44.2504
        26.5004
   -916706.85947   -663608.79346
                  22284453.4454                                   22284449.6334
                                                                        47.7504
        36.7504
 09 10 29 23 25  0.0000000  0  8G02G04G05G10G13G16G23G29
   1113290.32848    892029.84847
                  20622961.4144                                   20622955.0314
                                                                        52.7504
        42.5004
   3123704.10548   2432781.02345
                  22788557.9924                                   22788554.7034
                                                                        48.2504
        33.2504
  -2305614.35948  -1732770.74246
                  22177175.1564                                   22177171.6334
                                                                        50.0004
        38.7504
  -1936537.41048  -1451754.57046
                  21357257.9694                                   21357254.4734
                                                                        50.7504
        39.5004
    800727.31348    653061.43446
                  21294389.6254                                   21294384.6294
                                                                        51.0004
        36.2504
   1782806.54346   1428337.90643
                  24253750.4224                                   24253747.0434
                                                                        41.5004
        22.0004
   2768528.86347   2160929.67644
                  23292639.7814                                   23292633.8674
                                                                        43.7504
        26.0004
  -1057223.34448   -773102.05146
                  22257713.6644                                   22257710.1724
                                                                        48.5004
        37.0004
 09 10 29 23 25 30.0000000  0  8G02G04G05G10G13G16G23G29
   1049902.92248    842637.00847
                  20610899.2034                                   20610893.2854
                                                                        52.5004
        42.5004
   3126592.18448   2435031.46945
                  22789108.0474                                   22789104.2974
                                                                        49.0004
        33.0004
  -2492640.11348  -1878505.00846
                  22141585.4534                                   22141581.6684
                                                                        50.5004
        39.5004
  -2108954.68048  -1586105.67246
                  21324448.2974                                   21324444.8794
                                                                        50.0004
        39.0004
    727606.98848    596084.45346
                  21280475.3204                                   21280470.5354
                                                                        51.0004
        36.2504
   1619643.75046   1301197.97343
                  24222701.6334                                   24222697.4884
                                                                        40.5004
        21.2504
   2760507.83647   2154679.46144
                  23291113.5944                                   23291107.1094
                                                                        44.5004
        25.5004
  -1197137.16448   -882125.73046
                  22231088.6884                                   22231085.7424
                                                                        48.0004
        37.2504
 09 10 29 23 26  0.0000000  0  8G02G04G05G10G13G16G23G29
    987125.67648    793719.68047
                  20598953.0084                                   20598946.7424
                                                                        52.0004
        42.0004
   3129791.50848   2437524.48445
                  22789716.6174                                   22789712.9494
                                                                        48.5004
        33.0004
  -2679286.24248  -2023943.48446
                  22106067.8754                                   22106063.8594
                                                                        49.7504
        39.2504
  -2280879.61348  -1720073.21146
                  21291732.0554                                   21291728.1454
                                                                        49.2504
        39.0004
    655176.24248    539644.87545
                  21266692.0704                                   21266687.4694
                                                                        51.0004
        35.5004
   1457001.29346   1174463.54743
                  24191751.6334                                   24191747.9804
                                                                        39.2504
        19.7504
   2752897.00847   2148748.78144
                  23289665.5944                                   23289659.1764
                                                                        45.0004
        28.0004
  -1336447.32047   -990678.97746
                  22204578.7894                                   22204575.2274
                                                                        46.5004
        36.5004
 09 10 29 23 26 30.0000000  0  8G02G04G05G10G13G16G23G29
    924958.40648    745277.59847
                  20587122.9614                                   20587116.9494
                                                                        52.5004
        42.2504
   3133300.08647   2440258.36345
                  22790383.9144                                   22790380.4024
                                                                        47.7504
        32.5004
  -2865549.81248  -2169083.82846
                  22070623.1024                                   22070619.0004
                                                                        50.7504
        39.5004
  -2452309.25848  -1853654.74246
                  21259110.2664                                   21259106.2854
                                                                        50.5004
        39.2504
    583434.27348    483742.03946
                  21253039.8524                                   21253035.6174
                                                                        50.2504
        36.2504
   1294881.96946   1048136.67243
                  24160901.6644                                   24160897.1954
                                                                        40.5004
        19.7504
   2745694.80547   2143136.62944
                  23288295.0704                                   23288289.0594
                                                                        45.2504
        28.5004
  -1475151.35547  -1098759.90246
                  22178184.3914                                   22178180.7934
                                                                        47.5004
        36.7504
 09 10 29 23 27  0.0000000  0  9G02G04G05G10G13G16G23G29G07
    863403.35548    697312.61347
                  20575409.5554                                   20575403.3984
                                                                        52.7504
        42.7504
   3137119.16047   2443234.24645
                  22791111.2034                                   22791107.4144
                                                                        47.7504
        31.7504
  -3051425.57848  -2313921.95746
                  22035251.9454                                   22035248.0394
                                                                        50.0004
        38.5004
  -2623238.65648  -1986846.41046
                  21226583.3134                                   21226579.4064
                                                                        51.2504
        39.2504
    512382.76648    428377.18846
                  21239519.3204                                   21239514.6454
                                                                        51.0004
        36.0004
   1133291.74246    922222.04343
                  24130152.8444                                   24130147.5864
                                                                        40.0004
        19.7504
   2738901.71147   2137843.18444
                  23287002.1884                                   23286996.1884
                                                                        45.5004
        26.0004
  -1613244.23848  -1206364.61346
                  22151906.0474                                   22151902.1994
                                                                        48.7504
        37.5004
   2903581.34456   2278021.16453
                  24347334.3054                                   24347330.5164
                                                                        39.5004
        22.5004
 09 10 29 23 27 30.0000000  0  9G02G04G05G10G13G16G23G29G07
    802455.30548    649820.75847
                  20563811.5474                                   20563805.3164
                                                                        53.5004
        42.5004
   3141242.27747   2446447.01645
                  22791895.4774                                   22791892.2624
                                                                        47.5004
        32.5004
  -3236916.37148  -2458460.09846
                  21999954.0634                                   21999949.7304
                                                                        50.5004
        39.0004
  -2793670.89548  -2119650.71546
                  21194151.1174                                   21194147.1724
                                                                        50.0004
        39.5004
    442016.69948    373546.49246
                  21226128.9224                                   21226124.7384
                                                                        50.7504
        36.2504
    972228.16046    796717.84843
                  24099503.6954                                   24099498.2424
                                                                        39.7504
        20.0004
   2732510.03147   2132862.42644
                  23285786.7344                                   23285780.2664
                                                                        44.2504
        27.0004
  -1750729.70348  -1313496.12546
                  22125743.5394                                   22125739.2854
                                                                        48.7504
        37.0004
   2706707.46146   2124613.12143
                  24309870.3914                                   24309866.3634
                                                                        40.0004
        21.7504
 09 10 29 23 28  0.0000000  0  9G02G04G05G10G13G16G23G29G07
    742101.48848    602791.93847
                  20552326.0164                                   20552320.3014
                                                                        52.2504
        42.2504
   3145655.30547   2449885.73845
                  22792735.3284                                   22792731.8634
                                                                        47.2504
        33.0004
  -3422032.72748  -2602706.54346
                  21964727.7034                                   21964723.5784
                                                                        50.5004
        39.2504
  -2963616.03548  -2252075.38746
                  21161811.5314                                   21161808.1884
                                                                        51.0004
        40.5004
    372322.86348    319239.62946
                  21212866.9694                                   21212862.7114
                                                                        50.2504
        36.2504
    811681.77746    671616.85543
                  24068952.3674                                   24068947.2464
                                                                        41.2504
        19.7504
   2726506.17647   2128184.07444
                  23284643.1174                                   23284637.4774
                                                                        44.0004
        24.5004
  -1887618.25448  -1420162.49246
                  22099694.2344                                   22099690.6094
                                                                        48.5004
        37.2504
   2510114.48046   1971423.68443
                  24272459.9844                                   24272456.2584
                                                                        39.7504
        22.7504
 09 10 29 23 28 30.0000000  0  9G02G04G05G10G13G16G23G29G07
    682341.76648    556226.06347
                  20540954.3204                                   20540948.3524
                                                                        53.0004
        42.7504
   3150357.26647   2453549.61745
                  22793629.9774                                   22793626.6134
                                                                        47.7504
        32.5004
  -3606771.46148  -2746658.84046
                  21929572.8134                                   21929568.9884
                                                                        50.0004
        39.5004
  -3133071.32848  -2384118.35946
                  21129565.2664                                   21129560.9884
                                                                        51.0004
        40.5004
    303300.83648    265456.24246
                  21199732.5634                                   21199728.3204
                                                                        50.5004
        36.0004
    651654.92247    546920.55943
                  24038500.4924                                   24038495.4534
                                                                        42.0004
        20.2504
   2720888.11747   2123806.39144
                  23283574.5474                                   23283568.2464
                                                                        42.7504
        25.7504
  -2023907.08648  -1526361.40646
                  22073759.2424                                   22073755.3524
                                                                        48.2504
        38.0004
   2313807.33446   1818457.08843
                  24235103.6484                                   24235100.6644
                                                                        39.5004
        22.5004
 09 10 29 23 29  0.0000000  0  9G02G04G05G10G13G16G23G29G07
   2198600.71948   1737726.45347
                  20829489.0394                                   20829482.4844
                                                                        52.7504
        42.0004
   4730769.38747   3685039.55945
                  23094372.9384                                   23094369.0944
                                                                        47.5004
        31.5004
  -2215700.20348  -1662707.24646
                  22194285.1564                                   22194281.0044
                                                                        49.5004
        39.5004
  -1726605.70748  -1288171.03546
                  21397206.7814                                   21397203.1764
                                                                        50.5004
        39.5004
   1810375.50448   1439800.15246
                  21486519.1724                                   21486514.4804
                                                                        50.5004
        36.0004
   2067579.82447   1650238.78543
