     2.11           OBSERVATION DATA    G (GPS)             RINEX VERSION / TYPE
teqc  2019Feb25                         20221121 12:28:44UTCPGM / RUN BY / DATE
OSX ker:10.11.6|Core i5|gcc 4.3 -m64|OSX ker:10.10+|=+      COMMENT
BIT 2 OF LLI FLAGS DATA COLLECTED UNDER A/S CONDITION       COMMENT
04712981                                                    MARKER NAME
2981                                                        MARKER NUMBER
-Unknown-           -Unknown-                               OBSERVER / AGENCY
0220400471          TRIMBLE R7          2.30                REC # / TYPE / VERS
-Unknown-           TRM39105.00     NONE                    ANT # / TYPE
  1449458.9683 -1709242.3341  5952441.9010                  APPROX POSITION XYZ
        0.0000        0.0000        0.0000                  ANTENNA: DELTA H/E/N
     1     1                                                WAVELENGTH FACT L1/2
    20    L1    L2    L5    L6    L7    L8    C1    P1    C2# / TYPES OF OBSERV
          P2    C5    C6    C7    C8    S1    S2    S5    S6# / TYPES OF OBSERV
          S7    S8                                          # / TYPES OF OBSERV
    30.0000                                                 INTERVAL
    15                                                      LEAP SECONDS
Forced Modulo Decimation to 30 seconds                      COMMENT
 SNR is mapped to RINEX snr flag value [0-9]                COMMENT
  L1 & L2: min(max(int(snr_dBHz/6), 0), 9)                  COMMENT
teqc edited: Beidou # 1 - 37 excluded                       COMMENT
  2009    10    25    23    11    0.0000000     GPS         TIME OF FIRST OBS
                                                            END OF HEADER
 09 10 25 23 11  0.0000000  0  9G02G04G05G10G13G23G25G29G30
   -123045.32858    -70653.94557
                  20432732.2274                                   20432726.4454
                                                                        52.0004
        43.2504
    -22065.45358    -12584.27356
                  21722924.8594                                   21722922.0744
                                                                        51.0004
        38.7504
   -255738.56657   -139236.05955
                  23331555.4534                                   23331551.7734
                                                                        45.5004
        32.7504
   -246803.22358   -134366.79355
                  22409208.3204                                   22409204.5744
                                                                        48.2504
        34.7504
   -142134.00458    -78623.23856
                  21245965.4614                                   21245961.2464
                                                                        49.5004
        37.0004
    -43409.25057    -24289.53955
                  22414988.0554                                   22414981.9344
                                                                        47.0004
        31.7504
   -224971.18057   -124639.30153
                  23953520.3284                                   23953517.1524
                                                                        42.5004
        22.5004
   -213257.37157   -116917.89855
                  22943532.6254                                   22943529.0004
                                                                        43.2504
        33.0004
    -10007.48857     -6132.52054
                  23863713.9384                                   23863711.2854
                                                                        43.0004
        25.5004
 09 10 25 23 11 30.0000000  0  9G02G04G05G10G13G23G25G29G30
   -223861.30548   -149211.85247
                  20413547.5634                                   20413541.8164
                                                                        53.0004
        43.0004
    -42132.08248    -28220.62146
                  21719106.1644                                   21719103.2234
                                                                        50.7504
        38.0004
   -462143.42647   -300071.03545
                  23292277.7114                                   23292274.0864
                                                                        46.0004
        33.5004
   -445965.03547   -289557.80145
                  22371308.6484                                   22371305.6684
                                                                        47.7504
        34.5004
   -258141.52748   -169018.71946
                  21223889.8054                                   21223885.6644
                                                                        50.2504
        36.7504
    -80510.76647    -53199.81245
                  22407927.6724                                   22407921.5554
                                                                        47.2504
        30.7504
   -409627.19547   -268526.96543
                  23918381.5314                                   23918378.4804
                                                                        42.5004
        23.7504
   -386483.42247   -251899.21945
                  22910568.3834                                   22910565.0554
                                                                        44.5004
        33.2504
    -20617.02047    -14399.69943
                  23861693.8444                                   23861692.0314
                                                                        42.5004
        23.7504
 09 10 25 23 12  0.0000000  0  9G02G04G05G10G13G23G25G29G30
   -324455.89848   -227597.25847
                  20394405.1884                                   20394399.7704
                                                                        52.5004
        43.0004
    -62165.24248    -43830.88746
                  21715294.0164                                   21715290.7234
                                                                        50.5004
        38.0004
   -668692.74247   -461018.56245
                  23252972.6024                                   23252969.1294
                                                                        44.7504
        32.2504
   -645165.57048   -444779.02345
                  22333402.2734                                   22333399.1994
                                                                        48.2504
        34.7504
   -373843.80148   -259176.34046
                  21201872.1254                                   21201867.9774
                                                                        50.2504
        37.0004
   -117460.24647    -81991.62145
                  22400896.4534                                   22400890.3914
                                                                        47.0004
        31.7504
   -594317.48047   -412441.36744
                  23883236.3444                                   23883232.7704
                                                                        42.0004
        24.5004
   -559629.19147   -386817.98845
                  22877620.2034                                   22877616.9964
                                                                        45.5004
        34.0004
    -31197.86347    -22644.52743
                  23859680.6484                                   23859678.3164
                                                                        43.0004
        22.7504
 09 10 25 23 12 30.0000000  0  9G02G04G05G10G13G23G25G29G30
   -424466.10248   -305527.28947
                  20375373.7734                                   20375368.2734
                                                                        52.2504
        43.5004
    -81804.32848    -59134.07846
                  21711557.0394                                   21711553.7664
                                                                        50.7504
        37.5004
   -875021.52347   -621794.21145
                  23213709.5704                                   23213705.9844
                                                                        45.0004
        32.2504
   -844039.85947   -599746.00445
                  22295557.8524                                   22295554.7234
                                                                        47.5004
        34.7504
   -488877.85248   -348813.28146
                  21179982.0634                                   21179977.6414
                                                                        50.2504
        37.0004
   -153897.23447   -110384.08645
                  22393962.5704                                   22393956.4774
                                                                        47.0004
        31.7504
   -778676.79746   -556097.87144
                  23848153.6724                                   23848150.2384
                                                                        41.7504
        24.5004
   -732329.53547   -521389.65245
                  22844756.1804                                   22844752.8134
                                                                        45.0004
        34.0004
    -41390.49247    -30586.90244
                  23857740.8914                                   23857738.8594
                                                                        43.0004
        25.2504
 09 10 25 23 13  0.0000000  0  9G02G04G05G10G13G23G25G29G30
   -523761.73048   -382900.52047
                  20356478.4774                                   20356473.0084
                                                                        52.7504
        43.5004
   -100921.37948    -74030.49246
                  21707918.9384                                   21707915.8554
                                                                        49.5004
        37.5004
  -1080998.65247   -782295.87945
                  23174513.9064                                   23174510.2814
                                                                        46.0004
        33.7504
  -1042455.66848   -754355.71945
                  22257800.7344                                   22257797.5434
                                                                        48.5004
        34.7504
   -603113.34448   -437827.95746
                  21158243.9064                                   21158239.8794
                                                                        49.7504
        37.0004
   -189693.84047   -138277.55545
                  22387150.3054                                   22387144.5784
                                                                        46.0004
        31.2504
   -962572.46546   -699393.11344
                  23813159.1724                                   23813155.9574
                                                                        40.7504
        24.7504
   -904452.51247   -655511.43745
                  22812002.2734                                   22811999.1684
                                                                        45.0004
        34.0004
    -51067.99247    -38127.87544
                  23855900.3984                                   23855897.4774
                                                                        43.0004
        25.2504
 09 10 25 23 13 30.0000000  0  9G02G04G05G10G13G23G25G29G30
   -622278.89848   -459667.15247
                  20337731.2344                                   20337725.6024
                                                                        52.5004
        43.5004
   -119454.80548    -88472.13346
                  21704392.3134                                   21704389.0234
                                                                        50.2504
        37.2504
  -1286558.20747   -942472.14845
                  23135396.8364                                   23135393.2854
                                                                        45.5004
        34.5004
  -1240347.53947   -908557.18045
                  22220142.7974                                   22220139.6524
                                                                        47.7504
        34.7504
   -716486.43448   -526170.63346
                  21136669.8444                                   21136665.2854
                                                                        49.7504
        37.0004
   -224788.73048   -165624.23445
                  22380473.0084                                   22380466.4574
                                                                        48.0004
        31.7504
  -1145938.00046   -842275.23443
                  23778265.2664                                   23778262.1134
                                                                        41.5004
        22.5004
  -1075932.21947   -789131.98045
                  22779371.0474                                   22779367.2734
                                                                        44.0004
        32.5004
    -60170.23447    -45220.57444
                  23854167.8984                                   23854164.8244
                                                                        44.5004
        27.0004
 09 10 25 23 14  0.0000000  0  9G02G04G05G10G13G23G25G29G30
   -719980.62548   -535798.37547
                  20319139.1954                                   20319133.6844
                                                                        52.5004
        43.5004
   -137369.60248   -102431.73046
                  21700983.3284                                   21700980.2154
                                                                        50.2504
        38.0004
  -1491661.01647  -1102292.46545
                  23096367.4384                                   23096364.0084
                                                                        47.2504
        34.2504
  -1437676.05948  -1062319.65245
                  22182592.9304                                   22182589.0664
                                                                        48.5004
        34.7504
   -828959.84048   -613812.26246
                  21115266.3984                                   21115262.4804
                                                                        50.5004
        37.5004
   -259147.27347   -192397.12545
                  22373934.5704                                   22373928.1954
                                                                        47.7504
        32.0004
  -1328734.21546   -984713.79343
                  23743480.5234                                   23743477.4694
                                                                        41.2504
        23.2504
  -1246729.24247   -922220.54345
                  22746869.2274                                   22746865.5554
                                                                        45.0004
        33.5004
    -68663.07047    -51838.38343
                  23852551.9844                                   23852548.2304
                                                                        43.0004
        22.7504
 09 10 25 23 14 30.0000000  0  9G02G04G05G10G13G23G25G29G30
   -816851.96948   -611282.54747
                  20300705.3524                                   20300699.7974
                                                                        52.2504
        43.7504
   -154653.27048   -115899.54346
                  21697694.1414                                   21697690.9534
                                                                        50.0004
        37.5004
  -1696290.80947  -1261744.20345
                  23057427.3754                                   23057423.9654
                                                                        46.5004
        33.5004
  -1634424.73448  -1215630.30945
                  22145152.5554                                   22145149.4104
                                                                        48.5004
        34.7504
   -940518.27748   -700740.91046
                  21094037.8524                                   21094033.6484
                                                                        50.5004
        37.5004
   -292756.81247   -218586.37945
                  22367538.6414                                   22367532.3444
                                                                        47.0004
        32.2504
  -1510943.41046  -1126694.94543
                  23708807.4924                                   23708803.7704
                                                                        41.2504
        22.5004
  -1416826.93747  -1054764.18745
                  22714500.2344                                   22714497.1294
                                                                        45.2504
        33.0004
    -76535.11747    -57972.43443
                  23851053.8444                                   23851050.1914
                                                                        43.2504
        22.5004
 09 10 25 23 15  0.0000000  0  9G02G04G05G10G13G23G25G29G30
    662536.55148    541487.71947
                  20582223.4144                                   20582217.6254
                                                                        52.2504
        43.5004
   1404118.96948   1098728.13746
                  21994318.5234                                   21994315.5554
                                                                        50.2504
        38.5004
   -325012.61347   -193215.70745
                  23318373.1414                                   23318369.5164
                                                                        47.0004
        33.5004
   -255158.87148   -140877.64845
                  22407618.0784                                   22407614.7504
                                                                        48.0004
        35.5004
    524268.24248    440651.18046
                  21372777.1024                                   21372772.7384
                                                                        49.0004
        37.2504
   1249807.88747    983412.06645
                  22661078.6174                                   22661072.8444
                                                                        46.7504
        32.0004
   -117130.97346    -40607.25443
                  23974040.4694                                   23974036.9964
                                                                        41.7504
        22.5004
    -10791.45347     40847.89145
                  22982059.8594                                   22982056.9064
                                                                        44.5004
        33.5004
   1491636.57046   1163979.55143
                  24149466.4924                                   24149463.9264
                                                                        41.5004
        23.5004
 09 10 25 23 15 30.0000000  0  9G02G04G05G10G13G23G25G29G30
    567345.00048    467312.48047
                  20564109.4534                                   20564103.8094
                                                                        52.5004
        43.5004
   1388110.23448   1086253.79346
                  21991272.1954                                   21991269.4344
                                                                        50.2504
        38.0004
   -528671.93447   -351911.26245
                  23279617.7344                                   23279614.0394
                                                                        46.5004
        33.7504
   -450723.13348   -293265.38345
                  22370403.2274                                   22370400.0084
                                                                        48.0004
        35.2504
    414558.73448    355163.25046
                  21351900.3364                                   21351896.5904
                                                                        50.0004
        37.5004
   1217708.25047    958399.35945
                  22654970.7974                                   22654964.5984
                                                                        46.5004
        31.0004
   -298140.18447   -181653.43444
                  23939596.3444                                   23939591.8984
                                                                        43.2504
        24.5004
   -179465.25047    -90586.22745
                  22949962.2344                                   22949959.0204
                                                                        44.0004
        33.5004
   1485014.25846   1158819.25043
                  24148206.8444                                   24148203.8554
                                                                        41.0004
        22.7504
 09 10 25 23 16  0.0000000  0  9G02G04G05G10G13G23G25G29G30
    472995.12548    393793.09847
                  20546154.9454                                   20546149.3714
                                                                        51.5004
        43.2504
   1372737.66448   1074275.14146
                  21988347.2584                                   21988344.4184
                                                                        49.2504
        37.2504
   -731841.63747   -510225.35545
                  23240956.1484                                   23240952.0514
                                                                        47.7504
        33.5004
   -645690.13347   -445187.71145
                  22333302.3914                                   22333299.3874
                                                                        47.2504
        35.5004
    305775.53948    270397.13346
                  21331199.6484                                   21331195.6254
                                                                        49.0004
        37.5004
   1186361.35947    933973.21145
                  22649005.1724                                   22648999.6094
                                                                        45.0004
        31.5004
   -478543.56247   -322227.49643
                  23905266.7974                                   23905262.6414
                                                                        42.5004
        22.7504
   -347422.31247   -221461.85245
                  22918001.2664                                   22917998.1094
                                                                        44.5004
        33.5004
   1479013.99246   1154143.60544
                  24147064.3594                                   24147062.6524
                                                                        41.0004
        26.0004
 09 10 25 23 16 30.0000000  0  9G02G04G05G10G13G23G25G29G30
    379481.94148    320925.67647
                  20528360.0004                                   20528354.6334
                                                                        51.5004
        43.2504
   1357993.93848   1062786.50446
                  21985541.5784                                   21985538.4144
                                                                        48.0004
        36.7504
   -934524.63347   -668160.15645
                  23202386.5704                                   23202383.0044
                                                                        47.2504
        34.0004
   -840063.00448   -596647.09045
                  22296314.4774                                   22296311.5314
                                                                        48.2504
        35.7504
    197913.33648    186348.66046
                  21310673.8364                                   21310670.0394
                                                                        48.5004
        37.0004
   1155759.98847    910127.97345
                  22643182.1094                                   22643176.8554
                                                                        45.7504
        31.0004
   -658344.06646   -462331.73444
                  23871051.0944                                   23871047.9884
                                                                        39.5004
        24.0004
   -514665.61347   -351781.32845
                  22886175.8984                                   22886172.7624
                                                                        44.0004
        34.2504
   1473627.35946   1149946.17243
                  24146039.2114                                   24146037.7974
                                                                        39.7504
        22.5004
 09 10 25 23 17  0.0000000  0  9G02G04G05G10G13G23G25G29G30
    286797.46948    248704.00047
                  20510722.3594                                   20510717.2544
                                                                        51.5004
        43.2504
   1343869.12948   1051780.15246
                  21982853.7894                                   21982850.2464
                                                                        49.2504
        37.0004
  -1136727.07447   -825720.49245
                  23163908.6024                                   23163905.0514
                                                                        47.2504
        34.5004
  -1033848.24647   -747648.57845
                  22259438.0164                                   22259435.2544
                                                                        47.2504
        35.7504
     90965.30148    103012.52046
                  21290322.6484                                   21290318.7424
                                                                        48.5004
        37.2504
   1125894.18447    886855.91045
                  22637498.9774                                   22637492.8914
                                                                        46.5004
        30.5004
   -837546.69546   -601970.10543
                  23836950.1334                                   23836947.4694
                                                                        39.7504
        23.2504
   -681200.95347   -481549.11745
                  22854485.1644                                   22854482.7424
                                                                        44.5004
        34.0004
   1468842.81346   1146217.93043
                  24145128.8054                                   24145127.1954
                                                                        40.5004
        22.7504
 09 10 25 23 17 30.0000000  0  9G02G04G05G10G13G23G25G29G30
    194939.54348    177126.39847
                  20493242.8524                                   20493237.2544
                                                                        52.0004
        43.0004
   1330359.01648   1041252.76646
                  21980282.7584                                   21980279.2544
                                                                        49.2504
        37.0004
  -1338448.98447   -982906.37545
                  23125522.2114                                   23125519.1414
                                                                        47.2504
        35.0004
  -1227045.21147   -898191.64545
                  22222673.8754                                   22222670.9924
                                                                        47.7504
        35.2504
    -15071.16448     20386.70346
                  21270144.3524                                   21270140.4264
                                                                        49.7504
        36.7504
   1096759.04347    864153.19545
                  22631954.7274                                   22631948.4064
                                                                        47.5004
        30.7504
  -1016151.13746   -741142.35243
                  23802963.1724                                   23802960.0044
                                                                        40.0004
        22.7504
   -847028.04747   -610765.00445
                  22822929.4694                                   22822926.3364
                                                                        44.7504
        34.5004
   1464654.99247   1142954.59844
                  24144332.5944                                   24144330.4654
                                                                        42.7504
        24.7504
 09 10 25 23 18  0.0000000  0  9G02G04G05G10G13G23G25G29G30
    103903.65648    106189.33647
                  20475919.2734                                   20475913.6564
                                                                        51.7504
        43.0004
   1317456.83248   1031199.10246
                  21977827.6414                                   21977824.2854
                                                                        49.2504
        37.5004
  -1539693.43447  -1139720.18445
                  23087226.9694                                   23087222.8244
                                                                        47.0004
        34.0004
  -1419656.80147  -1048278.56645
                  22186021.4534                                   22186018.0084
                                                                        47.0004
        35.7504
   -120200.50448    -61532.27346
                  21250139.2504                                   21250135.0004
                                                                        48.7504
        37.2504
   1068348.00047    842014.70745
                  22626548.3754                                   22626541.9574
                                                                        45.2504
        30.7504
  -1194159.55146   -879850.13744
                  23769088.9534                                   23769085.5594
                                                                        40.0004
        26.0004
  -1012149.32847   -739430.91045
                  22791507.7584                                   22791504.6024
                                                                        44.5004
        34.0004
   1461056.32447   1140150.36743
                  24143647.9614                                   24143645.7504
                                                                        42.0004
        22.2504
 09 10 25 23 18 30.0000000  0  9G02G04G05G10G13G23G25G29G30
     13682.59848     35887.20747
                  20458750.9304                                   20458745.5234
                                                                        52.0004
        43.5004
   1305153.37548   1021611.97346
                  21975486.3834                                   21975483.0864
                                                                        49.5004
        37.0004
  -1740465.37548  -1296165.87545
                  23049020.8284                                   23049017.5044
                                                                        48.0004
        34.7504
  -1611688.08648  -1197913.33645
                  22149479.3674                                   22149475.6134
                                                                        48.0004
        35.2504
   -224429.72748   -142749.85246
                  21230304.6174                                   21230300.9654
                                                                        49.2504
        37.5004
   1040651.34847    820432.89545
                  22621277.9304                                   22621271.4304
                                                                        45.7504
        30.7504
  -1371576.47746  -1018097.05544
                  23735327.9774                                   23735324.7304
                                                                        41.5004
        26.0004
  -1176570.31247   -867551.13345
                  22760219.6484                                   22760216.5354
                                                                        45.0004
        34.5004
   1458036.22347   1137796.90244
                  24143073.3594                                   24143071.1254
                                                                        43.0004
        24.0004
 09 10 25 23 19  0.0000000  0  9G02G04G05G10G13G23G25G29G30
    -75728.38748    -33783.69147
                  20441736.5944                                   20441730.6804
                                                                        52.0004
        43.2504
   1293442.03948   1012486.25446
                  21973257.4924                                   21973254.8134
                                                                        49.5004
        37.2504
  -1940767.83647  -1452245.69145
                  23010904.7814                                   23010901.1294
                                                                        47.7504
        34.5004
  -1803141.53548  -1347097.84845
                  22113046.6564                                   22113043.4844
                                                                        48.0004
        35.7504
   -327763.39848   -223269.60246
                  21210641.0164                                   21210637.7034
                                                                        49.2504
        37.2504
   1013662.10247    799402.30944
                  22616141.6954                                   22616135.4144
                                                                        45.5004
        29.5004
  -1548403.94147  -1155884.69544
                  23701678.8914                                   23701675.5554
                                                                        42.2504
        26.2504
  -1340293.56747   -995127.67145
                  22729064.0004                                   22729060.7854
                                                                        45.2504
        34.0004
   1455586.73847   1135888.15243
                  24142607.0784                                   24142604.5664
                                                                        43.2504
        22.5004
 09 10 25 23 19 30.0000000  0  9G02G04G05G10G13G23G25G29G30
   -164338.87548   -102830.82847
                  20424874.3444                                   20424868.9804
                                                                        51.5004
        43.2504
   1282310.75848   1003812.50846
                  21971139.4384                                   21971136.5434
                                                                        49.2504
        36.7504
  -2140608.46547  -1607965.66845
                  22972876.0864                                   22972872.8954
                                                                        47.5004
        35.0004
  -1994025.06248  -1495838.24646
                  22076722.6804                                   22076719.2344
                                                                        48.5004
        36.2504
   -430211.50848   -303099.31646
                  21191145.9384                                   21191141.9064
                                                                        49.7504
        37.2504
    987368.18047    778913.55544
                  22611137.6094                                   22611131.9384
                                                                        45.7504
        29.7504
  -1724649.18447  -1293218.60544
                  23668140.5164                                   23668136.5004
                                                                        42.2504
        25.5004
  -1503326.39847  -1122166.23445
                  22698039.7734                                   22698036.8714
                                                                        45.5004
        34.5004
   1453694.80546   1134413.87143
                  24142247.0084                                   24142244.6174
                                                                        41.7504
        22.5004
 09 10 25 23 20  0.0000000  0  9G02G04G05G10G13G23G25G29G30
   -252152.16848   -171256.77747
                  20408163.8754                                   20408158.2544
                                                                        51.5004
        43.2504
   1271754.70748    995586.98046
                  21969130.7424                                   21969127.4304
                                                                        49.0004
        36.5004
  -2339988.20747  -1763326.50845
                  22934935.5944                                   22934931.7814
                                                                        47.0004
        34.0004
  -2184339.86747  -1644135.46546
                  22040506.8754                                   22040503.9574
                                                                        47.7504
        36.0004
   -531777.06248   -382241.32046
                  21171818.5314                                   21171814.6644
                                                                        49.2504
        37.5004
    961763.81347    758962.09845
                  22606265.7974                                   22606260.0984
                                                                        47.0004
        30.5004
  -1900312.88347  -1430099.33244
                  23634712.4924                                   23634708.7384
                                                                        42.0004
        26.5004
  -1665670.14847  -1248667.85945
                  22667146.9384                                   22667143.7304
                                                                        45.0004
        33.7504
   1452353.52346   1133368.66043
                  24141991.8054                                   24141989.2234
                                                                        41.2504
        22.2504
 09 10 25 23 20 30.0000000  0  8G02G04G05G10G13G23G25G29
   -339173.97348   -239065.98047
                  20391604.2504                                   20391598.7344
                                                                        51.5004
        43.2504
   1261766.02748    987803.55146
                  21967229.8524                                   21967227.0204
                                                                        49.5004
        36.7504
  -2538911.04347  -1918331.30545
                  22897081.7034                                   22897078.5314
                                                                        47.5004
        34.7504
  -2374088.80548  -1791991.77346
                  22004398.9144                                   22004395.9304
                                                                        49.0004
        36.0004
   -632465.59048   -460699.93446
                  21152658.1174                                   21152653.8714
                                                                        50.2504
        37.0004
    936841.41447    739542.03545
                  22601523.4064                                   22601517.6604
                                                                        46.7504
        31.0004
  -2075398.02746  -1566529.32043
                  23601394.9614                                   23601391.1414
                                                                        40.0004
        22.7504
  -1827328.04747  -1374635.04745
                  22636384.0704                                   22636380.8754
                                                                        46.0004
        34.2504
 09 10 25 23 21  0.0000000  0  8G02G04G05G10G13G23G25G29
   -425407.83248   -306261.19947
                  20375194.4384                                   20375188.8204
                                                                        52.0004
        43.5004
   1252338.96548    980457.75446
                  21965435.9614                                   21965432.9884
                                                                        50.0004
        37.0004
  -2737378.66848  -2072981.39845
                  22859314.2664                                   22859311.1684
                                                                        48.0004
        35.2504
  -2563273.95748  -1939408.79346
                  21968398.4534                                   21968395.1884
                                                                        48.5004
        36.2504
   -732280.69148   -538477.94546
                  21133664.0314                                   21133660.4344
                                                                        50.0004
        37.7504
    912594.82847    720648.58245
                  22596909.4384                                   22596903.5514
                                                                        46.0004
        30.5004
  -2249905.72346  -1702509.33243
                  23568187.0394                                   23568183.3094
                                                                        41.5004
        23.0004
  -1988301.51647  -1500068.91445
                  22605751.8524                                   22605748.6294
                                                                        44.7504
        33.0004
 09 10 25 23 21 30.0000000  0  8G02G04G05G10G13G23G25G29
   -510853.67248   -372842.37147
                  20358934.8524                                   20358929.1644
                                                                        52.7504
        43.5004
   1243471.85248    973548.30546
                  21963748.7114                                   21963745.9494
                                                                        50.0004
        37.5004
  -2935389.05947  -2227275.18445
                  22821634.5474                                   22821631.3444
                                                                        47.7504
        35.2504
  -2751893.02048  -2086384.69546
                  21932505.2504                                   21932502.3554
                                                                        49.0004
        36.2504
   -831222.31648   -615575.30946
                  21114835.9534                                   21114832.3984
                                                                        50.5004
        37.0004
    889021.73047    702279.91845
                  22592423.3594                                   22592417.7464
                                                                        45.7504
        31.0004
  -2423833.32047  -1838037.39843
                  23535089.2584                                   23535085.8874
                                                                        42.2504
        22.5004
  -2148588.88747  -1624968.16445
                  22575250.5084                                   22575246.8244
                                                                        46.0004
        33.7504
 09 10 25 23 22  0.0000000  0  8G02G04G05G10G13G23G25G29
   -595512.56648   -438810.34447
                  20342824.7344                                   20342819.2074
                                                                        52.0004
        43.0004
   1235161.09048    967072.35946
                  21962167.6334                                   21962164.6454
                                                                        49.5004
        36.7504
  -3132941.17248  -2381211.89545
                  22784041.5004                                   22784038.4884
                                                                        48.2504
        34.7504
  -2939945.48848  -2232919.09046
                  21896720.2344                                   21896716.6684
                                                                        48.7504
        36.5004
   -929291.89848   -691993.16046
                  21096174.0084                                   21096169.9804
                                                                        50.0004
        37.5004
    866118.83247    684433.49645
                  22588065.1644                                   22588059.2774
                                                                        45.7504
        31.0004
  -2597179.31246  -1973112.26644
                  23502103.5394                                   23502099.2194
                                                                        41.7504
        25.5004
  -2308188.97747  -1749331.86745
                  22544879.8594                                   22544876.5084
                                                                        45.5004
        34.5004
 09 10 25 23 22 30.0000000  0  8G02G04G05G10G13G23G25G29
   -679392.26648   -504171.15647
                  20326862.9844                                   20326857.0354
                                                                        51.2504
        43.0004
   1227397.27348    961022.58646
                  21960690.0474                                   21960686.9144
                                                                        49.5004
        36.5004
  -3330040.74248  -2534795.96945
                  22746534.6174                                   22746530.9184
                                                                        49.0004
        35.7504
  -3127436.23048  -2379015.77046
                  21861041.4614                                   21861038.6844
                                                                        48.7504
        36.2504
  -1026496.78148   -767737.22746
                  21077676.2974                                   21077672.3794
                                                                        50.5004
        36.5004
    843876.00047    667101.41845
                  22583832.4384                                   22583826.2974
                                                                        43.7504
        30.0004
  -2769948.52746  -2107737.57844
                  23469225.6484                                   23469223.2894
                                                                        41.2504
        26.5004
  -2467106.72747  -1873163.87145
                  22514638.5164                                   22514634.9614
                                                                        45.7504
        35.2504
 09 10 25 23 23  0.0000000  0  8G02G04G05G10G13G23G25G29
    812920.24648    658669.76647
                  20610840.5164                                   20610834.9104
                                                                        52.7504
        43.2504
   2795589.43448   2182990.47345
                  22259107.2424                                   22259104.1724
                                                                        48.0004
        35.7504
  -1951268.59848  -1460428.08245
                  23008906.5784                                   23008902.6764
                                                                        49.0004
        35.5004
  -1738946.45748  -1297075.68746
                  22125262.2344                                   22125259.3984
                                                                        48.7504
        36.5004
    452576.74648    384787.57846
                  21359134.6094                                   21359131.0124
                                                                        50.2504
        36.5004
   2397702.32447   1877875.17644
                  22879515.8984                                   22879510.0664
                                                                        46.2504
        29.0004
  -1366722.15247  -1014314.38344
                  23736251.6884                                   23736247.8014
                                                                        43.0004
        26.0004
  -1049924.62547   -768866.12945
                  22784319.7424                                   22784316.1094
                                                                        46.5004
        35.0004
 09 10 25 23 23 30.0000000  0  8G02G04G05G10G13G23G25G29
    730568.57448    594499.62947
                  20595169.6254                                   20595163.7344
                                                                        52.5004
        43.0004
   2788884.18848   2177765.57846
                  22257831.1094                                   22257828.0864
                                                                        49.0004
        36.5004
  -2147486.75848  -1613325.35945
                  22971567.6644                                   22971563.7934
                                                                        48.5004
        35.2504
  -1925337.45347  -1442315.40646
                  22089793.2274                                   22089790.2154
                                                                        47.7504
        36.7504
    357071.26648    310367.73446
                  21340960.6804                                   21340956.7384
                                                                        50.0004
        37.0004
   2376743.17247   1861543.37145
                  22875527.5554                                   22875521.1054
                                                                        46.5004
        30.5004
  -1538359.95347  -1148058.05144
                  23703589.7034                                   23703586.3444
                                                                        43.2504
        27.0004
  -1207501.86747   -891653.59045
                  22754333.5004                                   22754330.1764
                                                                        46.0004
        35.5004
 09 10 25 23 24  0.0000000  0  8G02G04G05G10G13G23G25G29
    648969.00448    530915.54747
                  20579641.4304                                   20579636.0904
                                                                        52.5004
        43.0004
   2782692.88348   2172941.17646
                  22256653.0164                                   22256649.8834
                                                                        48.5004
        36.5004
  -2343272.98048  -1765886.05145
                  22934310.3284                                   22934307.1254
                                                                        48.5004
        35.0004
  -2111187.49248  -1587133.60546
                  22054427.4384                                   22054424.1334
                                                                        48.2504
        36.2504
    262403.29348    236600.48046
                  21322946.1564                                   21322942.0514
                                                                        48.7504
        37.5004
   2356409.72747   1845699.11345
                  22871658.2114                                   22871652.4264
                                                                        45.7504
        30.5004
  -1709440.51247  -1281367.52744
                  23671033.5164                                   23671030.4534
                                                                        43.2504
        27.2504
  -1364417.97747  -1013925.88345
                  22724473.2194                                   22724470.2664
                                                                        45.7504
        34.7504
 09 10 25 23 24 30.0000000  0  8G02G04G05G10G13G23G25G29
    568113.41848    467911.19147
                  20564255.3364                                   20564249.8984
                                                                        52.5004
        42.5004
   2777005.98048   2168509.80546
                  22255570.9844                                   22255567.8134
                                                                        49.7504
        36.2504
  -2538633.32448  -1918114.89145
                  22897134.5394                                   22897130.8754
                                                                        49.0004
        35.7504
  -2296502.46948  -1731534.85946
                  22019163.3754                                   22019160.5594
                                                                        49.7504
        37.0004
    168564.66048    163479.45346
                  21305088.8364                                   21305085.1954
                                                                        49.7504
        37.0004
   2336692.59447   1830335.11744
                  22867906.0944                                   22867900.1724
                                                                        46.0004
        29.2504
  -1879968.82047  -1414246.68044
                  23638583.2894                                   23638580.6134
                                                                        43.5004
        28.0004
  -1520678.22347  -1135687.10945
                  22694738.1334                                   22694735.0514
                                                                        46.5004
        34.7504
 09 10 25 23 25  0.0000000  0  8G02G04G05G10G13G23G25G29
    487996.82848    405482.67647
                  20549009.7424                                   20549004.0664
                                                                        52.7504
        43.0004
   2771816.27048   2164465.85245
                  22254583.3914                                   22254580.3674
                                                                        48.5004
        35.5004
  -2733570.87148  -2070014.27345
                  22860039.1884                                   22860036.0314
                                                                        48.0004
        35.5004
  -2481285.23048  -1875521.42246
                  21984000.2734                                   21983996.5434
                                                                        49.2504
        37.0004
     75550.48848     91000.89146
                  21287389.0234                                   21287385.2504
                                                                        49.0004
        37.5004
   2317584.27047   1815445.52044
                  22864269.8204                                   22864264.0044
                                                                        45.7504
        29.2504
  -2049947.23847  -1546697.37544
                  23606237.6414                                   23606234.6724
                                                                        44.0004
        27.2504
  -1676285.61347  -1256939.61745
                  22665126.8054                                   22665123.9774
                                                                        45.2504
        35.0004
 09 10 25 23 25 30.0000000  0  8G02G04G05G10G13G23G25G29
    408612.21548    343624.52747
                  20533903.2194                                   20533897.5354
                                                                        53.0004
        43.0004
   2767114.99248   2160802.44545
                  22253688.4384                                   22253685.7384
                                                                        48.5004
        35.5004
  -2928090.29748  -2221587.82846
                  22823023.5394                                   22823020.2234
                                                                        49.5004
        36.5004
  -2665539.91848  -2019096.50846
                  21948937.4384                                   21948934.4454
                                                                        48.7504
        36.7504
    -16646.59448     19158.99246
                  21269844.6254                                   21269840.6414
                                                                        49.5004
        37.2504
   2299075.36347   1801022.97344
                  22860747.4064                                   22860742.0274
                                                                        45.5004
        29.5004
  -2219380.27347  -1678723.07844
                  23573995.3284                                   23573992.6334
                                                                        43.5004
        26.0004
  -1831245.11347  -1377687.27045
                  22635639.2664                                   22635635.7074
                                                                        47.5004
        35.5004
 09 10 25 23 26  0.0000000  0  8G02G04G05G10G13G23G25G29
    329957.85948    282335.42247
                  20518935.6724                                   20518929.8404
                                                                        52.2504
        43.0004
   2762898.62948   2157516.91446
                  22252886.2664                                   22252883.1804
                                                                        48.5004
        36.0004
  -3122190.94548  -2372835.05546
                  22786087.3524                                   22786083.9224
                                                                        48.5004
        36.2504
  -2849266.71148  -2162260.23046
                  21913975.5164                                   21913972.3204
                                                                        48.7504
        36.5004
   -108028.21948    -52047.46946
                  21252455.2814                                   21252451.0984
                                                                        49.5004
        37.5004
   2281161.85547   1787064.38744
                  22857339.0784                                   22857332.7464
                                                                        46.0004
        29.5004
  -2388267.37547  -1810323.68044
                  23541857.9304                                   23541854.3594
                                                                        43.5004
        25.7504
  -1985556.37147  -1497929.80145
                  22606274.8364                                   22606271.6764
                                                                        46.7504
        35.0004
 09 10 25 23 26 30.0000000  0  8G02G04G05G10G13G23G25G29
    252028.70348    221611.39147
                  20504106.3594                                   20504100.6294
                                                                        52.2504
        42.7504
   2759160.22748   2154603.81345
                  22252175.1334                                   22252172.1564
                                                                        48.2504
        35.0004
  -3315875.85948  -2523758.33245
                  22749230.1484                                   22749226.8364
