     2.11           OBSERVATION DATA    G (GPS)             RINEX VERSION / TYPE
teqc  2019Feb25                         20221121 12:28:50UTCPGM / RUN BY / DATE
OSX ker:10.11.6|Core i5|gcc 4.3 -m64|OSX ker:10.10+|=+      COMMENT
BIT 2 OF LLI FLAGS DATA COLLECTED UNDER A/S CONDITION       COMMENT
04713020                                                    MARKER NAME
3020                                                        MARKER NUMBER
-Unknown-           -Unknown-                               OBSERVER / AGENCY
0220400471          TRIMBLE R7          2.30                REC # / TYPE / VERS
-Unknown-           TRM39105.00     NONE                    ANT # / TYPE
  1449459.5725 -1709244.0925  5952444.2891                  APPROX POSITION XYZ
        0.0000        0.0000        0.0000                  ANTENNA: DELTA H/E/N
     1     1                                                WAVELENGTH FACT L1/2
    20    L1    L2    L5    L6    L7    L8    C1    P1    C2# / TYPES OF OBSERV
          P2    C5    C6    C7    C8    S1    S2    S5    S6# / TYPES OF OBSERV
          S7    S8                                          # / TYPES OF OBSERV
    30.0000                                                 INTERVAL
    15                                                      LEAP SECONDS
Forced Modulo Decimation to 30 seconds                      COMMENT
 SNR is mapped to RINEX snr flag value [0-9]                COMMENT
  L1 & L2: min(max(int(snr_dBHz/6), 0), 9)                  COMMENT
teqc edited: Beidou # 1 - 37 excluded                       COMMENT
  2009    10    29     0     0    0.0000000     GPS         TIME OF FIRST OBS
                                                            END OF HEADER
 09 10 29  0  0  0.0000000  0  8G02G04G05G10G13G29G16G07
  -4661354.62548  -3610502.82846
                  21198427.9844                                   21198421.9964
                                                                        51.2504
        40.2504
   1471290.74247   1148007.70344
                  24022785.1954                                   24022782.6844
                                                                        42.5004
        27.2504
 -17030630.69948 -13219111.83646
                  21237723.4304                                   21237719.1254
                                                                        51.0004
        41.0004
 -15480478.84448 -12017722.14846
                  20630913.9224                                   20630910.2624
                                                                        52.0004
        40.5004
  -5554810.93748  -4303346.61745
                  21778844.8754                                   21778840.9344
                                                                        48.5004
        33.0004
 -12138316.73048  -9417937.68046
                  21946459.0234                                   21946455.2704
                                                                        49.5004
        39.0004
  -9687005.92246  -7509471.63343
                  23644609.2974                                   23644604.4344
                                                                        41.5004
        22.7504
 -10461583.60547  -8141170.91844
                  23399854.6414                                   23399850.8714
                                                                        42.5004
        29.7504
 09 10 29  0  0 30.0000000  0  8G02G04G05G10G13G29G16G07
  -4677329.02348  -3622950.39546
                  21195388.2274                                   21195382.0394
                                                                        51.7504
        40.0004
   1501192.85947   1171307.89544
                  24028475.8054                                   24028473.0234
                                                                        43.0004
        28.0004
 -17179071.43748 -13334779.94946
                  21209475.7894                                   21209471.7664
                                                                        51.0004
        41.2504
 -15607957.16848 -12117055.91446
                  20606655.7344                                   20606652.0944
                                                                        51.2504
        41.0004
  -5576427.27348  -4320190.52345
                  21774731.6484                                   21774727.3014
                                                                        49.0004
        33.5004
 -12227101.73448  -9487120.79346
                  21929564.0004                                   21929559.8404
                                                                        49.5004
        38.2504
  -9802510.21546  -7599475.00043
                  23622629.5164                                   23622624.1484
                                                                        41.7504
        22.5004
 -10624866.19147  -8268404.03944
                  23368783.1724                                   23368778.6764
                                                                        44.5004
        28.7504
 09 10 29  0  1  0.0000000  0  8G02G04G05G10G13G29G16G07
  -4692785.32048  -3634994.25446
                  21192446.7344                                   21192440.8984
                                                                        51.5004
        40.0004
   1531265.69947   1194741.32844
                  24034199.0944                                   24034196.2234
                                                                        42.2504
        27.7504
 -17327036.07048 -13450077.04746
                  21181319.3364                                   21181315.1914
                                                                        51.0004
        41.5004
 -15734863.62548 -12215944.06246
                  20582506.0554                                   20582501.6254
                                                                        52.2504
        40.7504
  -5597472.05548  -4336589.07445
                  21770727.1024                                   21770722.7464
                                                                        48.7504
        33.5004
 -12315239.11748  -9555799.27346
                  21912791.5474                                   21912787.4414
                                                                        48.7504
        38.0004
  -9917394.67646  -7688995.36344
                  23600767.5394                                   23600762.6994
                                                                        41.5004
        24.0004
 -10787699.16447  -8395286.87545
                  23337796.5634                                   23337793.0904
                                                                        43.5004
        30.2504
 09 10 29  0  1 30.0000000  0  8G02G04G05G10G13G29G16G07
  -4707725.42648  -3646635.89546
                  21189603.8134                                   21189597.4534
                                                                        51.2504
        40.0004
   1561506.43846   1218305.49244
                  24039952.6414                                   24039950.1844
                                                                        41.2504
        24.0004
 -17474523.53148 -13565002.35546
                  21153253.0084                                   21153249.0204
                                                                        51.0004
        41.0004
 -15861197.66848 -12314386.18046
                  20558465.5164                                   20558461.9884
                                                                        52.0004
        41.0004
  -5617947.74248  -4352544.16045
                  21766831.0474                                   21766826.6334
                                                                        49.0004
        33.2504
 -12402728.69548  -9623972.97346
                  21896143.1644                                   21896139.3244
                                                                        49.2504
        38.0004
 -10031658.01247  -7778031.70744
                  23579023.9614                                   23579019.8364
                                                                        42.0004
        24.0004
 -10950080.28547  -8521817.61745
                  23306897.1414                                   23306892.7584
                                                                        43.5004
        30.0004
 09 10 29  0  2  0.0000000  0  8G02G04G05G10G13G29G16G07
  -4722152.32048  -3657877.65246
                  21186858.6174                                   21186852.7034
                                                                        51.2504
        40.2504
   1591911.98046   1241998.12943
                  24045738.6954                                   24045736.5274
                                                                        40.0004
        22.5004
 -17621532.96548 -13679555.16446
                  21125278.2974                                   21125274.0824
                                                                        51.5004
        41.5004
 -15986959.09448 -12412382.08647
                  20534533.6804                                   20534530.2774
                                                                        52.0004
        42.0004
  -5637857.65648  -4368058.40245
                  21763042.3444                                   21763037.4924
                                                                        48.7504
        33.0004
 -12489570.94148  -9691642.25446
                  21879617.5634                                   21879614.0204
                                                                        49.2504
        37.5004
 -10145300.28546  -7866584.14844
                  23557398.4694                                   23557394.3404
                                                                        41.5004
        24.5004
 -11112008.07047  -8647995.08645
                  23276082.6024                                   23276078.7504
                                                                        44.5004
        30.2504
 09 10 29  0  2 30.0000000  0  8G02G04G05G10G13G29G16G07
  -4736067.36748  -3668720.55146
                  21184210.3134                                   21184204.7114
                                                                        51.0004
        40.2504
   1622480.69947   1265817.88343
                  24051556.2114                                   24051553.2344
                                                                        42.5004
        22.7504
 -17768062.87148 -13793734.31246
                  21097394.4304                                   21097389.8284
                                                                        51.5004
        41.0004
 -16112146.89148 -12509931.03146
                  20510711.7734                                   20510707.9264
                                                                        52.2504
        41.5004
  -5657203.76648  -4383133.29345
                  21759360.3524                                   21759356.2424
                                                                        49.0004
        33.2504
 -12575766.10948  -9758807.32046
                  21863215.1954                                   21863211.6174
                                                                        50.2504
        38.0004
 -10258320.20746  -7954651.58244
                  23535891.7504                                   23535887.8554
                                                                        41.2504
        24.5004
 -11273479.35947  -8773816.85544
                  23245356.0554                                   23245351.7774
                                                                        43.7504
        29.2504
 09 10 29  0  3  0.0000000  0  8G02G04G05G10G13G29G16G07
  -4749473.94948  -3679167.23846
                  21181659.0784                                   21181653.5234
                                                                        50.2504
        40.5004
   1653208.90247   1289762.01644
                  24057403.5474                                   24057400.4454
                                                                        43.5004
        26.0004
 -17914112.91048 -13907539.54346
                  21069601.9224                                   21069597.9384
                                                                        51.2504
        41.5004
 -16236761.18748 -12607033.07846
                  20486998.2814                                   20486994.6254
                                                                        52.0004
        41.7504
  -5675989.66848  -4397771.63745
                  21755785.8524                                   21755781.4804
                                                                        49.0004
        32.0004
 -12661315.22348  -9825468.96946
                  21846935.7274                                   21846931.9104
                                                                        49.2504
        37.2504
 -10370717.94546  -8042234.21544
                  23514502.8284                                   23514499.2304
                                                                        41.7504
        25.5004
 -11434493.07847  -8899282.09844
                  23214716.1484                                   23214711.7814
                                                                        43.0004
        28.7504
 09 10 29  0  3 30.0000000  0  8G02G04G05G10G13G29G16G07
  -4762371.70348  -3689217.42246
                  21179205.0394                                   21179198.9574
                                                                        51.2504
        39.7504
   1684096.90247   1313830.65644
                  24063281.0634                                   24063278.5354
                                                                        44.0004
        26.5004
 -18059679.99248 -14020968.43446
                  21041901.4924                                   21041897.3634
                                                                        51.0004
        41.7504
 -16360798.67248 -12703685.66446
                  20463394.7734                                   20463390.7814
                                                                        52.0004
        41.0004
  -5694215.68748  -4411973.71545
                  21752317.5164                                   21752312.9574
                                                                        48.7504
        32.2504
 -12746216.10548  -9891625.49646
                  21830779.5474                                   21830775.8364
                                                                        49.5004
        38.0004
 -10482490.49247  -8129329.68744
                  23493233.4534                                   23493229.1684
                                                                        42.0004
        26.5004
 -11595044.51647  -9024387.07845
                  23184164.6414                                   23184160.3554
                                                                        43.7504
        30.0004
 09 10 29  0  4  0.0000000  0  8G02G04G05G10G13G29G16G07
  -3199341.82048  -2471272.06646
                  21476639.8204                                   21476633.6914
                                                                        51.5004
        40.0004
   3290561.60947   2565621.45344
                  24368981.0474                                   24368978.6484
                                                                        43.0004
        25.5004
 -16629337.25448 -12906415.67646
                  21314086.9694                                   21314082.7114
                                                                        51.2504
        41.0004
 -14908834.30148 -11572284.84846
                  20739694.4614                                   20739690.2234
                                                                        51.7504
        41.0004
  -4136463.60248  -3198140.89845
                  22048747.5234                                   22048743.2034
                                                                        48.2504
        32.5004
 -11255045.67248  -8729674.50446
                  22114539.9694                                   22114536.1564
                                                                        49.2504
        38.5004
  -9018213.07047  -6988334.30944
                  23771876.0004                                   23771872.2074
                                                                        42.7504
        24.7504
 -10179705.44147  -7921525.44945
                  23453494.3674                                   23453490.0434
                                                                        44.5004
        30.0004
 09 10 29  0  4 30.0000000  0  8G02G04G05G10G13G29G16G07
  -3211229.32048  -2480535.05946
                  21474377.4304                                   21474372.0124
                                                                        51.5004
        40.0004
   3321760.27047   2589932.03944
                  24374918.0474                                   24374915.5084
                                                                        42.5004
        25.0004
 -16773935.67648 -13019089.77346
                  21286570.5634                                   21286566.8714
                                                                        50.7504
        41.5004
 -15031718.23048 -11668038.55946
                  20716310.2974                                   20716306.5514
                                                                        51.7504
        41.0004
  -4153579.30548  -3211477.78545
                  22045490.4614                                   22045485.9104
                                                                        48.7504
        32.2504
 -11338651.97348  -8794822.26646
                  22098629.9064                                   22098626.3794
                                                                        48.7504
        38.0004
  -9128734.16447  -7074454.66044
                  23750845.1414                                   23750841.2894
                                                                        42.2504
        25.2504
 -10339326.54747  -8045905.52744
                  23423120.0394                                   23423115.3554
                                                                        45.7504
        29.7504
 09 10 29  0  5  0.0000000  0  8G02G04G05G10G13G29G16G07
  -3222614.32848  -2489406.50846
                  21472211.0944                                   21472204.9614
                                                                        51.2504
        39.5004
   3353111.60246   2614361.63343
                  24380883.4694                                   24380881.4774
                                                                        41.0004
        23.5004
 -16918047.25448 -13131384.49646
                  21259147.0784                                   21259142.8444
                                                                        51.0004
        41.5004
 -15154023.48448 -11763341.36346
                  20693036.4224                                   20693032.6094
                                                                        52.0004
        41.0004
  -4170142.86348  -3224384.44145
                  22042339.0314                                   22042334.5594
                                                                        49.2504
        32.5004
 -11421610.80548  -8859465.51646
                  22082843.5004                                   22082840.1414
                                                                        49.2504
        38.0004
  -9238627.61346  -7160085.91444
                  23729932.7194                                   23729928.2774
                                                                        41.7504
        25.0004
 -10498478.09847  -8169919.72344
                  23392833.7814                                   23392829.3554
                                                                        44.5004
        29.5004
 09 10 29  0  5 30.0000000  0  8G02G04G05G10G13G29G16G07
  -3233500.14848  -2497888.96946
                  21470139.2664                                   21470133.2934
                                                                        51.0004
        39.2504
   3384611.95347   2638907.26644
                  24386878.9694                                   24386875.9534
                                                                        43.7504
        24.0004
 -17061671.59048 -13243299.57846
                  21231816.3754                                   21231812.6174
                                                                        50.7504
        41.0004
 -15275750.55148 -11858193.61746
                  20669872.4844                                   20669868.7664
                                                                        51.7504
        41.0004
  -4186157.97348  -3236863.75845
                  22039291.1254                                   22039286.8054
                                                                        49.0004
        32.2504
 -11503923.03148  -8923604.90646
                  22067179.8364                                   22067176.2934
                                                                        49.2504
        38.5004
  -9347893.92647  -7245228.46944
                  23709139.8674                                   23709135.8204
                                                                        43.0004
        25.5004
 -10657158.91047  -8293567.08644
                  23362638.0004                                   23362633.3244
                                                                        43.5004
        29.7504
 09 10 29  0  6  0.0000000  0  8G02G04G05G10G13G29G16G07
  -3243889.23048  -2505984.35546
                  21468162.5554                                   21468156.5554
                                                                        50.0004
        39.5004
   3416258.95347   2663567.25844
                  24392901.0004                                   24392897.7664
                                                                        43.0004
        24.7504
 -17204808.12148 -13354834.55547
                  21204578.4384                                   21204574.5984
                                                                        51.0004
        42.0004
 -15396899.16448 -11952595.13346
                  20646818.8444                                   20646815.1054
                                                                        51.5004
        41.0004
  -4201627.91048  -3248918.25045
                  22036347.1644                                   22036342.9534
                                                                        48.2504
        32.5004
 -11585590.06248  -8987241.56246
                  22051639.4224                                   22051635.7074
                                                                        48.5004
        38.5004
  -9456532.63347  -7329881.97344
                  23688466.8364                                   23688462.9104
                                                                        42.5004
        25.5004
 -10815367.13346  -8416846.20744
                  23332531.3204                                   23332527.7074
                                                                        41.0004
        29.7504
 09 10 29  0  6 30.0000000  0  8G02G04G05G10G13G29G16G07
  -3253784.62548  -2513695.03146
                  21466279.2974                                   21466273.5004
                                                                        50.7504
        39.2504
   3448049.19547   2688338.82043
                  24398950.4144                                   24398947.6094
                                                                        42.5004
        23.7504
 -17347456.75048 -13465989.31646
                  21177433.4144                                   21177428.9734
                                                                        51.0004
        41.7504
 -15517469.47348 -12046546.02746
                  20623874.9534                                   20623870.8364
                                                                        51.5004
        41.5004
  -4216556.08248  -3260550.57445
                  22033506.7034                                   22033502.2074
                                                                        48.0004
        32.5004
 -11666612.42248  -9050375.88346
                  22036220.9454                                   22036217.8244
                                                                        49.2504
        38.0004
  -9564544.22746  -7414046.88344
                  23667913.2584                                   23667908.6844
                                                                        41.7504
        26.2504
 -10973101.13347  -8539755.76644
                  23302515.8444                                   23302511.9534
                                                                        43.5004
        29.2504
 09 10 29  0  7  0.0000000  0  8G02G04G05G10G13G29G16G07
  -3263188.73848  -2521022.92646
                  21464489.7424                                   21464483.9264
                                                                        51.7504
        39.7504
   3479980.44546   2713220.23443
                  24405026.0944                                   24405023.9454
                                                                        41.0004
        22.5004
 -17489616.19548 -13576762.89546
                  21150380.9614                                   21150376.9414
                                                                        51.0004
        41.7504
 -15637460.94148 -12140045.87946
                  20601040.9534                                   20601037.4304
                                                                        52.0004
        41.2504
  -4230945.25848  -3271762.93445
                  22030768.4694                                   22030764.2544
                                                                        48.2504
        32.7504
 -11746990.74247  -9113008.34846
                  22020926.1724                                   22020922.3794
                                                                        47.7504
        37.5004
  -9671927.84447  -7497722.43744
                  23647478.5634                                   23647473.9804
                                                                        42.5004
        24.5004
 -11130359.02747  -8662294.37545
                  23272590.4534                                   23272586.5554
                                                                        44.2504
        30.0004
 09 10 29  0  7 30.0000000  0  8G02G04G05G10G13G29G16G07
  -3272102.60548  -2527968.83246
                  21462794.1024                                   21462788.0594
                                                                        50.7504
        39.5004
   3512050.66046   2738209.88743
                  24411129.2734                                   24411126.7304
                                                                        41.5004
        22.0004
 -17631284.87148 -13687154.08246
                  21123422.7034                                   21123418.3714
                                                                        51.0004
        41.5004
 -15756872.25048 -12233093.65646
                  20578317.8054                                   20578314.0394
                                                                        51.2504
        40.5004
  -4244797.49648  -3282556.89145
                  22028132.3984                                   22028128.3404
                                                                        48.0004
        32.0004
 -11826725.08648  -9175139.01246
                  22005753.1334                                   22005749.4534
                                                                        48.7504
        38.0004
  -9778682.41447  -7580907.81644
                  23627163.6094                                   23627159.3874
                                                                        44.0004
        24.7504
 -11287137.44547  -8784459.35945
                  23242756.8754                                   23242752.3594
                                                                        43.7504
        31.0004
 09 10 29  0  8  0.0000000  0  8G02G04G05G10G13G29G16G07
  -3280528.62148  -2534534.55546
                  21461190.5784                                   21461184.2154
                                                                        51.0004
        40.0004
   3544258.14547   2763306.60544
                  24417258.1024                                   24417255.6214
                                                                        42.5004
        24.0004
 -17772461.26648 -13797161.66446
                  21096557.6094                                   21096553.1134
                                                                        52.0004
        41.5004
 -15875702.85248 -12325688.93046
                  20555705.5004                                   20555701.4304
                                                                        51.5004
        40.7504
  -4258115.46148  -3292934.53945
                  22025598.0944                                   22025593.9184
                                                                        48.2504
        32.5004
 -11905815.24648  -9236767.71146
                  21990702.5234                                   21990698.9224
                                                                        49.5004
        38.0004
  -9884807.21947  -7663602.50844
                  23606969.0474                                   23606964.8244
                                                                        43.5004
        25.5004
 -11443434.46147  -8906249.25445
                  23213014.9534                                   23213010.5274
                                                                        46.0004
        30.7504
 09 10 29  0  8 30.0000000  0  8G02G04G05G10G13G29G16G07
  -3288469.83648  -2540722.53946
                  21459679.1484                                   21459673.1134
                                                                        50.0004
        39.5004
   3576599.86347   2788508.04344
                  24423412.4144                                   24423409.8484
                                                                        43.2504
        24.5004
 -17913145.57448 -13906785.82046
                  21069786.1804                                   21069781.7304
                                                                        51.0004
        41.5004
 -15993952.96148 -12417831.86746
                  20533203.0084                                   20533199.4264
                                                                        51.7504
        41.2504
  -4270902.59448  -3302898.54745
                  22023164.9144                                   22023160.0784
                                                                        48.0004
        31.5004
 -11984262.82848  -9297895.70746
                  21975774.3754                                   21975771.0044
                                                                        49.0004
        38.5004
  -9990302.69947  -7745806.77743
                  23586894.1644                                   23586889.2344
                                                                        43.0004
        23.7504
 -11599248.62147  -9027662.88745
                  23183364.0944                                   23183359.8244
                                                                        44.5004
        31.2504
 09 10 29  0  9  0.0000000  0  8G02G04G05G10G13G29G16G07
  -3295928.28148  -2546534.33646
                  21458259.9924                                   21458253.7464
                                                                        51.0004
        39.2504
   3609072.89147   2813811.76644
                  24429592.4304                                   24429589.6844
                                                                        43.0004
        24.5004
 -18053336.21948 -14016025.25046
                  21043108.7424                                   21043104.8404
                                                                        50.7504
        41.5004
 -16111621.97348 -12509522.02046
                  20510811.3204                                   20510807.4774
                                                                        52.0004
        41.5004
  -4283161.40648  -3312450.89145
                  22020831.9614                                   22020827.7194
                                                                        48.0004
        32.0004
 -12062067.84848  -9358523.00046
                  21960968.7584                                   21960965.0434
                                                                        48.7504
        38.7504
 -10095167.85247  -7827519.91044
                  23566938.7974                                   23566934.3054
                                                                        42.5004
        25.7504
 -11754577.25847  -9148698.16045
                  23153806.2274                                   23153801.6724
                                                                        44.7504
        30.7504
 09 10 29  0  9 30.0000000  0  8G02G04G05G10G13G29G16G07
  -3302905.70348  -2551971.30546
                  21456931.9454                                   21456926.2544
                                                                        50.0004
        39.0004
   3641675.72747   2839216.59444
                  24435796.1954                                   24435793.8444
                                                                        42.5004
        24.5004
 -18193031.75848 -14124878.90247
                  21016525.5634                                   21016521.2734
                                                                        50.5004
        42.0004
 -16228708.43448 -12600758.21546
                  20488530.6024                                   20488526.7544
                                                                        51.5004
        41.5004
  -4294894.53147  -3321593.59045
                  22018599.4454                                   22018594.7544
                                                                        46.5004
        31.2504
 -12139230.43747  -9418649.68046
                  21946284.9844                                   21946281.5984
                                                                        47.5004
        37.7504
 -10199401.95746  -7908741.30144
                  23547103.5084                                   23547098.8404
                                                                        41.5004
        24.0004
 -11909417.96547  -9269353.28145
                  23124341.1334                                   23124336.7464
                                                                        45.0004
        30.7504
 09 10 29  0 10  0.0000000  0  8G02G04G05G10G13G29G16G07
  -3309406.41048  -2557036.83246
                  21455695.1884                                   21455689.3364
                                                                        51.0004
        39.0004
   3674403.91047   2864719.05943
                  24442023.9614                                   24442021.8554
                                                                        42.0004
        22.7504
 -18332232.89148 -14233347.32446
                  20990036.3204                                   20990032.4614
                                                                        51.0004
        41.5004
 -16345214.23048 -12691541.96546
                  20466360.3134                                   20466356.3554
                                                                        51.7504
        41.5004
  -4306106.27747  -3330330.03545
                  22016466.0234                                   22016461.3284
                                                                        47.5004
        31.7504
 -12215752.84848  -9478277.53546
                  21931723.5634                                   21931719.5634
                                                                        48.5004
        38.0004
 -10303006.20346  -7989471.92244
                  23527388.3524                                   23527383.5274
                                                                        41.2504
        24.2504
 -12063770.23447  -9389627.80945
                  23094968.9844                                   23094964.2304
                                                                        44.5004
        30.7504
 09 10 29  0 10 30.0000000  0  8G02G04G05G10G13G29G16G07
  -3315432.30948  -2561732.36346
                  21454548.6884                                   21454542.6214
                                                                        50.5004
        39.5004
   3707255.89146   2890317.94543
                  24448274.9224                                   24448273.1884
                                                                        40.5004
        22.5004
 -18470938.10948 -14341429.30146
                  20963641.7734                                   20963637.7034
                                                                        50.5004
        41.7504
 -16461138.33248 -12781872.41446
                  20444300.6094                                   20444296.9494
                                                                        52.7504
        41.0004
  -4316799.42647  -3338662.41845
                  22014431.0474                                   22014426.8204
                                                                        46.7504
        31.5004
 -12291635.58247  -9537406.94146
                  21917283.4534                                   21917279.9384
                                                                        47.2504
        38.0004
 -10405980.16846  -8069711.38343
                  23507793.2344                                   23507788.4414
                                                                        41.5004
        23.5004
 -12217631.49247  -9509519.68744
                  23065690.0474                                   23065685.0274
                                                                        44.7504
        29.7504
 09 10 29  0 11  0.0000000  0  8G02G04G05G10G13G29G16G07
  -3320985.50048  -2566059.52346
                  21453491.8204                                   21453485.8874
                                                                        50.5004
        38.7504
   3740228.85246   2916011.15243
                  24454550.1484                                   24454547.3244
                                                                        41.2504
        22.0004
 -18609146.62548 -14449124.28147
                  20937341.1724                                   20937337.3134
                                                                        51.0004
        42.0004
 -16576480.21948 -12871749.21546
                  20422351.7664                                   20422347.9964
                                                                        52.5004
        41.2504
  -4326976.40647  -3346592.56645
                  22012494.5634                                   22012490.1484
                                                                        47.2504
        31.5004
 -12366878.83248  -9596038.04346
                  21902965.0394                                   21902961.2504
                                                                        48.2504
        37.7504
 -10508323.21947  -8149459.23443
                  23488317.6804                                   23488313.0744
                                                                        42.7504
        22.5004
 -12370999.65247  -9629027.33644
                  23036504.4924                                   23036500.0354
                                                                        43.0004
        28.7504
 09 10 29  0 11 30.0000000  0  8G02G04G05G10G13G29G16G07
  -3326068.57848  -2570020.37146
                  21452524.2194                                   21452518.4734
                                                                        50.2504
        39.0004
   3773320.70746   2941796.99243
                  24460847.4844                                   24460844.6054
                                                                        40.0004
        22.5004
 -18746857.75448 -14556431.68447
                  20911136.0784                                   20911132.1334
                                                                        51.5004
        42.0004
 -16691239.59448 -12961172.09046
                  20400513.8984                                   20400509.9734
                                                                        52.5004
        41.0004
  -4336640.05147  -3354122.67645
                  22010655.4924                                   22010651.1644
                                                                        46.7504
        30.7504
 -12441483.29348  -9654171.39146
                  21888768.3984                                   21888764.4064
                                                                        48.5004
        38.0004
 -10610035.08247  -8228715.25043
                  23468962.1484                                   23468957.6644
                                                                        42.5004
        23.0004
 -12523872.89547  -9748149.31244
                  23007413.6024                                   23007409.4574
                                                                        43.0004
        29.7504
 09 10 29  0 12  0.0000000  0  8G02G04G05G10G13G29G16G07
  -3330683.94948  -2573616.78146
                  21451646.5554                                   21451640.2424
                                                                        50.5004
        38.7504
   3806528.76646   2967673.36343
                  24467166.5784                                   24467164.2774
                                                                        41.2504
        22.7504
 -18884070.06648 -14663350.33246
                  20885025.4384                                   20885021.1524
                                                                        51.5004
        41.5004
 -16805416.64548 -13050141.24646
                  20378786.7274                                   20378782.7274
                                                                        53.0004
        41.5004
  -4345793.93447  -3361255.56245
                  22008913.8594                                   22008909.4454
                                                                        47.5004
        31.5004
 -12515450.26648  -9711807.97746
                  21874692.7584                                   21874688.9964
                                                                        48.7504
        38.0004
 -10711115.36347  -8307479.11743
                  23449727.7584                                   23449723.0204
                                                                        42.5004
        22.7504
 -12676249.00847  -9866883.90645
                  22978417.5944                                   22978413.1644
                                                                        43.7504
        30.5004
 09 10 29  0 12 30.0000000  0  8G02G04G05G10G13G29G16G07
  -3334833.60548  -2576850.29346
                  21450856.8524                                   21450850.5944
                                                                        49.5004
        38.5004
   3839851.54747   2993639.18444
                  24473508.2504                                   24473505.4884
                                                                        42.5004
        25.2504
 -19020782.41448 -14769879.44147
                  20859009.9454                                   20859005.6804
                                                                        52.0004
        42.0004
 -16919009.71548 -13138655.34446
                  20357171.0004                                   20357166.8134
                                                                        52.7504
        41.0004
  -4354439.90247  -3367992.71945
                  22007268.0474                                   22007264.3634
                                                                        47.2504
        31.2504
 -12588780.09048  -9768948.10246
                  21860738.2894                                   21860734.9884
                                                                        49.0004
        38.0004
 -10811563.38047  -8385750.30343
                  23430612.9534                                   23430608.4534
                                                                        43.2504
        22.5004
 -12828125.26247  -9985229.05945
                  22949516.8914                                   22949512.3834
                                                                        45.2504
        31.0004
 09 10 29  0 13  0.0000000  0  8G02G04G05G10G13G29G16G07
  -3338519.18748  -2579722.21546
                  21450154.9844                                   21450149.4694
                                                                        49.2504
        38.2504
   3873286.96147   3019692.76243
                  24479870.5164                                   24479868.3594
                                                                        42.5004
        23.7504
 -19156993.02348 -14876017.54346
                  20833089.9924                                   20833085.7384
                                                                        51.5004
        41.7504
 -17032018.21548 -13226713.91046
                  20335666.0004                                   20335662.2034
                                                                        52.5004
        41.2504
  -4362580.08647  -3374335.71545
                  22005718.8054                                   22005714.7624
                                                                        47.0004
        31.5004
 -12661471.79348  -9825590.98846
                  21846905.9454                                   21846902.2664
                                                                        49.0004
        38.2504
 -10911378.44147  -8463528.25043
                  23411619.0234                                   23411613.8914
                                                                        42.7504
        23.0004
 -12979499.08647 -10103182.60545
                  22920711.0084                                   22920706.9924
                                                                        45.2504
        31.5004
 09 10 29  0 13 30.0000000  0  8G02G04G05G10G13G29G16G07
  -1766322.68448  -1354634.02746
                  21749334.2664                                   21749328.1994
                                                                        49.5004
        39.0004
   5482251.69147   4273431.58643
                  24786045.6954                                   24786044.1174
                                                                        42.0004
        22.0004
 -17717276.38748 -13754160.41047
                  21107058.7974                                   21107054.3204
                                                                        51.2504
        42.0004
 -15569018.03148 -12086713.75846
                  20614065.6024                                   20614061.7934
                                                                        52.0004
        41.7504
  -2794797.23047  -2152686.73845
                  22304058.4614                                   22304053.9774
                                                                        46.5004
        31.5004
 -11158104.32448  -8654135.82046
                  22132987.4064                                   22132983.5704
                                                                        48.7504
        38.2504
  -9435137.00847  -7313210.28144
                  23692538.5704                                   23692533.8594
                                                                        43.5004
        25.0004
 -11554943.49247  -8993139.27045
                  23191795.3364                                   23191791.1684
                                                                        42.7504
        31.5004
 09 10 29  0 14  0.0000000  0  8G02G04G05G10G13G29G16G07
  -1769086.78148  -1356787.88746
                  21748808.0474                                   21748802.3954
                                                                        50.0004
        39.0004
   5515905.54346   4299655.37543
                  24792450.2974                                   24792447.3364
                                                                        41.2504
        21.5004
 -17852480.52748 -13859514.27747
                  21081330.3204                                   21081325.9534
                                                                        51.5004
        42.2504
 -15680856.17648 -12173860.34846
                  20592783.4844                                   20592779.9104
                                                                        52.7504
        41.2504
  -2801934.48447  -2158248.23445
                  22302700.3834                                   22302696.2234
                                                                        47.2504
        31.0004
 -11229522.57448  -8709786.40246
                  22119396.8054                                   22119392.8134
                                                                        49.5004
        37.5004
  -9533684.36747  -7390000.38743
                  23673785.4534                                   23673780.5314
                                                                        43.0004
        23.7504
 -11705306.21147  -9110305.04745
                  23163181.9304                                   23163177.9064
                                                                        44.0004
        32.2504
 09 10 29  0 14 30.0000000  0  7G02G05G10G13G29G16G07
  -1771400.08248  -1358590.45746
                  21748368.2424                                   21748362.3954
                                                                        50.7504
        39.0004
 -17987186.51648 -13964479.99647
                  21055696.7274                                   21055692.7344
                                                                        51.5004
        42.5004
 -15792114.75848 -12260555.35246
                  20571611.7424                                   20571607.8364
                                                                        51.7504
        41.0004
  -2808581.23047  -2163427.53145
                  22301435.8364                                   22301430.9024
                                                                        46.7504
        30.5004
 -11300311.96548  -8764946.97746
                  22105925.8914                                   22105922.3054
                                                                        49.0004
        38.0004
  -9631604.46546  -7466301.72743
                  23655151.9534                                   23655147.3054
                                                                        41.7504
        23.7504
 -11855166.42647  -9227079.22345
                  23134664.6804                                   23134660.2734
                                                                        44.5004
        32.2504
 09 10 29  0 15  0.0000000  0  7G02G05G10G13G29G16G07
  -1773260.60548  -1360040.23446
                  21748014.2424                                   21748008.1374
                                                                        48.5004
        38.0004
 -18121389.16048 -14069053.48447
                  21030158.5784                                   21030154.6844
                                                                        51.7504
        42.5004
 -15902789.33648 -12346795.26246
                  20550550.9614                                   20550547.1764
                                                                        53.0004
        41.2504
  -2814735.87947  -2168223.39144
                  22300264.2114                                   22300259.8984
                                                                        44.5004
        29.0004
 -11370468.61748  -8819614.49246
                  22092575.7344                                   22092571.6764
                                                                        49.2504
        38.5004
  -9728892.52347  -7542110.58644
                  23636638.7894                                   23636634.0824
                                                                        42.0004
        24.7504
 -12004518.44947  -9343457.43445
                  23106244.0864                                   23106239.4344
                                                                        44.0004
        31.5004
 09 10 29  0 15 30.0000000  0  7G02G05G10G13G29G16G07
  -1774664.25448  -1361134.00046
                  21747747.1254                                   21747741.0904
                                                                        50.0004
        37.7504
 -18255080.64148 -14173228.68047
                  21004717.8204                                   21004714.0234
                                                                        52.0004
        42.5004
 -16012872.86748 -12432574.64846
                  20529602.9774                                   20529598.7624
                                                                        52.2504
        41.2504
  -2820394.38747  -2172632.61745
                  22299187.6254                                   22299182.9844
                                                                        46.5004
        30.2504
 -11439986.66848  -8873784.39846
                  22079346.7504                                   22079343.1294
                                                                        50.0004
        37.7504
  -9825541.55947  -7617421.52343
                  23618247.1644                                   23618242.3364
                                                                        43.0004
        23.7504
 -12153352.43747  -9459431.99245
                  23077921.8054                                   23077917.0044
                                                                        44.7504
        31.5004
 09 10 29  0 16  0.0000000  0  7G02G05G10G13G29G16G07
  -1775611.04748  -1361871.78546
                  21747566.7664                                   21747561.0824
                                                                        49.5004
        38.0004
 -18388257.40248 -14277002.77747
                  20979375.2894                                   20979371.2384
                                                                        52.0004
        42.5004
 -16122362.21948 -12517891.02747
                  20508767.7584                                   20508763.9024
                                                                        53.0004
        42.0004
  -2825557.19547  -2176655.60545
                  22298205.0864                                   22298200.7974
                                                                        45.0004
        30.5004
 -11508864.01248  -8927455.05146
                  22066240.0164                                   22066236.2384
                                                                        48.7504
        38.0004
  -9921548.53947  -7692232.18043
                  23599977.4844                                   23599972.8524
                                                                        43.0004
        22.7504
 -12301664.26647  -9574999.60545
                  23049698.9304                                   23049694.1844
                                                                        44.0004
        30.7504
 09 10 29  0 16 30.0000000  0  7G02G05G10G13G29G16G07
  -1776106.51248  -1362257.89146
                  21747472.7974                                   21747466.6954
                                                                        50.0004
        38.2504
 -18520922.41448 -14380378.11347
                  20954130.0084                                   20954126.3094
                                                                        51.7504
        42.2504
 -16231261.10248 -12602747.28946
                  20488044.7504                                   20488041.0394
                                                                        53.0004
        41.0004
  -2830230.85947  -2180297.41044
                  22297315.6094                                   22297311.4064
                                                                        45.5004
        29.7504
 -11577105.60948  -8980630.32846
                  22053253.9064                                   22053250.3404
                                                                        49.5004
        38.2504
 -10016917.47747  -7766545.58643
                  23581828.9534                                   23581824.4734
                                                                        43.0004
        23.7504
 -12449456.10247  -9690162.06645
                  23021574.8284                                   23021569.9184
                                                                        44.0004
        31.0004
 09 10 29  0 17  0.0000000  0  7G02G05G10G13G29G16G07
  -1776156.30148  -1362296.68446
                  21747463.0704                                   21747456.8594
                                                                        49.5004
        38.2504
 -18653077.90648 -14483356.42247
                  20928981.7894                                   20928977.4614
                                                                        52.0004
        42.0004
 -16339572.20748 -12687145.55146
