     2.11           OBSERVATION DATA    G (GPS)             RINEX VERSION / TYPE
teqc  2019Feb25                         20221121 12:28:00UTCPGM / RUN BY / DATE
OSX ker:10.11.6|Core i5|gcc 4.3 -m64|OSX ker:10.10+|=+      COMMENT
BIT 2 OF LLI FLAGS DATA COLLECTED UNDER A/S CONDITION       COMMENT
04712770                                                    MARKER NAME
2770                                                        MARKER NUMBER
-Unknown-           -Unknown-                               OBSERVER / AGENCY
0220400471          TRIMBLE R7          2.30                REC # / TYPE / VERS
-Unknown-           TRM39105.00     NONE                    ANT # / TYPE
  1449460.7955 -1709239.9096  5952442.5011                  APPROX POSITION XYZ
        0.0000        0.0000        0.0000                  ANTENNA: DELTA H/E/N
     1     1                                                WAVELENGTH FACT L1/2
    20    L1    L2    L5    L6    L7    L8    C1    P1    C2# / TYPES OF OBSERV
          P2    C5    C6    C7    C8    S1    S2    S5    S6# / TYPES OF OBSERV
          S7    S8                                          # / TYPES OF OBSERV
    30.0000                                                 INTERVAL
    15                                                      LEAP SECONDS
Forced Modulo Decimation to 30 seconds                      COMMENT
 SNR is mapped to RINEX snr flag value [0-9]                COMMENT
  L1 & L2: min(max(int(snr_dBHz/6), 0), 9)                  COMMENT
teqc edited: Beidou # 1 - 37 excluded                       COMMENT
  2009    10     4     0     0    0.0000000     GPS         TIME OF FIRST OBS
                                                            END OF HEADER
 09 10  4  0  0  0.0000000  0  7G02G04G12G13G23G30G31
 -16305145.05948 -12637172.99646
                  20692060.4614                                   20692055.0234
                                                                        51.2504
        41.7504
  -8287615.82848  -6415493.28946
                  20619505.1254                                   20619502.4884
                                                                        52.0004
        41.7504
  -2490363.05947  -1920408.12944
                  23826887.6334                                   23826883.8754
                                                                        43.2504
        28.0004
 -18605998.21548 -14425475.99645
                  21815415.1804                                   21815411.4884
                                                                        49.5004
        34.0004
 -10897623.70348  -8438873.11745
                  21716854.5394                                   21716848.5434
                                                                        49.0004
        35.5004
  -7945953.08647  -6149013.44144
                  22676071.1484                                   22676069.1054
                                                                        45.0004
        29.2504
  -8218116.39146  -6364563.40644
                  23748675.2034                                   23748671.4264
                                                                        40.5004
        27.2504
 09 10  4  0  0 30.0000000  0  8G02G04G12G13G29G23G30G31
 -16436938.86348 -12739869.46946
                  20666981.0164                                   20666975.7544
                                                                        51.0004
        41.7504
  -8335573.15648  -6452862.58247
                  20610379.2504                                   20610376.0434
                                                                        52.5004
        42.0004
  -2488158.93047  -1918690.62544
                  23827306.6884                                   23827303.4804
                                                                        43.7504
        28.7504
 -18759996.67248 -14545474.80545
                  21786110.2274                                   21786106.4734
                                                                        49.7504
        34.0004
   -243853.79756   -149802.02754
                  24264875.7974                                   24264873.9224
                                                                        40.7504
        25.2504
 -10967211.89848  -8493097.70745
                  21703612.2734                                   21703606.8674
                                                                        49.7504
        35.5004
  -7985457.81247  -6179796.28944
                  22668553.6414                                   22668551.0664
                                                                        44.5004
        29.5004
  -8264015.48047  -6400328.94144
                  23739940.5634                                   23739937.0164
                                                                        42.7504
        27.0004
 09 10  4  0  1  0.0000000  0  8G02G04G12G13G29G23G30G31
 -16568197.04748 -12842148.60547
                  20642003.2504                                   20641997.8014
                                                                        51.0004
        42.0004
  -8382969.91848  -6489795.09847
                  20601359.8834                                   20601356.5904
                                                                        52.2504
        42.0004
  -2485584.60247  -1916684.69544
                  23827797.2974                                   23827793.6914
                                                                        44.2504
        29.2504
 -18913421.63748 -14665026.70345
                  21756914.2734                                   21756910.3094
                                                                        49.7504
        34.5004
   -432241.98446   -296598.00044
                  24229026.7114                                   24229025.2194
                                                                        41.7504
        27.0004
 -11036142.31648  -8546809.70745
                  21690495.4224                                   21690489.8874
                                                                        48.2504
        35.2504
  -8024324.35947  -6210081.82044
                  22661157.0164                                   22661155.1684
                                                                        44.7504
        29.0004
  -8309335.26646  -6435643.09044
                  23731316.1174                                   23731313.2234
                                                                        40.5004
        27.7504
 09 10  4  0  1 30.0000000  0  8G02G04G12G13G29G23G30G31
 -15123499.22748 -11716410.21147
                  20916920.4454                                   20916915.0084
                                                                        50.7504
        42.7504
  -6854391.02048  -5298694.62946
                  20892238.6644                                   20892235.4654
                                                                        52.0004
        41.0004
   -907227.99647   -686796.44545
                  24128148.3364                                   24128145.6604
                                                                        43.7504
        30.0004
 -17490851.44148 -13556530.44145
                  22027620.3204                                   22027616.7424
                                                                        49.5004
        34.0004
    955053.12546    784411.10944
                  24493020.3674                                   24493018.7274
                                                                        40.0004
        27.2504
  -9528998.65248  -7372412.05145
                  21977295.2194                                   21977289.3094
                                                                        48.5004
        35.5004
  -6487138.56647  -5012274.59044
                  22953673.5164                                   22953671.5164
                                                                        43.5004
        28.0004
  -6778661.12546  -5242909.98844
                  24022593.7424                                   24022590.6484
                                                                        40.0004
        27.5004
 09 10  4  0  2  0.0000000  0  8G02G04G12G13G29G23G30G31
 -15253692.60248 -11817859.69547
                  20892145.2894                                   20892140.2894
                                                                        51.0004
        42.5004
  -6900680.64148  -5334764.44147
                  20883430.2584                                   20883427.1024
                                                                        53.2504
        42.0004
   -903932.16047   -684228.26645
                  24128775.9064                                   24128772.3674
                                                                        45.0004
        31.0004
 -17643133.66048 -13675191.90245
                  21998641.8054                                   21998638.2384
                                                                        49.5004
        33.5004
    767181.88746    638018.10244
                  24457269.4774                                   24457268.2154
                                                                        40.5004
        25.0004
  -9596626.13348  -7425108.82845
                  21964426.1414                                   21964420.5354
                                                                        49.5004
        35.7504
  -6524745.12547  -5041578.34444
                  22946517.0474                                   22946515.0474
                                                                        45.5004
        29.0004
  -6822837.83247  -5277333.48044
                  24014187.2664                                   24014184.5514
                                                                        42.2504
        27.5004
 09 10  4  0  2 30.0000000  0  8G02G04G12G13G29G23G30G31
 -15383347.40248 -11918889.55547
                  20867472.9224                                   20867467.7114
                                                                        50.7504
        42.0004
  -6946414.44948  -5370401.10947
                  20874726.9534                                   20874723.9224
                                                                        52.7504
        42.0004
   -900276.02747   -681379.36344
                  24129471.6094                                   24129468.1174
                                                                        45.2504
        29.7504
 -17794837.08248 -13793402.33245
                  21969774.1484                                   21969770.0354
                                                                        50.0004
        35.0004
    579576.34446    491832.08243
                  24421568.4534                                   24421567.5274
                                                                        39.5004
        23.5004
  -9663599.35548  -7477295.78945
                  21951681.6414                                   21951675.8794
                                                                        48.7504
        35.5004
  -6561720.30547  -5070389.99244
                  22939480.5634                                   22939478.8484
                                                                        43.0004
        28.5004
  -6866441.49246  -5311310.49244
                  24005889.9304                                   24005886.3634
                                                                        41.0004
        27.5004
 09 10  4  0  3  0.0000000  0  8G02G04G12G13G29G23G30G31
 -15512458.94948 -12019495.95747
                  20842903.9384                                   20842898.5434
                                                                        51.0004
        42.0004
  -6991590.96148  -5405603.64847
                  20866130.2584                                   20866127.1134
                                                                        53.5004
        42.2504
   -896259.50847   -678249.61744
                  24130236.2424                                   24130232.1024
                                                                        44.5004
        28.0004
 -17945956.56248 -13911157.76245
                  21941016.5864                                   21941013.1294
                                                                        50.2504
        34.7504
    392242.34046    345857.63344
                  24385920.0234                                   24385918.8014
                                                                        39.2504
        24.0004
  -9729916.32048  -7528971.35245
                  21939061.9774                                   21939056.2074
                                                                        48.7504
        34.5004
  -6598063.86347  -5098709.49244
                  22932565.2194                                   22932562.7074
                                                                        42.5004
        29.5004
  -6909470.69147  -5344839.80944
                  23997702.1644                                   23997698.8524
                                                                        43.7504
        27.0004
 09 10  4  0  3 30.0000000  0  8G02G04G12G13G29G23G30G31
 -15641022.12548 -12119675.00447
                  20818438.8834                                   20818433.9384
                                                                        51.2504
        42.0004
  -7036206.80148  -5440369.28146
                  20857640.1954                                   20857637.0554
                                                                        53.5004
        41.5004
   -891881.12947   -674837.88344
                  24131068.4614                                   24131065.2664
                                                                        44.7504
        27.5004
 -18096485.76648 -14028453.24245
                  21912372.0084                                   21912367.7704
                                                                        50.0004
        35.5004
    205186.17247    200099.50044
                  24350324.6094                                   24350322.9964
                                                                        42.0004
        25.0004
  -9795573.21947  -7580132.53945
                  21926567.5864                                   21926562.1844
                                                                        47.5004
        35.2504
  -6633773.73447  -5126535.34445
                  22925770.0784                                   22925767.0124
                                                                        44.7504
        30.0004
  -6951922.92647  -5377919.56644
                  23989624.0394                                   23989620.3204
                                                                        43.7504
        27.5004
 09 10  4  0  4  0.0000000  0  8G02G04G12G13G29G23G30G31
 -15769034.52348 -12219424.80147
                  20794078.9064                                   20794073.3444
                                                                        52.5004
        42.5004
  -7080262.58648  -5474698.45746
                  20849256.5784                                   20849253.3324
                                                                        52.2504
        41.0004
   -887143.30147   -671146.10244
                  24131969.6804                                   24131966.5084
                                                                        43.7504
        27.2504
 -18246421.90648 -14145286.58645
                  21883840.2584                                   21883836.3094
                                                                        50.0004
        35.0004
     18411.12947     54560.34444
                  24314783.0164                                   24314780.6804
                                                                        42.0004
        26.5004
  -9860570.43048  -7630779.82845
                  21914199.0474                                   21914193.7344
                                                                        48.7504
        34.7504
  -6668851.37147  -5153868.50845
                  22919094.1724                                   22919091.8874
                                                                        44.5004
        30.0004
  -6993799.14546  -5410550.49244
                  23981655.2814                                   23981651.6914
                                                                        40.7504
        27.7504
 09 10  4  0  4 30.0000000  0  8G02G04G12G13G29G23G30G31
 -15896495.05548 -12318744.58247
                  20769823.8444                                   20769818.6094
                                                                        50.7504
        42.5004
  -7123759.86348  -5508592.37146
                  20840979.4614                                   20840976.6094
                                                                        53.0004
        41.5004
   -882049.45747   -667176.87544
                  24132939.7194                                   24132935.7424
                                                                        44.2504
        27.0004
 -18395762.93448 -14261656.20345
                  21855421.2424                                   21855417.4774
                                                                        49.0004
        35.2504
   -168080.26646    -90757.60543
                  24279294.3834                                   24279293.0554
                                                                        41.7504
        23.7504
  -9924909.37148  -7680914.19945
                  21901956.3834                                   21901950.8954
                                                                        49.0004
        34.5004
  -6703298.96547  -5180710.72744
                  22912539.5634                                   22912537.1954
                                                                        45.0004
        29.5004
  -7035101.07847  -5442733.88744
                  23973795.8134                                   23973792.4924
                                                                        43.5004
        28.2504
 09 10  4  0  5  0.0000000  0  8G02G04G12G13G29G23G30G31
 -16023404.14148 -12417634.71947
                  20745673.7194                                   20745668.9384
                                                                        52.0004
        42.2504
  -7166701.44948  -5542053.34046
                  20832807.7424                                   20832804.7704
                                                                        53.2504
        41.7504
   -876603.91847   -662933.60244
                  24133975.8984                                   24133972.2274
                                                                        44.2504
        27.7504
 -18544508.34048 -14377561.70345
                  21827116.0314                                   21827112.3244
                                                                        49.0004
        34.7504
   -354287.34846   -235853.96143
                  24243860.6174                                   24243858.6724
                                                                        40.7504
        22.5004
  -9988592.49248  -7730537.64545
                  21889837.6954                                   21889832.5234
                                                                        49.0004
        35.7504
  -6737120.25847  -5207064.90645
                  22906103.5084                                   22906101.5634
                                                                        45.2504
        30.7504
  -7075832.21147  -5474472.45744
                  23966045.0554                                   23966041.3324
                                                                        43.2504
        26.5004
 09 10  4  0  5 30.0000000  0  8G02G04G12G13G29G23G30G31
 -16149763.66448 -12516096.71547
                  20721628.6174                                   20721623.2624
                                                                        52.0004
        43.0004
  -7209091.91848  -5575084.87547
                  20824740.9534                                   20824738.2544
                                                                        53.2504
        42.0004
   -870812.81247   -658421.06644
                  24135078.3444                                   24135074.2584
                                                                        43.5004
        29.0004
 -18692659.07048 -14493003.83645
                  21798923.8204                                   21798920.5594
                                                                        49.2504
        34.7504
   -540210.98846   -380729.41044
                  24208480.2584                                   24208479.1214
                                                                        41.5004
        24.7504
 -10051623.18748  -7779652.50045
                  21877843.4064                                   21877838.0554
                                                                        48.5004
        35.2504
  -6770321.05547  -5232935.58645
                  22899785.2504                                   22899783.3284
                                                                        44.7504
        30.7504
  -7115997.44947  -5505770.03144
                  23958401.4144                                   23958397.9574
                                                                        42.2504
        26.7504
 09 10  4  0  6  0.0000000  0  8G02G04G12G13G29G23G30G31
 -16275569.73848 -12614127.41847
                  20697688.4534                                   20697683.2114
                                                                        51.5004
        42.2504
  -7250929.83648  -5607685.84446
                  20816779.7504                                   20816777.0594
                                                                        52.5004
        41.7504
   -864676.39547   -653639.47344
                  24136246.0944                                   24136242.6214
                                                                        44.5004
        29.0004
 -18840210.53948 -14607978.99645
                  21770845.7584                                   21770842.2584
                                                                        49.0004
        35.0004
   -725845.91447   -525379.88744
                  24173155.4844                                   24173153.5314
                                                                        42.7504
        26.5004
 -10114000.01248  -7828257.71145
                  21865973.3914                                   21865967.8594
                                                                        48.0004
        35.5004
  -6802900.98847  -5258322.51645
                  22893585.5314                                   22893583.1994
                                                                        44.5004
        30.0004
  -7155596.00447  -5536626.10244
                  23950866.7814                                   23950862.6604
                                                                        42.7504
        26.0004
 09 10  4  0  6 30.0000000  0  9G02G04G12G13G29G10G23G30G31
 -16400819.49248 -12711724.53947
                  20673854.1724                                   20673849.0354
                                                                        51.0004
        43.2504
  -7292215.49648  -5639856.46146
                  20808923.3914                                   20808920.5394
                                                                        53.2504
        41.2504
   -858196.77047   -648590.44144
                  24137479.3054                                   24137475.6294
                                                                        45.2504
        29.2504
 -18987159.99248 -14722485.18745
                  21742882.2664                                   21742878.5314
                                                                        49.2504
        34.7504
   -911188.68047   -669802.75444
                  24137885.3134                                   24137884.2544
                                                                        42.5004
        27.5004
   1311124.83256   1065219.81654
                  24097574.1334                                   24097572.2464
                                                                        40.5004
        25.0004
 -10175722.71548  -7876353.02345
                  21854228.0554                                   21854222.4494
                                                                        48.5004
        35.0004
  -6834861.05947  -5283226.49644
                  22887504.1564                                   22887501.3984
                                                                        46.2504
        29.2504
  -7194628.26247  -5567040.86344
                  23943438.6724                                   23943435.0784
                                                                        42.0004
        26.0004
 09 10  4  0  7  0.0000000  0  9G02G04G12G13G29G10G23G30G31
 -16525511.91848 -12808887.44947
                  20650125.8914                                   20650120.5044
                                                                        51.2504
        42.5004
  -7332949.85548  -5671597.49647
                  20801171.9454                                   20801168.9884
                                                                        53.7504
        42.0004
   -851376.68447   -643276.11744
                  24138776.8834                                   24138773.7624
                                                                        44.2504
        29.0004
 -19133504.43048 -14836519.73845
                  21715033.7664                                   21715030.0044
                                                                        49.5004
        35.2504
  -1096236.78947   -813995.97744
                  24102671.9534                                   24102670.2464
                                                                        42.0004
        25.2504
   1106838.06347    906035.35944
                  24058700.3284                                   24058697.1254
                                                                        43.0004
        26.0004
 -10236793.00448  -7923940.25445
                  21842606.8364                                   21842601.1564
                                                                        48.7504
        35.0004
  -6866202.98047  -5307648.74244
                  22881539.3914                                   22881536.9344
                                                                        45.7504
        29.2504
  -7233095.73447  -5597015.48444
                  23936118.7504                                   23936114.9574
                                                                        42.2504
        26.2504
 09 10  4  0  7 30.0000000  0  9G02G04G12G13G29G10G23G30G31
 -16649653.78148 -12905621.36747
                  20626502.4064                                   20626497.1214
                                                                        51.5004
        42.7504
  -7373142.64148  -5702916.55546
                  20793523.3364                                   20793520.4454
                                                                        53.0004
        41.2504
   -844227.11347   -637705.03144
                  24140137.4924                                   24140134.3594
                                                                        44.0004
        28.0004
 -19279250.47348 -14950088.05145
                  21687299.3984                                   21687295.8914
                                                                        49.0004
        35.0004
  -1280995.61747   -957963.81244
                  24067513.3524                                   24067511.3754
                                                                        42.0004
        25.0004
    902719.46147    746981.89143
                  24019857.6484                                   24019854.0514
                                                                        43.2504
        22.2504
 -10297219.53148  -7971025.84845
                  21831107.9384                                   21831102.1174
                                                                        48.5004
        34.2504
  -6896937.38747  -5331597.64544
                  22875691.0234                                   22875688.8164
                                                                        44.5004
        28.0004
  -7271008.77347  -5626557.96144
                  23928904.0234                                   23928900.5004
                                                                        42.5004
        26.5004
 09 10  4  0  8  0.0000000  0  9G02G04G12G13G29G10G23G30G31
 -16773241.72348 -13001923.64147
                  20602984.5634                                   20602979.0664
                                                                        51.7504
        42.5004
  -7412792.79748  -5733812.73846
                  20785978.2034                                   20785975.1294
                                                                        53.2504
        41.0004
   -836748.95347   -631877.91444
                  24141559.8984                                   24141557.3674
                                                                        42.0004
        26.0004
 -19424393.46948 -15063186.45345
                  21659679.6094                                   21659675.6134
                                                                        50.0004
        35.0004
  -1465461.11346  -1101703.20744
                  24032410.6644                                   24032408.8364
                                                                        40.7504
        26.0004
    698773.33647    588062.86344
                  23981047.7584                                   23981044.7344
                                                                        44.2504
        25.2504
 -10357001.07848  -8017608.94545
                  21819731.6334                                   21819726.0274
                                                                        48.7504
        34.2504
  -6927064.43047  -5355073.24244
                  22869958.2814                                   22869955.3634
                                                                        43.2504
        28.0004
  -7308367.05947  -5655668.26644
                  23921794.5554                                   23921791.1254
                                                                        42.0004
        25.7504
 09 10  4  0  8 30.0000000  0  9G02G04G12G13G29G10G23G30G31
 -16896270.68048 -13097790.34447
                  20579572.9144                                   20579567.6414
                                                                        52.5004
        42.7504
  -7451898.43048  -5764284.65646
                  20778536.6484                                   20778533.7774
                                                                        53.2504
        41.5004
   -828941.66847   -625794.35944
                  24143045.6174                                   24143042.7154
                                                                        42.0004
        27.5004
 -19568928.46148 -15175811.11345
                  21632175.5704                                   21632171.6804
                                                                        49.2504
        35.2504
  -1649626.07846  -1245208.03144
                  23997364.8284                                   23997363.2734
                                                                        41.5004
        26.7504
    495005.68847    429282.90644
                  23942272.0084                                   23942269.1254
                                                                        42.5004
        24.5004
 -10416134.96148  -8063687.21545
                  21808478.5394                                   21808473.2034
                                                                        50.0004
        34.5004
  -6956582.90647  -5378074.68444
                  22864340.7894                                   22864338.3554
                                                                        44.5004
        28.7504
  -7345168.77747  -5684344.94144
                  23914791.2584                                   23914787.7344
                                                                        42.5004
        25.2504
 09 10  4  0  9  0.0000000  0  9G02G04G12G13G29G10G23G30G31
 -17018738.37948 -13193219.69947
                  20556267.9774                                   20556262.8364
                                                                        52.0004
        43.0004
  -7490459.50448  -5794332.25446
                  20771198.6414                                   20771195.6134
                                                                        52.5004
        41.5004
   -820807.25047   -619455.85944
                  24144593.4774                                   24144589.9694
                                                                        42.5004
        26.2504
 -19712851.82848 -15287959.15645
                  21604787.5944                                   21604783.8634
                                                                        49.5004
        34.5004
  -1833488.69947  -1388477.66444
                  23962377.8054                                   23962375.2344
                                                                        42.0004
        27.2504
    291418.98846    270644.00044
                  23903530.2894                                   23903528.2234
                                                                        40.7504
        24.7504
 -10474621.54748  -8109261.20745
                  21797349.2894                                   21797343.1954
                                                                        49.2504
        34.5004
  -6985494.32047  -5400603.10944
                  22858838.9844                                   22858836.6844
                                                                        44.0004
        26.7504
  -7381414.49646  -5712588.28944
                  23907894.2344                                   23907890.5984
                                                                        41.0004
        25.2504
 09 10  4  0  9 30.0000000  0  9G02G04G12G13G29G10G23G30G31
 -17140636.94948 -13288205.54347
                  20533071.5554                                   20533066.3984
                                                                        51.5004
        42.5004
  -7528470.53948  -5823951.24646
                  20763965.5864                                   20763962.4614
                                                                        52.2504
        41.5004
   -812341.55547   -612859.20744
                  24146204.5234                                   24146200.3794
                                                                        44.2504
        27.2504
 -19856155.05948 -15399623.98045
                  21577517.9774                                   21577514.3554
                                                                        49.0004
        35.5004
  -2017038.47346  -1531503.38744
                  23927448.8674                                   23927447.2074
                                                                        40.7504
        28.0004
     88022.78146    112153.53944
                  23864825.2894                                   23864823.0474
                                                                        41.5004
        27.0004
 -10532454.87548  -8154326.19545
                  21786344.0084                                   21786338.5204
                                                                        49.2504
        34.0004
  -7013793.73847  -5422654.67644
                  22853453.9304                                   22853451.6054
                                                                        44.0004
        28.0004
  -7417099.45746  -5740394.76644
                  23901103.7344                                   23901099.8244
                                                                        40.0004
        27.5004
 09 10  4  0 10  0.0000000  0  9G02G04G12G13G29G10G23G30G31
 -17261966.94548 -13382748.31647
                  20509983.0704                                   20509977.8014
                                                                        52.5004
        42.5004
  -7565935.06648  -5853144.37546
                  20756836.0394                                   20756833.2504
                                                                        51.5004
        41.0004
   -803549.79347   -606008.47744
                  24147877.9454                                   24147874.0634
                                                                        44.5004
        29.0004
 -19998838.14848 -15510805.59845
                  21550366.2114                                   21550362.6604
                                                                        49.7504
        34.5004
  -2200275.50846  -1674285.53944
                  23892580.3674                                   23892578.1954
                                                                        39.7504
        26.0004
   -115182.86347    -46188.43044
                  23826157.0784                                   23826153.9454
                                                                        43.0004
        27.7504
 -10589638.39148  -8198884.87145
                  21775462.2194                                   21775456.8244
                                                                        49.2504
        34.0004
  -7041485.72747  -5444232.85544
                  22848184.7274                                   22848182.2114
                                                                        45.5004
        28.7504
  -7452227.59046  -5767767.31244
                  23894418.8524                                   23894415.7034
                                                                        40.0004
        27.0004
 09 10  4  0 10 30.0000000  0  9G02G04G12G13G29G10G23G30G31
 -15807304.05548 -12249244.67647
                  20786796.3674                                   20786790.6954
                                                                        52.0004
        42.5004
  -6027434.22748  -4654312.61346
                  21049602.9694                                   21049600.2734
                                                                        52.7504
        41.5004
    780983.87147    628693.07844
                  24449404.5634                                   24449400.8094
                                                                        44.0004
        28.2504
 -18565475.50848 -14393899.60545
                  21823126.2504                                   21823122.0044
                                                                        49.5004
        35.5004
   -807772.00046   -589217.91844
                  24157564.8524                                   24157562.4804
                                                                        39.5004
        26.0004
   1257229.58647   1023223.93444
                  24087318.4454                                   24087316.1374
                                                                        43.0004
        29.5004
  -9070752.00848  -7015337.14145
                  22064497.0634                                   22064491.7504
                                                                        48.7504
        34.7504
  -5493152.86347  -4237739.71544
                  23142822.2584                                   23142820.3524
                                                                        44.5004
        29.0004
  -5911380.47747  -4567107.26644
                  24187632.5164                                   24187629.0984
                                                                        42.2504
        26.5004
 09 10  4  0 11  0.0000000  0  9G02G04G12G13G29G10G23G30G31
 -15927497.26648 -12342901.66847
                  20763923.9224                                   20763918.3484
                                                                        52.2504
        42.0004
  -6063813.79748  -4682660.30146
                  21042680.2584                                   21042677.4574
                                                                        53.5004
        41.2504
    790414.87947    636041.89544
                  24451199.1564                                   24451195.5864
                                                                        43.5004
        27.2504
 -18706916.55948 -14504113.39145
                  21796210.8674                                   21796206.8794
                                                                        49.5004
        35.0004
   -990379.49246   -731509.42244
                  24122815.9224                                   24122813.6524
                                                                        39.0004
        24.0004
   1054406.80947    865180.27744
                  24048722.4384                                   24048719.8014
                                                                        42.7504
        26.2504
  -9126642.28548  -7058888.02045
                  22053861.3204                                   22053855.8134
                                                                        48.7504
        34.0004
  -5519641.26647  -4258379.97344
                  23137781.6334                                   23137779.6094
                                                                        44.5004
        29.5004
  -5945404.41047  -4593619.45744
                  24181158.2504                                   24181154.3674
                                                                        42.2504
        26.5004
 09 10  4  0 11 30.0000000  0  9G02G04G12G13G29G10G23G30G31
 -16047125.20348 -12436118.23847
                  20741159.6484                                   20741154.0124
                                                                        52.5004
        42.7504
  -6099657.41448  -4710590.34046
                  21035859.3914                                   21035856.1644
                                                                        51.2504
        41.5004
    800156.45747    643632.70744
                  24453052.7344                                   24453049.7774
                                                                        42.0004
        27.0004
 -18847738.25048 -14613844.55945
                  21769413.2814                                   21769409.3444
                                                                        49.5004
        35.0004
  -1172672.73446   -873555.98844
                  24088126.2034                                   24088123.8874
                                                                        40.0004
        26.2504
    851774.21546    707284.81344
                  24010162.6564                                   24010159.8984
                                                                        41.0004
        25.0004
  -9181892.54748  -7101940.18745
                  22043347.1884                                   22043341.4104
                                                                        49.0004
        34.7504
  -5545536.02047  -4278557.69144
                  23132854.5864                                   23132852.0824
                                                                        44.7504
        29.7504
  -5978883.65246  -4619707.16044
                  24174787.2664                                   24174783.8054
                                                                        40.0004
        26.0004
 09 10  4  0 12  0.0000000  0  9G02G04G12G13G29G10G23G30G31
 -16166181.87948 -12528889.59847
                  20718503.6884                                   20718498.1644
                                                                        51.5004
        42.0004
  -6134962.43748  -4738100.71546
                  21029141.0394                                   21029137.7704
                                                                        52.7504
        41.7504
    810210.09047    651466.67244
                  24454966.0164                                   24454963.4264
                                                                        42.5004
        27.2504
 -18987934.58248 -14723088.46545
                  21742734.7734                                   21742731.2074
                                                                        49.2504
        35.0004
  -1354645.48446  -1015352.82444
                  24053498.0314                                   24053496.2584
                                                                        41.5004
        29.0004
    649338.13746    549542.41044
                  23971639.9224                                   23971637.3364
                                                                        41.2504
        24.5004
  -9236499.88748  -7144491.46945
                  22032955.8444                                   22032950.6024
                                                                        48.2504
        33.2504
  -5570835.60547  -4298271.68745
                  23128040.6094                                   23128037.6564
                                                                        45.0004
        30.5004
  -6011815.71546  -4645368.52344
                  24168520.2424                                   24168516.7854
                                                                        40.2504
        26.2504
 09 10  4  0 12 30.0000000  0  9G02G04G12G13G29G10G23G30G31
 -16284665.82848 -12621214.74647
                  20695957.0864                                   20695951.8014
                                                                        52.2504
        43.5004
  -6169729.73048  -4765192.10546
                  21022524.8984                                   21022521.7974
                                                                        53.0004
        40.7504
    820573.12947    659541.69544
                  24456937.6024                                   24456935.1724
                                                                        42.2504
        27.0004
 -19127502.93448 -14831843.03545
                  21716175.8284                                   21716171.8094
                                                                        49.7504
        35.7504
  -1536294.64846  -1156897.46944
                  24018931.3754                                   24018929.4104
                                                                        41.2504
        27.2504
    447101.31646    391955.34444
                  23933155.8524                                   23933153.2624
                                                                        41.2504
        25.2504
  -9290464.77748  -7186542.12945
                  22022686.9534                                   22022681.4884
                                                                        48.7504
        33.5004
  -5595541.83247  -4317523.30945
                  23123338.2974                                   23123336.1414
                                                                        45.5004
        30.2504
  -6044202.23447  -4670604.76244
                  24162357.5554                                   24162354.0744
                                                                        42.7504
        28.5004
 09 10  4  0 13  0.0000000  0  9G02G04G12G13G29G10G23G30G31
 -16402575.96148 -12713092.78547
                  20673519.6024                                   20673514.4344
                                                                        52.0004
        43.0004
  -6203960.72748  -4791865.64146
                  21016011.2734                                   21016008.3014
                                                                        52.2504
        41.2504
    831242.53947    667855.49644
                  24458968.7274                                   24458965.1054
                                                                        42.7504
        27.2504
 -19266440.98448 -14940106.35245
                  21689736.6254                                   21689732.7114
                                                                        50.0004
        35.7504
  -1717617.60546  -1298187.98844
                  23984426.3674                                   23984424.6724
                                                                        40.0004
        27.2504
    245065.83647    234525.14144
                  23894710.0704                                   23894707.6484
                                                                        42.7504
        28.0004
  -9343788.10548  -7228092.81645
                  22012540.0004                                   22012534.6174
                                                                        49.0004
        34.0004
  -5619657.03947  -4336314.39844
                  23118749.5234                                   23118747.2934
                                                                        44.7504
        29.2504
  -6076044.85246  -4695417.17244
                  24156297.5704                                   24156294.5434
                                                                        41.7504
        27.5004
 09 10  4  0 13 30.0000000  0  9G02G04G12G13G29G10G23G30G31
 -16519913.61348 -12804524.69947
                  20651190.7194                                   20651185.3834
                                                                        52.7504
        42.5004
  -6237659.37548  -4818124.34846
                  21009598.2274                                   21009595.5004
                                                                        52.2504
        41.5004
    842213.18447    676404.13344
                  24461056.5944                                   24461052.8244
                                                                        43.7504
        26.2504
 -19404750.70748 -15047880.16445
                  21663417.2274                                   21663413.3594
                                                                        50.0004
        35.5004
  -1898614.72746  -1439224.70744
                  23949983.2734                                   23949982.1994
                                                                        40.5004
        27.0004
     43231.50447     77251.67644
                  23856302.3914                                   23856299.4964
                                                                        43.5004
        28.2504
  -9396474.13748  -7269146.94945
                  22002514.3204                                   22002508.4884
                                                                        49.0004
        34.0004
  -5643186.45747  -4354649.07044
                  23114272.1644                                   23114269.6724
                                                                        45.2504
        27.7504
  -6107348.59846  -4719809.72744
                  24150340.5784                                   24150337.6524
                                                                        41.0004
        27.5004
 09 10  4  0 14  0.0000000  0  9G02G04G12G13G29G10G23G30G31
 -16636676.25048 -12895508.50847
                  20628971.8444                                   20628966.2664
                                                                        52.2504
        42.7504
  -6270825.89548  -4843968.37146
                  21003287.3284                                   21003284.4654
                                                                        52.2504
        41.0004
    853482.64847    685185.52044
                  24463201.0314                                   24463197.1094
                                                                        43.5004
        26.0004
 -19542428.51248 -15155161.54745
                  21637218.2344                                   21637214.2424
                                                                        50.0004
        35.2504
  -2079282.35946  -1580004.80544
                  23915604.1094                                   23915601.6684
                                                                        40.2504
        26.5004
   -158398.51647    -79862.62144
                  23817933.3134                                   23817930.6914
                                                                        42.7504
        27.5004
  -9448522.87948  -7309704.50445
                  21992609.6954                                   21992604.3794
                                                                        48.7504
        34.5004
  -5666131.08647  -4372528.07844
                  23109906.3524                                   23109903.5084
                                                                        44.0004
        27.0004
  -6138114.15246  -4743783.04344
                  24144486.3054                                   24144483.6134
                                                                        41.5004
        27.0004
 09 10  4  0 14 30.0000000  0  9G02G04G12G13G29G10G23G30G31
 -16752863.13348 -12986043.76247
                  20606862.1644                                   20606856.7304
                                                                        52.2504
        43.0004
  -6303461.60948  -4869398.79746
                  20997076.6334                                   20997073.8874
                                                                        53.0004
        41.0004
    865048.75847    694198.03944
                  24465402.1954                                   24465397.7234
                                                                        42.0004
        26.0004
 -19679472.43748 -15261949.07045
                  21611139.3914                                   21611135.4964
                                                                        49.7504
        35.0004
  -2259617.30946  -1720525.54344
                  23881287.1484                                   23881284.6954
                                                                        40.7504
        25.0004
   -359821.95747   -236815.91444
                  23779603.4924                                   23779601.2854
                                                                        43.0004
        28.0004
  -9499935.16448  -7349766.03945
                  21982826.5944                                   21982820.9384
                                                                        49.0004
        34.5004
  -5688493.20747  -4389953.09044
                  23105650.2504                                   23105648.1174
                                                                        44.0004
        26.7504
  -6168343.28547  -4767338.30944
                  24138734.7734                                   24138731.1954
                                                                        42.0004
        26.5004
 09 10  4  0 15  0.0000000  0  9G02G04G12G13G29G10G23G30G31
 -16868477.34448 -13076132.76647
                  20584861.3674                                   20584856.1254
                                                                        52.2504
        42.5004
  -6335572.69148  -4894420.36346
                  20990966.2894                                   20990963.4774
                                                                        53.2504
        41.0004
    876903.29746    703435.34844
                  24467657.4924                                   24467653.8204
                                                                        40.5004
        26.2504
 -19815885.20348 -15368244.84046
                  21585181.1174                                   21585177.3244
                                                                        50.2504
        36.0004
  -2439621.92647  -1860788.87144
                  23847033.3364                                   23847031.3674
                                                                        42.0004
        26.0004
   -561041.04747   -393610.00444
                  23741313.0554                                   23741309.9734
                                                                        43.0004
        26.5004
  -9550717.09848  -7389336.34045
                  21973162.9144                                   21973157.7464
                                                                        48.7504
        35.0004
  -5710280.51647  -4406930.23044
                  23101504.1954                                   23101501.4774
                                                                        44.0004
        26.5004
  -6198042.73447  -4790480.97744
                  24133082.4064                                   24133079.6484
                                                                        42.5004
        25.5004
 09 10  4  0 15 30.0000000  0  9G02G04G12G13G29G10G23G30G31
 -16983515.94948 -13165773.24647
                  20562970.3284                                   20562965.1094
                                                                        52.2504
        42.5004
  -6367158.76248  -4919032.89846
                  20984955.3984                                   20984952.7894
                                                                        52.7504
        41.0004
    889045.39146    712896.67244
                  24469968.4694                                   24469964.9384
                                                                        40.7504
        26.0004
 -19951662.97348 -15474045.73446
                  21559343.6334                                   21559339.8444
                                                                        50.2504
        36.0004
  -2619291.72347  -2000791.20344
                  23812843.4844                                   23812841.2814
