     2.11           OBSERVATION DATA    G (GPS)             RINEX VERSION / TYPE
teqc  2019Feb25                         20221121 12:28:40UTCPGM / RUN BY / DATE
OSX ker:10.11.6|Core i5|gcc 4.3 -m64|OSX ker:10.10+|=+      COMMENT
BIT 2 OF LLI FLAGS DATA COLLECTED UNDER A/S CONDITION       COMMENT
04712970                                                    MARKER NAME
2970                                                        MARKER NUMBER
-Unknown-           -Unknown-                               OBSERVER / AGENCY
0220400471          TRIMBLE R7          2.30                REC # / TYPE / VERS
-Unknown-           TRM39105.00     NONE                    ANT # / TYPE
  1449458.4334 -1709242.5729  5952442.7973                  APPROX POSITION XYZ
        0.0000        0.0000        0.0000                  ANTENNA: DELTA H/E/N
     1     1                                                WAVELENGTH FACT L1/2
    20    L1    L2    L5    L6    L7    L8    C1    P1    C2# / TYPES OF OBSERV
          P2    C5    C6    C7    C8    S1    S2    S5    S6# / TYPES OF OBSERV
          S7    S8                                          # / TYPES OF OBSERV
    30.0000                                                 INTERVAL
    15                                                      LEAP SECONDS
Forced Modulo Decimation to 30 seconds                      COMMENT
 SNR is mapped to RINEX snr flag value [0-9]                COMMENT
  L1 & L2: min(max(int(snr_dBHz/6), 0), 9)                  COMMENT
teqc edited: Beidou # 1 - 37 excluded                       COMMENT
  2009    10    24     0     0    0.0000000     GPS         TIME OF FIRST OBS
                                                            END OF HEADER
 09 10 24  0  0  0.0000000  0 10G02G04G05G10G13G23G25G29G16G07
  -7725316.23848  -5974839.21946
                  20676875.2034                                   20676869.4924
                                                                        52.2504
        41.5004
   -484182.72747   -368052.94945
                  23059596.7734                                   23059593.7774
                                                                        46.5004
        30.7504
 -19203894.31648 -14879351.97746
                  21744807.7274                                   21744803.8364
                                                                        50.0004
        39.5004
 -18175375.67648 -14080042.47346
                  21011024.0944                                   21011020.7274
                                                                        51.2504
        40.5004
  -8989058.95348  -6952409.97745
                  21303986.1724                                   21303981.4064
                                                                        49.5004
        35.2504
  -1804289.85947  -1388566.70744
                  23572701.0234                                   23572693.9844
                                                                        42.0004
        24.0004
 -16242930.37147 -12638150.96144
                  22778247.0704                                   22778242.6054
                                                                        43.7504
        29.2504
 -15198613.33648 -11770464.12946
                  22011742.5474                                   22011739.3134
                                                                        50.0004
        37.5004
  -4561873.60946  -3516554.16443
                  23905240.2814                                   23905235.0944
                                                                        40.7504
        22.2504
  -3480982.58646  -2693401.88344
                  24002275.8674                                   24002273.4534
                                                                        38.7504
        25.5004
 09 10 24  0  0 30.0000000  0 10G02G04G05G10G13G23G25G29G16G07
  -7771544.60248  -6010861.34446
                  20668078.4694                                   20668072.1644
                                                                        52.5004
        41.7504
   -471288.61347   -358005.62545
                  23062050.6094                                   23062047.4734
                                                                        47.0004
        30.7504
 -19378707.25448 -15015569.82046
                  21711542.0314                                   21711537.9454
                                                                        50.0004
        40.5004
 -18334447.46148 -14203994.52046
                  20980753.9454                                   20980750.2584
                                                                        51.0004
        40.2504
  -9043921.89548  -6995160.30545
                  21293545.9224                                   21293541.1094
                                                                        49.2504
        35.5004
  -1799674.36747  -1384970.24243
                  23573578.9064                                   23573572.8554
                                                                        42.0004
        22.0004
 -16385221.01647 -12749026.78545
                  22751169.8834                                   22751165.4844
                                                                        43.0004
        30.0004
 -15321835.96948 -11866481.75846
                  21988294.0554                                   21988290.6294
                                                                        49.2504
        38.0004
  -4709541.77046  -3631620.26643
                  23877140.1804                                   23877134.8324
                                                                        41.2504
        21.7504
  -3668292.19546  -2839357.34044
                  23966632.5234                                   23966629.6174
                                                                        38.5004
        26.5004
 09 10 24  0  1  0.0000000  0 10G02G04G05G10G13G23G25G29G16G07
  -7817200.15648  -6046437.12147
                  20659390.7734                                   20659384.6994
                                                                        52.5004
        42.0004
   -458140.88347   -347760.65245
                  23064552.7114                                   23064549.2854
                                                                        46.5004
        30.7504
 -19553120.50448 -15151476.21146
                  21678352.2814                                   21678348.5514
                                                                        50.2504
        40.5004
 -18493013.46948 -14327552.41046
                  20950579.8914                                   20950576.3284
                                                                        52.0004
        40.2504
  -9098138.86348  -7037407.31245
                  21283228.9844                                   21283224.3244
                                                                        49.7504
        35.7504
  -1794722.02347  -1381111.26643
                  23574521.9384                                   23574514.9734
                                                                        42.7504
        22.5004
 -16526968.89547 -12859479.66444
                  22724195.7974                                   22724192.0554
                                                                        43.5004
        29.2504
 -15444445.00848 -11962021.27346
                  21964962.3834                                   21964958.9264
                                                                        49.5004
        38.0004
  -4856661.39546  -3746258.98043
                  23849144.3364                                   23849138.9454
                                                                        40.7504
        21.5004
  -3855273.53146  -2985056.93044
                  23931051.0314                                   23931047.4024
                                                                        41.2504
        24.5004
 09 10 24  0  1 30.0000000  0 10G02G04G05G10G13G23G25G29G16G07
  -6286859.26648  -4853963.73447
                  20950604.7894                                   20950598.6414
                                                                        52.5004
        42.2504
   1130681.19547    890282.50844
                  23366895.2504                                   23366891.7344
                                                                        45.0004
        29.5004
 -18151701.80548 -14059461.62546
                  21945033.2974                                   21945029.6884
                                                                        50.0004
        40.2504
 -17075642.77748 -13223107.71946
                  21220296.5234                                   21220293.2034
                                                                        51.5004
        40.2504
  -7576286.50048  -5851548.31645
                  21572827.4774                                   21572823.3444
                                                                        49.5004
        35.2504
   -214012.52747   -149389.57843
                  23875320.6024                                   23875314.1844
                                                                        42.5004
        23.7504
 -15092744.78547 -11741902.43445
                  22997119.7814                                   22997115.9224
                                                                        43.0004
        30.0004
 -13991010.81648 -10829475.14146
                  22241541.6564                                   22241538.1644
                                                                        49.5004
        37.7504
  -3427801.95346  -2632862.01643
                  24121046.9694                                   24121041.4384
                                                                        40.0004
        21.5004
  -2466495.05147  -1902891.73844
                  24195327.3834                                   24195322.3594
                                                                        43.5004
        24.5004
 09 10 24  0  2  0.0000000  0 10G02G04G05G10G13G23G25G29G16G07
  -6331366.73448  -4888644.89146
                  20942135.2734                                   20942129.1644
                                                                        52.5004
        41.5004
   1144335.68847    900922.34044
                  23369493.3054                                   23369490.4804
                                                                        44.5004
        29.0004
 -18325302.42648 -14194734.80146
                  21911998.3204                                   21911994.2504
                                                                        50.5004
        40.5004
 -17233185.41848 -13345868.20746
                  21190316.9304                                   21190313.9454
                                                                        51.0004
        40.5004
  -7629210.19948  -5892787.55945
                  21562756.5784                                   21562752.1374
                                                                        49.2504
        35.2504
   -208388.05547   -145006.88344
                  23876390.7664                                   23876384.9064
                                                                        43.0004
        25.5004
 -15233396.24647 -11851500.96544
                  22970354.2894                                   22970350.6414
                                                                        42.2504
        29.0004
 -14112381.44148 -10924049.64846
                  22218445.2584                                   22218442.2504
                                                                        49.5004
        38.0004
  -3573811.63346  -2746635.82043
                  24093262.6334                                   24093257.1994
                                                                        41.0004
        22.2504
  -2652806.29347  -2048069.21144
                  24159873.4384                                   24159868.1094
                                                                        43.0004
        24.5004
 09 10 24  0  2 30.0000000  0 10G02G04G05G10G13G23G25G29G16G07
  -6375303.78148  -4922881.57847
                  20933774.3524                                   20933768.2504
                                                                        52.0004
        42.0004
   1158239.22747    911756.20344
                  23372139.2974                                   23372136.4304
                                                                        44.0004
        29.5004
 -18498495.59848 -14329690.49646
                  21879040.6954                                   21879036.6374
                                                                        50.5004
        41.0004
 -17390215.20348 -13468229.07046
                  21160435.4454                                   21160431.6844
                                                                        51.7504
        40.2504
  -7681490.76248  -5933525.65245
                  21552808.1254                                   21552803.4024
                                                                        48.7504
        35.5004
   -202432.87547   -140366.44543
                  23877524.3284                                   23877517.5984
                                                                        42.0004
        22.0004
 -15373498.12147 -11960671.25044
                  22943694.4064                                   22943689.9264
                                                                        42.0004
        29.0004
 -14233132.92648 -11018141.70746
                  22195467.6884                                   22195464.0124
                                                                        50.2504
        38.0004
  -3719265.12146  -2859976.21943
                  24065582.7194                                   24065577.9184
                                                                        38.5004
        21.5004
  -2838779.22347  -2192983.11744
                  24124484.3364                                   24124479.0314
                                                                        44.0004
        25.0004
 09 10 24  0  3  0.0000000  0 10G02G04G05G10G13G23G25G29G16G07
  -6418672.59448  -4956675.49646
                  20925521.6414                                   20925515.8634
                                                                        52.7504
        41.5004
   1172387.92247    922781.11344
                  23374831.4534                                   23374828.5394
                                                                        43.7504
        29.0004
 -18671280.95348 -14464328.42246
                  21846160.8524                                   21846156.5594
                                                                        51.0004
        41.0004
 -17546732.22748 -13590190.37946
                  21130651.4144                                   21130647.5204
                                                                        52.0004
        40.5004
  -7733131.58648  -5973765.25445
                  21542980.8754                                   21542976.3484
                                                                        48.5004
        35.2504
   -196151.27346   -135471.68444
                  23878719.1094                                   23878713.3444
                                                                        41.0004
        24.0004
 -15513050.34847 -12069413.21544
                  22917137.9844                                   22917134.0784
                                                                        43.7504
        28.7504
 -14353265.27748 -11111751.32446
                  22172607.3364                                   22172603.2344
                                                                        51.0004
        37.5004
  -3864161.61346  -2972882.60243
                  24038009.8364                                   24038005.8284
                                                                        39.7504
        21.5004
  -3024412.60947  -2337632.47344
                  24089158.1024                                   24089154.4024
                                                                        44.2504
        24.0004
 09 10 24  0  3 30.0000000  0 10G02G04G05G10G13G23G25G29G16G07
  -6461473.45348  -4990026.86746
                  20917376.9614                                   20917371.2234
                                                                        51.7504
        41.7504
   1186780.65647    933996.17644
                  23377570.9774                                   23377567.6134
                                                                        44.0004
        29.2504
 -18843655.56248 -14598646.29346
                  21813358.9844                                   21813354.5904
                                                                        50.2504
        40.2504
 -17702733.93448 -13711750.15246
                  21100964.8674                                   21100961.5634
                                                                        52.0004
        40.7504
  -7784133.19948  -6013506.73445
                  21533275.9614                                   21533271.4224
                                                                        48.2504
        34.2504
   -189544.91446   -130323.91044
                  23879976.7664                                   23879970.4414
                                                                        40.7504
        24.0004
 -15652050.16847 -12177724.75444
                  22890687.3134                                   22890683.2734
                                                                        43.7504
        29.0004
 -14472776.75848 -11204877.15246
                  22149864.7734                                   22149861.3754
                                                                        50.0004
        38.5004
  -4008498.08246  -3085352.56243
                  24010544.0784                                   24010539.6174
                                                                        38.7504
        22.5004
  -3209702.44547  -2482014.07844
                  24053898.4774                                   24053894.5004
                                                                        42.7504
        26.2504
 09 10 24  0  4  0.0000000  0 10G02G04G05G10G13G23G25G29G16G07
  -6503707.92648  -5022936.87546
                  20909339.8914                                   20909333.8364
                                                                        52.7504
        41.5004
   1201414.71547    945399.25844
                  23380355.7194                                   23380352.2854
                                                                        46.0004
        29.7504
 -19015617.87148 -14732642.87146
                  21780635.1954                                   21780631.6054
                                                                        49.5004
        40.5004
 -17858218.80948 -13832907.18446
                  21071377.0704                                   21071373.4534
                                                                        52.0004
        40.5004
  -7834497.96547  -6052752.01245
                  21523691.3364                                   21523687.1994
                                                                        47.5004
        34.2504
   -182616.61347   -124925.29744
                  23881294.4614                                   23881289.1254
                                                                        42.0004
        25.0004
 -15790496.49247 -12285605.00044
                  22864341.8984                                   22864337.7734
                                                                        44.0004
        29.5004
 -14591666.38748 -11297518.43046
                  22127240.8364                                   22127237.2504
                                                                        49.7504
        38.5004
  -4152273.09046  -3197385.03543
                  23983185.1414                                   23983179.8984
                                                                        39.5004
        22.5004
  -3394646.48846  -2626126.21944
                  24018704.6954                                   24018701.5234
                                                                        41.5004
        24.5004
 09 10 24  0  4 30.0000000  0 10G02G04G05G10G13G23G25G29G16G07
  -6545375.35948  -5055405.00446
                  20901410.8984                                   20901404.9654
                                                                        52.2504
        41.2504
   1216290.70747    956990.88744
                  23383186.9774                                   23383183.2304
                                                                        45.0004
        29.7504
 -19187164.64848 -14866315.68446
                  21747991.3134                                   21747987.2624
                                                                        49.5004
        40.5004
 -18013183.24648 -13953658.66846
                  21041888.6484                                   21041884.6524
                                                                        52.5004
        40.2504
  -7884225.14547  -6091500.47345
                  21514228.7504                                   21514224.3164
                                                                        47.2504
        34.7504
   -175367.11347   -119276.36343
                  23882674.5234                                   23882668.2304
                                                                        43.5004
        23.0004
 -15928385.36747 -12393050.87544
                  22838102.6484                                   22838098.2934
                                                                        44.5004
        28.7504
 -14709931.27348 -11389672.89546
                  22104735.5314                                   22104732.2894
                                                                        50.0004
        38.2504
  -4295483.05546  -3308977.18443
                  23955933.1024                                   23955928.3874
                                                                        40.0004
        22.7504
  -3579238.96547  -2769964.31644
                  23983577.8524                                   23983574.5554
                                                                        42.5004
        26.5004
 09 10 24  0  5  0.0000000  0 10G02G04G05G10G13G23G25G29G16G07
  -6586481.20748  -5087435.53947
                  20893588.4384                                   20893582.6994
                                                                        52.5004
        42.0004
   1231402.00847    968765.84044
                  23386061.9534                                   23386059.3014
                                                                        45.0004
        29.7504
 -19358298.08648 -14999666.43046
                  21715425.8914                                   21715422.1134
                                                                        50.5004
        40.0004
 -18167630.33248 -14074007.07046
                  21012498.1724                                   21012494.2384
                                                                        52.0004
        41.0004
  -7933320.40248  -6129756.52045
                  21504886.2664                                   21504881.7234
                                                                        48.0004
        34.0004
   -167802.70347   -113382.00443
                  23884114.0394                                   23884106.9024
                                                                        44.0004
        22.2504
 -16065719.10547 -12500064.18044
                  22811968.9614                                   22811964.6604
                                                                        45.0004
        29.0004
 -14827575.18048 -11481343.48046
                  22082349.0084                                   22082345.1804
                                                                        49.7504
        38.5004
  -4438129.85246  -3420130.53943
                  23928788.2584                                   23928784.0664
                                                                        41.2504
        23.0004
  -3763481.39847  -2913529.72744
                  23948518.1804                                   23948514.3634
                                                                        44.0004
        27.2504
 09 10 24  0  5 30.0000000  0 10G02G04G05G10G13G23G25G29G16G07
  -6627028.11748  -5119030.54747
                  20885872.7504                                   20885867.0554
                                                                        52.2504
        42.0004
   1246745.12547    980721.40244
                  23388982.2734                                   23388979.1454
                                                                        44.5004
        28.5004
 -19529017.57448 -15132694.56246
                  21682938.7274                                   21682935.4304
                                                                        48.7504
        41.2504
 -18321559.58648 -14193951.91846
                  20983206.6024                                   20983202.1954
                                                                        52.5004
        40.5004
  -7981787.34447  -6167523.04345
                  21495663.2114                                   21495658.9414
                                                                        46.7504
        35.0004
   -159928.10547   -107245.89543
                  23885613.0944                                   23885605.2974
                                                                        44.0004
        21.7504
 -16202497.86347 -12606645.03544
                  22785941.0864                                   22785936.3244
                                                                        44.7504
        29.2504
 -14944598.03548 -11572530.12546
                  22060080.6484                                   22060077.1134
                                                                        50.5004
        38.2504
  -4580213.23446  -3530844.83244
                  23901750.4064                                   23901745.8134
                                                                        41.7504
        24.0004
  -3947372.67647  -3056821.55944
                  23913524.5634                                   23913520.6414
                                                                        44.0004
        27.5004
 09 10 24  0  6  0.0000000  0 10G02G04G05G10G13G23G25G29G16G07
  -6667016.77048  -5150190.55546
                  20878263.1484                                   20878257.4184
                                                                        53.0004
        41.2504
   1262318.57447    992856.49244
                  23391945.1174                                   23391942.5664
                                                                        44.0004
        28.0004
 -19699320.56248 -15265398.19946
                  21650531.4304                                   21650527.2894
                                                                        50.2504
        40.7504
 -18474968.74248 -14313491.48446
                  20954013.4064                                   20954009.6414
                                                                        52.5004
        40.7504
  -8029626.77047  -6204800.56645
                  21486559.5864                                   21486555.5124
                                                                        47.7504
        35.2504
   -151745.14547   -100869.48843
                  23887170.5394                                   23887163.1454
                                                                        43.2504
        22.5004
 -16338719.39847 -12712791.69544
                  22760018.6724                                   22760014.2734
                                                                        44.5004
        29.5004
 -15060997.81648 -11663231.25846
                  22037930.2194                                   22037926.8754
                                                                        50.5004
        38.5004
  -4721730.48046  -3641117.99644
                  23874820.8524                                   23874815.9264
                                                                        41.0004
        25.0004
  -4130909.30147  -3199837.03544
                  23878599.0634                                   23878595.0474
                                                                        44.7504
        28.0004
 09 10 24  0  6 30.0000000  0 10G02G04G05G10G13G23G25G29G16G07
  -6706448.42648  -5180916.52046
                  20870759.7034                                   20870753.9224
                                                                        53.0004
        41.0004
   1278120.73447   1005169.82444
                  23394952.3834                                   23394949.6844
                                                                        45.0004
        28.7504
 -19869205.24648 -15397775.85946
                  21618203.3284                                   21618199.3794
                                                                        50.0004
        40.0004
 -18627856.43048 -14432624.75846
                  20924919.6564                                   20924915.8484
                                                                        52.2504
        40.5004
  -8076840.07448  -6241590.16045
                  21477575.6564                                   21477571.1604
                                                                        48.0004
        34.7504
   -143256.40246    -94254.87543
                  23888784.9224                                   23888778.3834
                                                                        40.0004
        21.0004
 -16474381.82047 -12818502.68044
                  22734202.9534                                   22734198.7384
                                                                        44.2504
        28.7504
 -15176774.00448 -11753446.46946
                  22015898.8984                                   22015895.0594
                                                                        50.7504
        37.7504
  -4862680.04746  -3750948.82044
                  23847998.7974                                   23847993.5394
                                                                        41.5004
        24.2504
  -4314088.01647  -3342573.59444
                  23843740.9384                                   23843736.7934
                                                                        45.0004
        27.2504
 09 10 24  0  7  0.0000000  0 10G02G04G05G10G13G23G25G29G16G07
  -6745324.49648  -5211209.55546
                  20863362.0004                                   20863356.1054
                                                                        53.0004
        41.2504
   1294149.11347   1017659.45344
                  23398002.5164                                   23397999.3794
                                                                        45.0004
        29.2504
 -20038669.94548 -15529826.25046
                  21585955.0084                                   21585951.0514
                                                                        51.0004
        41.0004
 -18780220.94548 -14551350.33646
                  20895925.9924                                   20895922.2854
                                                                        52.7504
        40.5004
  -8123429.08648  -6277893.25845
                  21468709.9924                                   21468705.4384
                                                                        48.0004
        34.2504
   -134463.98046    -87403.68743
                  23890457.3204                                   23890451.8094
                                                                        38.5004
        21.2504
 -16609483.46147 -12923776.69144
                  22708494.0084                                   22708489.5434
                                                                        45.2504
        29.5004
 -15291925.62948 -11843175.00446
                  21993985.8364                                   21993982.4414
                                                                        50.2504
        38.0004
  -5003059.44547  -3860335.35543
                  23821285.6644                                   23821280.5044
                                                                        42.5004
        22.2504
  -4496905.44947  -3485028.69944
                  23808952.0234                                   23808947.3524
                                                                        43.5004
        26.0004
 09 10 24  0  7 30.0000000  0 10G02G04G05G10G13G23G25G29G16G07
  -6783648.74648  -5241072.60547
                  20856069.0474                                   20856062.9144
                                                                        53.0004
        42.0004
   1310398.87947   1030321.55944
                  23401095.1174                                   23401092.0904
                                                                        46.0004
        29.5004
 -20207715.48048 -15661550.02346
                  21553786.7894                                   21553782.7894
                                                                        50.7504
        41.0004
 -18932063.48448 -14669669.18046
                  20867031.3204                                   20867027.4774
                                                                        52.5004
        40.7504
  -8169398.87548  -6313713.86745
                  21459962.5314                                   21459957.2974
                                                                        48.7504
        34.0004
   -125373.89546    -80320.55544
                  23892187.3204                                   23892182.1644
                                                                        40.5004
        24.2504
 -16744025.99647 -13028615.04744
                  22682891.5784                                   22682887.6214
                                                                        45.5004
        28.7504
 -15406454.25848 -11932418.08246
                  21972191.9614                                   21972188.2504
                                                                        50.5004
        38.2504
  -5142870.44547  -3969279.00043
                  23794680.7974                                   23794674.7894
                                                                        42.5004
        21.7504
  -4679362.20347  -3627202.77044
                  23774231.9534                                   23774227.0394
                                                                        44.5004
        25.7504
 09 10 24  0  8  0.0000000  0 10G02G04G05G10G13G23G25G29G16G07
  -6821422.45748  -5270506.64846
                  20848880.9064                                   20848874.9224
                                                                        53.0004
        41.0004
   1326868.50847   1043155.02745
                  23404229.0474                                   23404226.3134
                                                                        46.5004
        30.0004
 -20376340.28948 -15792945.96146
                  21521698.5164                                   21521694.3984
                                                                        50.7504
        40.7504
 -19083382.05548 -14787579.74246
                  20838236.4454                                   20838232.5634
                                                                        51.7504
        40.7504
  -8214750.30948  -6349052.62145
                  21451331.8674                                   21451327.6914
                                                                        48.5004
        34.2504
   -115988.19947    -73007.04744
                  23893973.5164                                   23893968.0274
                                                                        42.0004
        25.5004
 -16878006.85247 -13133015.71945
                  22657395.7194                                   22657391.7934
                                                                        45.7504
        30.0004
 -15520359.27748 -12021175.24246
                  21950516.5234                                   21950512.8284
                                                                        50.0004
        38.5004
  -5282110.59847  -4077777.84043
                  23768183.4454                                   23768178.3324
                                                                        42.5004
        21.0004
  -4861454.25047  -3769092.65244
                  23739580.3594                                   23739576.0234
                                                                        42.7504
        26.2504
 09 10 24  0  8 30.0000000  0 10G02G04G05G10G13G23G25G29G16G07
  -6858647.51248  -5299513.17246
                  20841797.1334                                   20841791.5434
                                                                        53.0004
        41.2504
   1343555.23047   1056157.62944
                  23407404.2734                                   23407401.3794
                                                                        44.7504
        28.2504
 -20544542.96948 -15924012.98446
                  21489690.7034                                   21489686.7624
                                                                        50.5004
        41.0004
 -19234176.03148 -14905081.54346
                  20809541.2274                                   20809537.5984
                                                                        51.0004
        41.0004
  -8259485.73048  -6383911.38745
                  21442819.2424                                   21442814.5554
                                                                        48.0004
        34.2504
   -106310.13747    -65465.71544
                  23895816.4384                                   23895809.9844
                                                                        43.0004
        27.0004
 -17011425.48447 -13236978.30544
                  22632007.5474                                   22632003.3094
                                                                        45.5004
        29.5004
 -15633639.78148 -12109445.75846
                  21928959.7344                                   21928956.3364
                                                                        50.0004
        38.5004
  -5420778.39547  -4185830.69543
                  23741796.2194                                   23741790.9384
                                                                        42.0004
        22.0004
  -5043179.30746  -3910696.49444
                  23704998.9454                                   23704994.9534
                                                                        41.7504
        24.0004
 09 10 24  0  9  0.0000000  0 10G02G04G05G10G13G23G25G29G16G07
  -6895326.28548  -5328094.02346
                  20834817.6174                                   20834811.4454
                                                                        53.0004
        41.7504
   1360455.96147   1069326.98044
                  23410620.1954                                   23410618.0164
                                                                        44.5004
        27.0004
 -20712322.39148 -16054750.16846
                  21457763.5704                                   21457758.8594
                                                                        51.2504
        40.7504
 -19384444.46948 -15022173.83246
                  20780946.2034                                   20780942.2624
                                                                        51.2504
        41.0004
  -8303608.28148  -6418292.58245
                  21434422.8364                                   21434418.5434
                                                                        48.5004
        34.5004
    -96343.04747    -57699.18043
                  23897713.0084                                   23897706.5784
                                                                        42.5004
        22.7504
 -17144281.38347 -13340502.37945
                  22606725.3834                                   22606721.6844
                                                                        45.5004
        30.0004
 -15746295.98448 -12197229.80946
                  21907522.2584                                   21907518.8714
                                                                        49.5004
        38.0004
  -5558873.25847  -4293437.10243
                  23715518.4694                                   23715512.3094
                                                                        42.7504
        22.5004
  -5224535.94546  -4052013.27744
                  23670487.8834                                   23670483.7774
                                                                        41.5004
        26.0004
 09 10 24  0  9 30.0000000  0 10G02G04G05G10G13G23G25G29G16G07
  -6931460.96148  -5356250.90646
                  20827941.2894                                   20827935.2664
                                                                        53.0004
        41.5004
   1377567.61347   1082660.59844
                  23413876.4924                                   23413873.7384
                                                                        43.2504
        27.2504
 -20879678.19948 -16185157.25446
                  21425916.4454                                   21425912.4414
                                                                        50.7504
        41.0004
 -19534187.33248 -15138856.57446
                  20752450.8054                                   20752447.3284
                                                                        52.0004
        41.2504
  -8347120.77348  -6452198.43745
                  21426142.9534                                   21426138.0864
                                                                        48.5004
        34.5004
    -86090.63746    -49710.28543
                  23899663.6334                                   23899656.7814
                                                                        40.5004
        22.0004
 -17276573.66047 -13443587.27345
                  22581551.3204                                   22581546.5864
                                                                        46.0004
        30.5004
 -15858328.72348 -12284528.04346
                  21886203.0234                                   21886199.5784
                                                                        48.7504
        39.0004
  -5696394.91046  -4400596.84843
                  23689347.8754                                   23689342.6644
                                                                        41.7504
        22.0004
  -5405521.87547  -4193041.19944
                  23636047.5864                                   23636043.4184
                                                                        42.0004
        27.0004
 09 10 24  0 10  0.0000000  0 10G02G04G05G10G13G23G25G29G16G07
  -5391630.49648  -4156383.01646
                  21120960.9384                                   21120955.3284
                                                                        52.7504
        40.5004
   2970309.23047   2323757.90644
                  23716965.8444                                   23716962.7664
                                                                        45.2504
        28.0004
 -19471180.83648 -15087626.83246
                  21693944.5394                                   21693940.4654
                                                                        52.0004
        41.0004
 -18107975.91448 -14027523.01246
                  21023850.0004                                   21023846.1254
                                                                        52.5004
        41.0004
  -6814601.75448  -5258027.77745
                  21717771.7344                                   21717767.0274
                                                                        49.7504
        34.0004
   1499865.57046   1186099.76643
                  24201460.9694                                   24201453.8404
                                                                        39.2504
        20.0004
 -15832875.23047 -12318627.46145
                  22856278.0004                                   22856274.0824
                                                                        45.7504
        30.7504
 -14394310.59848 -11143734.68746
                  22164796.2274                                   22164792.8984
                                                                        50.0004
        38.0004
  -4257914.51646  -3279703.03143
                  23963082.0394                                   23963076.5824
                                                                        41.5004
        21.2504
  -4010706.82847  -3106172.27744
                  23901472.5314                                   23901468.0474
                                                                        44.2504
        28.0004
 09 10 24  0 10 30.0000000  0 10G02G04G05G10G13G23G25G29G16G07
  -5426679.32848  -4183693.75846
                  21114291.4534                                   21114285.7814
                                                                        52.5004
        41.0004
   2987839.09047   2337417.46144
                  23720301.7424                                   23720298.7274
                                                                        44.5004
        29.0004
 -19637681.48048 -15217367.59446
                  21662260.6334                                   21662256.8404
                                                                        51.0004
        41.0004
 -18256660.59448 -14143381.19146
                  20995556.3284                                   20995552.5554
                                                                        52.0004
        41.2504
  -6856897.14548  -5290985.21145
                  21709722.5634                                   21709718.3554
                                                                        49.2504
        34.0004
   1510682.75846   1194528.73043
                  24203518.9384                                   24203512.4614
                                                                        38.2504
        18.5004
 -15964034.20347 -12420829.26645
                  22831318.9924                                   22831315.5554
                                                                        45.5004
        30.2504
 -14505090.64148 -11230056.79746
                  22143715.3364                                   22143712.0904
                                                                        49.7504
        38.0004
  -4394281.29746  -3385962.87943
                  23937131.6484                                   23937126.7504
                                                                        41.5004
        21.7504
  -4190940.52047  -3246614.09844
                  23867174.8594                                   23867170.5164
                                                                        43.5004
        28.2504
 09 10 24  0 11  0.0000000  0 10G02G04G05G10G13G23G25G29G16G07
  -5461188.59848  -4210584.07846
                  21107724.6024                                   21107718.8014
                                                                        52.0004
        41.0004
   3005573.48847   2351236.45344
                  23723676.0394                                   23723672.8554
                                                                        44.5004
        28.0004
 -19803753.32448 -15346774.22346
                  21630658.3054                                   21630653.8484
                                                                        50.2504
        41.2504
 -18404815.43048 -14258826.51646
                  20967363.1024                                   20967359.9964
                                                                        51.2504
        41.0004
  -6898587.94548  -5323471.53145
                  21701789.8364                                   21701784.9064
                                                                        48.5004
        33.5004
   1521777.04346   1203173.65643
                  24205630.5164                                   24205624.0664
                                                                        39.5004
        20.7504
 -16094625.77047 -12522588.91445
                  22806467.8204                                   22806464.2814
                                                                        46.0004
        31.0004
 -14615244.64548 -11315891.09846
                  22122753.9224                                   22122750.7344
                                                                        49.0004
        38.0004
  -4530069.41446  -3491771.77343
                  23911292.3914                                   23911287.6804
                                                                        41.5004
        22.7504
  -4370795.41447  -3386760.73044
                  23832949.7584                                   23832945.4344
                                                                        42.5004
        29.0004
 09 10 24  0 11 30.0000000  0 10G02G04G05G10G13G23G25G29G16G07
  -5495159.59048  -4237054.95346
                  21101260.2194                                   21101254.3284
                                                                        52.5004
        41.0004
   3023510.62147   2365213.39144
                  23727089.5394                                   23727086.8984
                                                                        43.2504
        27.7504
 -19969394.39548 -15475845.16446
                  21599137.5944                                   21599133.7734
                                                                        50.5004
        40.5004
 -18552438.58648 -14373857.53946
                  20939271.3674                                   20939267.8914
                                                                        51.0004
        40.7504
  -6939676.22748  -5355488.37945
                  21693970.4144                                   21693965.9734
                                                                        49.2504
        34.0004
   1533145.85946   1212032.49243
                  24207793.7814                                   24207786.9344
                                                                        40.7504
        21.0004
 -16224648.19947 -12623905.06245
                  22781725.8754                                   22781721.9144
                                                                        45.5004
        30.0004
 -14724771.07048 -11401236.35946
                  22101911.9224                                   22101908.4344
                                                                        49.7504
        38.7504
  -4665276.84847  -3597128.21544
                  23885563.4064                                   23885558.3714
                                                                        42.2504
        24.2504
  -4550268.12547  -3526609.55144
                  23798796.4064                                   23798792.7544
                                                                        43.0004
        28.2504
 09 10 24  0 12  0.0000000  0 10G02G04G05G10G13G23G25G29G16G07
  -5528593.65248  -4263107.42646
                  21094898.0164                                   21094892.1374
                                                                        51.7504
        41.7504
   3041648.60247   2379346.84844
                  23730541.0704                                   23730538.0864
                                                                        44.2504
        29.0004
 -20134602.47348 -15604578.73046
                  21567699.6254                                   21567695.6134
                                                                        50.7504
        41.2504
 -18699528.63348 -14488473.15246
                  20911281.0314                                   20911277.4064
                                                                        51.5004
        40.5004
  -6980163.42648  -5387036.84845
                  21686266.0634                                   21686261.6844
                                                                        49.0004
        33.7504
   1544787.35946   1221103.78943
                  24210009.2974                                   24210003.3674
                                                                        41.0004
        22.5004
 -16354099.85547 -12724776.48445
                  22757091.9694                                   22757088.0944
                                                                        46.0004
        30.5004
 -14833669.54348 -11486092.31246
                  22081189.1804                                   22081185.6174
                                                                        48.7504
        38.2504
  -4799902.27747  -3702031.13744
                  23859944.9064                                   23859940.0594
                                                                        42.5004
        26.0004
  -4729355.60247  -3666158.19144
                  23764717.9224                                   23764713.5394
                                                                        43.0004
        28.5004
 09 10 24  0 12 30.0000000  0 10G02G04G05G10G13G23G25G29G16G07
  -5561492.74248  -4288743.02346
                  21088637.5634                                   21088631.6844
                                                                        52.5004
        41.5004
   3059984.96147   2393634.86345
                  23734030.8914                                   23734027.7504
                                                                        44.0004
        30.0004
 -20299376.86748 -15732974.34846
                  21536344.3444                                   21536339.7624
                                                                        50.7504
        41.0004
 -18846084.87548 -14602672.82446
                  20883392.4304                                   20883388.5554
                                                                        51.5004
        40.2504
  -7020052.52348  -5418119.25445
                  21678675.5554                                   21678671.4494
                                                                        49.5004
        34.2504
   1556698.19146   1230384.95343
                  24212276.0314                                   24212269.6054
                                                                        41.5004
        22.7504
 -16482979.85547 -12825202.44945
                  22732566.8674                                   22732563.1024
                                                                        46.2504
        30.7504
 -14941940.15648 -11570459.02346
                  22060585.8284                                   22060582.6884
                                                                        49.0004
        38.7504
  -4933944.70347  -3806479.78544
                  23834437.5864                                   23834432.6914
                                                                        42.2504
        26.0004
  -4908055.53946  -3805404.88344
                  23730712.0394                                   23730707.8914
                                                                        40.7504
        28.0004
 09 10 24  0 13  0.0000000  0  9G02G04G05G10G13G25G29G16G07
  -5593857.79348  -4313962.52046
                  21082478.7274                                   21082472.6254
                                                                        52.5004
        41.5004
   3078518.03147   2408076.16044
                  23737557.0704                                   23737554.9734
                                                                        43.0004
        29.2504
 -20463714.76248 -15861029.85546
                  21505071.4614                                   21505067.4344
                                                                        50.7504
        40.5004
 -18992104.71148 -14716454.50846
                  20855605.8914                                   20855602.0394
                                                                        52.0004
        41.0004
  -7059344.13748  -5448736.09045
                  21671198.4534                                   21671194.4144
                                                                        49.0004
        34.5004
 -16611286.26647 -12925181.45344
                  22708150.8524                                   22708146.8794
                                                                        45.2504
        29.7504
 -15049581.55548 -11654335.42646
                  22040102.2974                                   22040098.7344
                                                                        48.0004
        38.5004
  -5067401.59046  -3910472.17244
                  23809041.6334                                   23809037.4104
                                                                        41.2504
        24.5004
  -5086364.31647  -3944346.75844
                  23696780.8524                                   23696776.4924
                                                                        42.0004
        26.5004
 09 10 24  0 13 30.0000000  0  9G02G04G05G10G13G25G29G16G07
  -5625690.63748  -4338767.32446
                  21076420.6484                                   21076414.9304
                                                                        52.0004
        41.0004
   3097245.48846   2422668.89544
