     2.11           OBSERVATION DATA    G (GPS)             RINEX VERSION / TYPE
teqc  2019Feb25                         20221121 12:28:03UTCPGM / RUN BY / DATE
OSX ker:10.11.6|Core i5|gcc 4.3 -m64|OSX ker:10.10+|=+      COMMENT
BIT 2 OF LLI FLAGS DATA COLLECTED UNDER A/S CONDITION       COMMENT
04712781                                                    MARKER NAME
2781                                                        MARKER NUMBER
-Unknown-           -Unknown-                               OBSERVER / AGENCY
0220400471          TRIMBLE R7          2.30                REC # / TYPE / VERS
-Unknown-           TRM39105.00     NONE                    ANT # / TYPE
  1449460.5171 -1709240.4623  5952443.1820                  APPROX POSITION XYZ
        0.0000        0.0000        0.0000                  ANTENNA: DELTA H/E/N
     1     1                                                WAVELENGTH FACT L1/2
    20    L1    L2    L5    L6    L7    L8    C1    P1    C2# / TYPES OF OBSERV
          P2    C5    C6    C7    C8    S1    S2    S5    S6# / TYPES OF OBSERV
          S7    S8                                          # / TYPES OF OBSERV
    30.0000                                                 INTERVAL
    15                                                      LEAP SECONDS
Forced Modulo Decimation to 30 seconds                      COMMENT
 SNR is mapped to RINEX snr flag value [0-9]                COMMENT
  L1 & L2: min(max(int(snr_dBHz/6), 0), 9)                  COMMENT
teqc edited: Beidou # 1 - 37 excluded                       COMMENT
  2009    10     5    23     9   30.0000000     GPS         TIME OF FIRST OBS
                                                            END OF HEADER
 09 10  5 23  9 30.0000000  0  9G02G04G12G13G17G20G23G30G31
   -227798.96558   -120430.35256
                  21822086.1094                                   21822080.3754
                                                                        52.0004
        39.5004
   -129235.72758    -66090.26257
                  20461809.8524                                   20461806.0984
                                                                        51.5004
        43.0004
    -48507.47757    -25340.81255
                  22770604.6804                                   22770600.4844
                                                                        46.7504
        35.7504
   -257435.43757   -130159.46954
                  23306857.0864                                   23306852.3674
                                                                        45.2504
        27.5004
     34516.77357     16322.43455
                  23498252.4144                                   23498248.6844
                                                                        44.7504
        32.2504
     10442.11357      4172.37954
                  22733341.6724                                   22733337.1414
                                                                        45.7504
        28.2504
   -166363.03557    -85059.68755
                  21964050.8204                                   21964044.1524
                                                                        47.0004
        35.5004
   -129320.03557    -66952.61755
                  22448719.1884                                   22448715.5864
                                                                        46.0004
        31.2504
   -127390.80957    -66212.15254
                  23576953.7194                                   23576949.4574
                                                                        43.5004
        28.5004
 09 10  5 23 10  0.0000000  0  9G02G04G12G13G17G20G23G30G31
   -399773.42248   -254436.40646
                  21789360.7034                                   21789354.3164
                                                                        52.0004
        39.5004
   -227866.08248   -142945.10547
                  20443040.9614                                   20443037.2584
                                                                        51.0004
        42.2504
    -87957.78147    -56081.34045
                  22763098.0864                                   22763093.5434
                                                                        47.5004
        35.2504
   -451299.05547   -281221.93744
                  23269965.8204                                   23269961.2504
                                                                        45.2504
        27.0004
     55722.16847     32846.09045
                  23502287.8054                                   23502283.5354
                                                                        43.7504
        32.2504
     13977.80147      6927.40244
                  22734014.9614                                   22734009.8524
                                                                        45.2504
        27.7504
   -292767.00847   -183556.29345
                  21939996.7664                                   21939989.9384
                                                                        47.2504
        35.5004
   -228380.25447   -144142.40245
                  22429868.8834                                   22429864.9884
                                                                        47.0004
        31.0004
   -226877.07047   -143733.90244
                  23558022.0474                                   23558017.8134
                                                                        44.0004
        28.5004
 09 10  5 23 10 30.0000000  0  9G02G04G12G13G17G20G23G30G31
   -572661.81248   -389154.62146
                  21756460.7034                                   21756454.4804
                                                                        51.5004
        39.0004
   -327192.74248   -220342.49647
                  20424140.1724                                   20424135.8834
                                                                        52.0004
        42.2504
   -128126.25447    -87381.46145
                  22755453.6884                                   22755449.6134
                                                                        47.7504
        35.2504
   -646121.49647   -433031.55944
                  23232892.0704                                   23232887.6454
                                                                        46.0004
        26.5004
     75869.25047     48545.05145
                  23506121.9304                                   23506117.3634
                                                                        45.5004
        32.2504
     16575.73047      8951.70344
                  22734509.1644                                   22734504.4654
                                                                        45.5004
        27.5004
   -419839.94547   -282574.16045
                  21915815.9224                                   21915809.0594
                                                                        47.0004
        35.2504
   -328024.18447   -221787.00445
                  22410907.0864                                   22410903.6994
                                                                        46.2504
        31.5004
   -327030.35547   -221775.43044
                  23538964.1484                                   23538959.8714
                                                                        45.2504
        29.2504
 09 10  5 23 11  0.0000000  0  9G02G04G12G13G17G20G23G30G31
   -746044.18048   -524257.75446
                  21723467.2734                                   21723461.0044
                                                                        51.7504
        39.2504
   -426797.60248   -297956.68047
                  20405185.6884                                   20405181.9844
                                                                        51.5004
        42.0004
   -168596.78547   -118916.93445
                  22747752.5864                                   22747748.5234
                                                                        47.2504
        34.2504
   -841481.62947   -585260.20744
                  23195716.1414                                   23195712.1914
                                                                        45.7504
        28.0004
     95373.77047     63743.26245
                  23509832.9924                                   23509829.3444
                                                                        43.7504
        31.7504
     18651.46947     10569.13744
                  22734903.6254                                   22734899.5664
                                                                        45.0004
        27.2504
   -547162.22747   -381786.30945
                  21891587.1644                                   21891580.5084
                                                                        47.7504
        35.2504
   -427833.47747   -299560.46945
                  22391914.0164                                   22391910.7194
                                                                        45.7504
        31.5004
   -427431.52747   -300010.09444
                  23519858.0084                                   23519853.7424
                                                                        45.0004
        28.7504
 09 10  5 23 11 30.0000000  0  9G02G04G12G13G17G20G23G30G31
   -919718.85948   -659588.64146
                  21690418.2734                                   21690412.0944
                                                                        51.7504
        39.5004
   -526480.78948   -375631.90647
                  20386216.7274                                   20386212.6804
                                                                        52.0004
        42.2504
   -209171.84847   -150533.89845
                  22740031.4534                                   22740027.1374
                                                                        47.2504
        34.7504
  -1037176.60947   -737749.75444
                  23158477.2114                                   23158472.7304
                                                                        46.5004
        28.7504
    114433.32847     78594.78145
                  23513460.9614                                   23513456.6254
                                                                        45.7504
        32.0004
     20402.10947     11933.27044
                  22735236.8914                                   22735232.7384
                                                                        45.2504
        27.2504
   -674533.19548   -481036.43445
                  21867349.2034                                   21867342.2344
                                                                        48.5004
        35.5004
   -527608.17247   -377307.03145
                  22372926.5864                                   22372923.8404
                                                                        45.5004
        32.5004
   -527880.80547   -378282.24244
                  23500743.5784                                   23500738.8954
                                                                        44.0004
        29.5004
 09 10  5 23 12  0.0000000  0  9G02G04G12G13G17G20G23G30G31
  -1093554.60248   -795044.98446
                  21657337.8444                                   21657332.2234
                                                                        51.0004
        39.2504
   -626112.92648   -453267.37547
                  20367257.2114                                   20367253.2194
                                                                        52.0004
        42.5004
   -249723.83647   -182132.83645
                  22732314.5944                                   22732310.4804
                                                                        47.2504
        35.0004
  -1233074.04347   -890396.98444
                  23121198.4384                                   23121194.3554
                                                                        46.5004
        29.0004
    133174.78947     93198.52045
                  23517027.1644                                   23517022.9144
                                                                        44.7504
        30.7504
     21954.34447     13142.74644
                  22735532.6484                                   22735527.7194
                                                                        44.5004
        28.0004
   -801822.06248   -580222.58645
                  21843126.8054                                   21843119.8834
                                                                        48.0004
        35.5004
   -627218.76647   -454925.67645
                  22353972.1804                                   22353969.3164
                                                                        44.7504
        31.7504
   -628248.52747   -456490.83644
                  23481643.5944                                   23481639.4414
                                                                        44.5004
        29.0004
 09 10  5 23 12 30.0000000  0  9G02G04G12G13G17G20G23G30G31
  -1267465.80148   -930560.21146
                  21624243.7584                                   21624237.9884
                                                                        52.5004
        39.0004
   -725610.14148   -530797.66046
                  20348323.4774                                   20348319.5664
                                                                        50.5004
        41.7504
   -290170.92247   -213650.00045
                  22724617.8834                                   22724613.4924
                                                                        47.2504
        34.2504
  -1429087.44547  -1043134.64144
                  23083898.7344                                   23083894.4654
                                                                        46.0004
        28.7504
    151679.33247    107617.72344
                  23520548.5314                                   23520543.4734
                                                                        43.7504
        29.7504
     23389.75847     14261.23444
                  22735805.8754                                   22735801.1604
                                                                        45.5004
        27.0004
   -928944.11348   -679278.71545
                  21818936.3594                                   21818929.6254
                                                                        48.0004
        35.5004
   -726581.10247   -532350.85245
                  22335064.3524                                   22335060.6414
                                                                        45.2504
        30.7504
   -728450.98047   -534570.67244
                  23462575.8444                                   23462571.6054
                                                                        44.0004
        28.7504
 09 10  5 23 13  0.0000000  0  9G02G04G12G13G17G20G23G30G31
    134038.24248    161520.88346
                  21890941.5634                                   21890935.0784
                                                                        51.7504
        39.5004
    750513.82848    619428.84047
                  20629220.9304                                   20629216.7854
                                                                        52.2504
        42.7504
   1244968.54747    982562.55145
                  23016745.2584                                   23016740.4734
                                                                        46.7504
        35.5004
    -49724.27047     31693.89844
                  23346382.3984                                   23346378.3874
                                                                        46.2504
        28.5004
   1745426.88747   1349498.91444
                  23823827.3444                                   23823824.0204
                                                                        42.0004
        28.5004
   1600188.56647   1242935.56644
                  23035860.8134                                   23035855.8284
                                                                        45.2504
        28.2504
    519589.23048    449448.57045
                  22094583.2734                                   22094576.8554
                                                                        48.2504
        35.0004
    749790.83647    618068.88345
                  22616008.1954                                   22616004.9224
                                                                        45.0004
        31.5004
    746998.37147    615130.10544
                  23743344.7034                                   23743340.5084
                                                                        44.0004
        28.7504
 09 10  5 23 13 30.0000000  0  9G02G04G12G13G17G20G23G30G31
    -39842.40248     26029.43046
                  21857852.9774                                   21857846.6914
                                                                        52.0004
        40.0004
    651462.49648    542245.96947
                  20610371.5554                                   20610368.1134
                                                                        52.2504
        42.0004
   1204900.12547    951340.41445
                  23009120.4224                                   23009115.6724
                                                                        47.0004
        35.0004
   -245784.80147   -121080.48444
                  23309073.2034                                   23309069.2704
                                                                        46.0004
        27.5004
   1763626.07447   1363680.07845
                  23827291.7504                                   23827287.1684
                                                                        42.5004
        31.0004
   1601558.49647   1244003.03544
                  23036121.1804                                   23036116.4804
                                                                        45.5004
        27.0004
    392980.30948    350792.27745
                  22070490.5634                                   22070483.4384
                                                                        48.5004
        35.5004
    651100.53147    541167.36745
                  22597228.5474                                   22597224.6914
                                                                        44.7504
        31.0004
    647302.83247    537445.27344
                  23724373.3834                                   23724368.9654
                                                                        44.0004
        29.5004
 09 10  5 23 14  0.0000000  0  9G02G04G12G13G17G20G23G30G31
   -213637.28948   -109395.21546
                  21824780.7344                                   21824774.7234
                                                                        52.0004
        40.0004
    552701.65248    465289.48447
                  20591578.4304                                   20591574.4884
                                                                        52.2504
        42.2504
   1165085.77747    920316.24645
                  23001544.0944                                   23001539.7974
                                                                        46.5004
        34.5004
   -441796.84047   -273817.12944
                  23271773.9064                                   23271769.0824
                                                                        46.2504
        27.0004
   1781736.25047   1377791.87945
                  23830738.2034                                   23830733.8484
                                                                        44.0004
        31.7504
   1602959.17647   1245094.43844
                  23036387.9454                                   23036383.0634
                                                                        45.0004
        26.5004
    266697.19548    252389.85245
                  22046459.4534                                   22046452.5004
                                                                        48.7504
        35.5004
    552813.68847    464580.20745
                  22578524.8204                                   22578521.3554
                                                                        44.7504
        31.0004
    547928.72747    460010.88744
                  23705462.9534                                   23705458.2894
                                                                        43.7504
        29.5004
 09 10  5 23 14 30.0000000  0  9G02G04G12G13G17G20G23G30G31
   -387312.10548   -244726.27746
                  21791731.7274                                   21791725.6294
                                                                        52.0004
        40.0004
    454263.85548    388584.71547
                  20572846.1334                                   20572842.2034
                                                                        49.5004
        42.2504
   1125555.73847    889513.64845
                  22994021.4924                                   22994017.4144
                                                                        46.5004
        35.2504
   -637724.91447   -426488.31644
                  23234489.8674                                   23234485.0904
                                                                        47.2504
        28.7504
   1799787.39847   1391857.74245
                  23834172.6954                                   23834168.8164
                                                                        44.0004
        30.2504
   1604420.81347   1246233.36744
                  23036665.7814                                   23036661.1414
                                                                        45.0004
        27.0004
    140773.55147    154267.51645
                  22022496.7424                                   22022490.1684
                                                                        47.0004
        35.2504
    454962.95347    388332.84045
                  22559904.3284                                   22559901.7504
                                                                        44.5004
        31.2504
    448909.02747    382852.69944
                  23686620.2274                                   23686615.5434
                                                                        44.5004
        29.5004
 09 10  5 23 15  0.0000000  0  9G02G04G12G13G17G20G23G30G31
   -560835.16448   -379939.02746
                  21758711.2114                                   21758705.1294
                                                                        51.7504
        39.7504
    356178.65648    312154.69547
                  20554181.1414                                   20554177.2344
                                                                        52.2504
        42.5004
   1086337.69947    858954.13745
                  22986558.8284                                   22986553.9654
                                                                        46.2504
        34.5004
   -833536.38747   -579068.63344
                  23197228.1174                                   23197223.5434
                                                                        46.5004
        29.0004
   1817806.96947   1405898.97344
                  23837601.8914                                   23837597.7274
                                                                        43.2504
        29.5004
   1605970.62547   1247441.00444
                  23036960.7114                                   23036956.6884
                                                                        44.5004
        26.7504
     15240.14548     56449.27045
                  21998608.5554                                   21998602.1414
                                                                        49.0004
        35.7504
    357578.28547    312448.69145
                  22541372.2424                                   22541369.4144
                                                                        45.0004
        31.5004
    350273.14147    305993.60544
                  23667850.3054                                   23667845.5824
                                                                        44.5004
        28.5004
 09 10  5 23 15 30.0000000  0  9G02G04G12G13G17G20G23G30G31
   -734177.57048   -515010.95746
                  21725725.4844                                   21725719.0164
                                                                        52.0004
        39.5004
    258472.67248    236020.15247
                  20535588.3054                                   20535584.3484
                                                                        51.0004
        42.7504
   1047456.14547    828656.83645
                  22979159.7424                                   22979155.3984
                                                                        46.5004
        34.5004
  -1029201.68447   -731535.05144
                  23159994.0944                                   23159989.7664
                                                                        46.2504
        28.0004
   1835818.98847   1419934.27344
                  23841029.7194                                   23841025.1604
                                                                        43.5004
        29.2504
   1607632.74647   1248736.16044
                  23037277.4144                                   23037272.4654
                                                                        44.7504
        27.5004
   -109875.08248    -41043.11346
                  21974799.9844                                   21974793.3754
                                                                        48.2504
        36.0004
    260686.28547    236948.42245
                  22522934.4614                                   22522931.7304
                                                                        43.5004
        31.0004
    252047.66447    229454.27344
                  23649158.9384                                   23649154.1914
                                                                        42.0004
        27.7504
 09 10  5 23 16  0.0000000  0  9G02G04G12G13G17G20G23G30G31
   -907313.28548   -649921.89546
                  21692778.6484                                   21692772.5634
                                                                        52.0004
        39.7504
    161170.88748    160200.58646
                  20517072.3984                                   20517068.5354
                                                                        50.5004
        41.7504
   1008933.55147    798639.18845
                  22971828.8754                                   22971824.6294
                                                                        46.5004
        34.2504
  -1224693.13347   -883866.01644
                  23122793.0554                                   23122789.0984
                                                                        46.0004
        29.0004
   1853845.71147   1433980.99644
                  23844459.6414                                   23844455.6994
                                                                        44.0004
        27.0004
   1609429.36747   1250136.14844
                  23037618.9694                                   23037614.4144
                                                                        44.5004
        26.0004
   -234546.65648   -138189.80145
                  21951076.2114                                   21951069.1454
                                                                        49.0004
        35.7504
    164311.22347    161851.03945
                  22504595.3364                                   22504591.7544
                                                                        43.7504
        30.7504
    154257.51647    153254.14144
                  23630549.0944                                   23630544.6914
                                                                        43.2504
        28.2504
 09 10  5 23 16 30.0000000  0  9G02G04G12G13G17G20G23G30G31
  -1080224.09848   -784657.59846
                  21659874.6804                                   21659868.9064
                                                                        52.0004
        39.2504
     64289.25448     84708.41847
                  20498636.3834                                   20498632.3714
                                                                        50.0004
        42.0004
    970783.52047    768911.89145
                  22964569.2894                                   22964565.3714
                                                                        46.0004
        34.5004
  -1419991.85947  -1036046.78944
                  23085628.5944                                   23085624.3714
                                                                        46.5004
        28.0004
   1871900.65247   1448049.75044
                  23847894.8834                                   23847890.5234
                                                                        44.0004
        27.2504
   1611373.88747   1251651.34844
                  23037989.1414                                   23037984.3284
                                                                        44.7504
        26.5004
   -358757.44148   -234977.42645
                  21927439.2344                                   21927432.5474
                                                                        48.0004
        35.5004
     68469.21947     87169.02045
                  22486356.7974                                   22486353.8284
                                                                        43.7504
        31.2504
     56918.81647     77405.81344
                  23612026.9774                                   23612021.9884
                                                                        43.0004
        29.0004
 09 10  5 23 17  0.0000000  0  9G02G04G12G13G17G20G23G30G31
  -1252888.44948   -919201.25446
                  21627017.9144                                   21627011.9064
                                                                        51.5004
        39.2504
    -32153.00048      9558.59847
                  20480283.9774                                   20480279.9774
                                                                        52.0004
        43.2504
    933024.27047    739489.05145
                  22957383.6414                                   22957380.0274
                                                                        47.2504
        35.0004
  -1615074.80947  -1188059.47744
                  23048506.0704                                   23048501.3594
                                                                        46.0004
        28.0004
   1890001.27347   1462154.08244
                  23851339.8984                                   23851335.2734
                                                                        45.5004
        29.0004
   1613483.89847   1253295.49644
                  23038390.6174                                   23038386.1134
                                                                        44.5004
        27.5004
   -482486.66848   -331389.80545
                  21903894.8674                                   21903887.8634
                                                                        49.2504
        35.7504
    -26820.06647     12917.68045
                  22468224.0314                                   22468220.8054
                                                                        44.5004
        31.5004
    -39948.62147      1924.70744
                  23593593.5004                                   23593589.0354
                                                                        43.2504
        28.2504
 09 10  5 23 17 30.0000000  0  9G02G04G12G13G17G20G23G30G31
  -1425289.62548  -1053539.78146
                  21594211.0084                                   21594205.4804
                                                                        52.0004
        39.5004
   -128140.91448    -65237.21147
                  20462018.3914                                   20462014.2194
                                                                        52.5004
        42.2504
    895668.23847    710380.48445
                  22950275.3284                                   22950271.4924
                                                                        47.0004
        35.0004
  -1809924.59447  -1339890.48044
                  23011427.4694                                   23011422.7974
                                                                        46.0004
        28.5004
   1908159.75847   1476303.46945
                  23854795.8284                                   23854791.4534
                                                                        45.7504
        31.5004
   1615771.32447   1255077.87544
                  23038826.1414                                   23038821.2734
                                                                        44.7504
        25.5004
   -605718.55948   -427414.61745
                  21880444.2034                                   21880437.5354
                                                                        48.7504
        35.2504
   -121542.24247    -60891.78145
                  22450198.6804                                   22450195.7274
                                                                        46.2504
        31.0004
   -136330.00047    -73177.62944
                  23575252.9924                                   23575247.9774
                                                                        44.0004
        28.5004
 09 10  5 23 18  0.0000000  0  9G02G04G12G13G17G20G23G30G31
  -1597414.35248  -1187662.94146
                  21561456.6174                                   21561451.0594
                                                                        52.7504
        40.0004
   -223663.17248   -139670.10546
                  20443840.7424                                   20443836.8874
                                                                        51.7504
        41.7504
    858724.24247    681592.93845
                  22943245.3444                                   22943241.0124
                                                                        46.2504
        34.7504
  -2004527.02747  -1491528.71545
                  22974395.6414                                   22974391.1844
                                                                        45.7504
        30.0004
   1926385.00447   1490504.92645
                  23858263.9454                                   23858260.2344
                                                                        45.2504
        31.2504
   1618245.25047   1257005.54744
                  23039296.7734                                   23039292.1564
                                                                        44.2504
        26.5004
   -728441.01648   -523042.50845
                  21857091.0944                                   21857083.9574
                                                                        49.2504
        35.5004
   -215686.10547   -134250.60245
                  22432283.4384                                   22432280.4844
                                                                        44.7504
        30.5004
   -232214.18447   -147892.58244
                  23557006.9064                                   23557002.0204
                                                                        42.5004
        28.5004
 09 10  5 23 18 30.0000000  0  9G02G04G12G13G17G20G23G30G31
  -1769243.66448  -1321555.96146
                  21528758.5784                                   21528752.6884
                                                                        52.5004
        40.0004
   -318702.62548   -213726.80146
                  20425755.4694                                   20425751.5554
                                                                        50.2504
        41.7504
    822207.62147    653138.53545
                  22936296.0864                                   22936291.8054
                                                                        47.5004
        35.2504
  -2198861.69547  -1642958.29744
                  22937414.9384                                   22937410.6604
                                                                        46.2504
        29.0004
   1944691.74647   1504769.88345
                  23861747.3754                                   23861743.5784
                                                                        44.2504
        30.5004
   1620920.05947   1259089.74644
                  23039805.6484                                   23039801.0824
                                                                        44.0004
        25.7504
   -850635.75048   -618259.18045
                  21833838.0084                                   21833831.2114
                                                                        49.2504
        35.5004
   -309234.56647   -207145.52745
                  22414481.7424                                   22414478.9104
                                                                        43.5004
        31.7504
   -327584.10547   -222206.82044
                  23538858.6024                                   23538853.7274
                                                                        42.0004
        29.2504
 09 10  5 23 19  0.0000000  0  9G02G04G12G13G17G20G23G30G31
  -1940763.63748  -1455207.85946
                  21496119.5314                                   21496113.4264
                                                                        52.5004
        40.5004
   -413247.86348   -287398.43746
                  20407763.9224                                   20407760.1884
                                                                        50.5004
        41.2504
    786127.81347    625024.46945
                  22929430.3674                                   22929426.2624
                                                                        47.0004
        34.5004
  -2392913.93447  -1794167.81644
                  22900487.9774                                   22900483.1764
                                                                        46.5004
        28.5004
   1963089.18447   1519105.48044
                  23865247.9924                                   23865244.2424
                                                                        43.7504
        28.2504
   1623805.52347   1261338.10944
                  23040354.7274                                   23040350.6604
                                                                        44.0004
        27.2504
   -972289.74248   -713054.47745
                  21810687.9384                                   21810681.3134
                                                                        49.0004
        35.2504
   -402175.86347   -279567.33245
                  22396796.1564                                   22396792.5704
                                                                        43.7504
        31.5004
   -422427.68747   -296110.91444
                  23520810.0634                                   23520805.3524
                                                                        43.2504
        28.0004
 09 10  5 23 19 30.0000000  0  9G02G04G12G13G17G20G23G30G31
  -2111962.27748  -1588609.38346
                  21463541.4304                                   21463535.5004
                                                                        52.2504
        40.5004
   -507288.16848   -360676.57447
                  20389868.6644                                   20389864.8244
                                                                        51.5004
        42.0004
    750493.14847    597257.29345
                  22922649.1884                                   22922644.8244
                                                                        46.5004
        34.2504
  -2586670.24647  -1945146.74245
                  22863617.6254                                   22863613.2624
                                                                        46.5004
        30.5004
   1981585.60247   1533518.21944
                  23868767.7814                                   23868763.9264
                                                                        43.7504
        25.7504
   1626909.46947   1263756.72344
                  23040945.7194                                   23040941.3324
                                                                        43.7504
        27.0004
  -1093392.08648   -807419.91045
                  21787642.9844                                   21787635.9614
                                                                        48.5004
        35.7504
   -494499.54747   -351507.87145
                  22379227.8284                                   22379224.0904
                                                                        46.2504
        32.0004
   -516734.48447   -369596.71144
                  23502864.1484                                   23502859.8834
                                                                        43.7504
        29.2504
 09 10  5 23 20  0.0000000  0  9G02G04G12G13G17G20G23G30G31
  -2282826.33248  -1721750.19946
                  21431027.1094                                   21431021.3714
                                                                        52.2504
        40.2504
   -600812.56248   -433552.73047
                  20372071.5004                                   20372067.7974
                                                                        51.0004
        42.2504
    715312.68447    569843.94545
                  22915954.5704                                   22915950.1914
                                                                        46.2504
        33.0004
  -2780116.29747  -2095883.91444
                  22826805.9844                                   22826801.4024
                                                                        46.0004
        29.5004
   2000190.01647   1548015.13744
                  23872308.6024                                   23872304.1844
                                                                        45.0004
        28.7504
   1630241.10947   1266352.77344
                  23041579.3524                                   23041574.8364
                                                                        44.0004
        26.7504
  -1213930.26648   -901345.75846
                  21764705.2344                                   21764698.4694
                                                                        48.7504
        36.0004
   -586194.88747   -422958.82445
                  22361778.3914                                   22361775.1564
                                                                        43.5004
        31.7504
   -610493.53546   -442655.72344
                  23485022.3754                                   23485017.6174
                                                                        41.5004
        28.5004
 09 10  5 23 20 30.0000000  0  9G02G04G12G13G17G20G23G30G31
  -2453346.00048  -1854622.62946
                  21398578.3914                                   21398572.7734
                                                                        52.2504
        40.2504
   -693813.77748   -506021.19947
                  20354374.0314                                   20354370.5164
                                                                        51.0004
        42.7504
    680591.45747    542788.48445
                  22909346.9304                                   22909342.5704
                                                                        45.2504
        34.0004
  -2973242.00447  -2246371.45344
                  22790055.3054                                   22790050.5744
                                                                        45.7504
        29.0004
   2018907.14547   1562599.89544
                  23875871.0004                                   23875866.0314
                                                                        45.7504
        29.5004
   1633805.10247   1269129.89844
                  23042258.1174                                   23042253.7194
                                                                        44.5004
        25.7504
  -1333896.23848   -994825.71545
                  21741876.5004                                   21741869.9104
                                                                        48.5004
        35.5004
   -677255.09447   -493914.91445
                  22344450.4844                                   22344447.0044
                                                                        45.0004
        31.5004
   -703697.64547   -515282.34444
                  23467286.2344                                   23467282.1644
                                                                        43.7504
        29.0004
 09 10  5 23 21  0.0000000  0  9G02G04G12G13G17G20G23G30G31
  -1048091.92248   -759619.40646
                  21665989.2734                                   21665983.3874
                                                                        52.2504
        40.5004
    789133.20748    649521.91847
                  20636569.4774                                   20636565.6094
                                                                        51.5004
        42.0004
   2221750.53147   1743691.71145
                  23202620.1804                                   23202616.0314
                                                                        45.0004
        34.5004
  -1590615.78947  -1169000.38344
                  23053160.0554                                   23053155.9184
                                                                        45.7504
        29.0004
   3613155.90647   2804871.64144
                  24179246.4844                                   24179241.4654
                                                                        44.5004
        28.5004
   3213021.04747   2499687.74644
                  23342772.9144                                   23342768.4384
                                                                        43.7504
        25.7504
    122137.19548    139745.82045
                  22018950.3134                                   22018943.4574
                                                                        48.2504
        35.5004
    807744.96947    663227.96545
                  22627036.7664                                   22627033.0434
                                                                        46.5004
        31.2504
    779078.61347    640127.73044
                  23749449.1414                                   23749444.8094
                                                                        43.5004
        29.7504
 09 10  5 23 21 30.0000000  0  9G02G04G12G13G17G20G23G30G31
  -1217904.55948   -891940.94946
                  21633674.7814                                   21633669.1374
                                                                        52.7504
        40.0004
    697190.89148    577878.59846
                  20619073.2814                                   20619069.5634
                                                                        52.2504
        41.7504
   2187953.89147   1717356.61345
                  23196188.8364                                   23196184.4534
                                                                        46.7504
        34.7504
  -1783078.53147  -1318971.34445
                  23016535.7894                                   23016531.4494
                                                                        46.0004
        30.5004
   3632104.31346   2819636.63344
                  24182850.3524                                   24182847.3834
                                                                        41.5004
        27.5004
   3217055.25847   2502831.26644
                  23343540.2584                                   23343535.6954
                                                                        43.0004
        26.5004
      3331.36348     47169.84445
                  21996342.1954                                   21996335.6134
                                                                        49.0004
        35.7504
    717967.57447    593271.59845
                  22609952.4534                                   22609948.7194
                                                                        47.0004
        31.7504
    686997.52047    568376.20744
                  23731926.8524                                   23731922.3164
                                                                        44.0004
        29.0004
 09 10  5 23 22  0.0000000  0  9G02G04G12G13G17G20G23G30G31
  -1387349.14548  -1023975.68746
                  21601430.8754                                   21601424.7664
                                                                        52.7504
        40.2504
    605789.28148    506656.52346
                  20601680.2664                                   20601676.4804
                                                                        52.0004
        41.7504
   2154628.06647   1691388.46945
                  23189847.3444                                   23189842.8874
                                                                        46.7504
        34.2504
  -1975193.76647  -1468671.51645
                  22979977.6804                                   22979973.0394
                                                                        47.2504
        30.5004
   3651176.43846   2834497.91844
                  24186480.1954                                   24186477.0394
                                                                        41.2504
        27.5004
   3221332.52347   2506164.17244
                  23344354.7664                                   23344349.8014
                                                                        42.7504
        25.5004
   -114881.07848    -44943.73845
                  21973846.6724                                   21973840.2894
                                                                        49.0004
        35.7504
    628842.44547    523823.41045
                  22592992.5634                                   22592989.2704
                                                                        46.7504
        31.7504
    595489.35947    497071.14544
                  23714513.3444                                   23714509.0234
                                                                        43.5004
        29.2504
 09 10  5 23 22 30.0000000  0  9G02G04G12G13G17G20G23G30G31
  -1556419.05948  -1155718.45346
                  21569257.5634                                   21569251.9494
                                                                        52.7504
        40.0004
    514933.51648    435859.83246
                  20584391.1954                                   20584387.1334
                                                                        51.0004
        41.7504
   2121775.80547   1665789.35245
                  23183595.7424                                   23183591.7544
                                                                        46.5004
        34.5004
  -2166953.27347  -1618094.50045
                  22943486.7194                                   22943482.5984
                                                                        47.0004
        31.0004
   3670375.09847   2849457.94944
                  24190134.1174                                   24190130.2814
                                                                        43.0004
        29.7504
   3225855.71147   2509688.73044
                  23345214.9064                                   23345210.5474
                                                                        42.2504
        26.0004
   -232494.85247   -136590.86346
                  21951466.3134                                   21951459.2424
                                                                        47.7504
        36.5004
    540374.83247    454887.59045
                  22576157.9454                                   22576154.2544
                                                                        47.2504
        31.5004
    504558.60247    426216.00844
                  23697209.7894                                   23697205.4224
                                                                        43.5004
        29.7504
 09 10  5 23 23  0.0000000  0  9G02G04G12G13G17G20G23G30G31
  -1725108.05548  -1287164.40246
                  21537157.3594                                   21537151.2664
                                                                        53.0004
        40.2504
    424627.27348    365491.38347
                  20567205.8444                                   20567202.4024
                                                                        51.0004
        42.7504
   2089398.63747   1640560.39845
                  23177434.2584                                   23177430.0744
                                                                        45.2504
        34.7504
  -2358350.51247  -1767235.18744
                  22907064.9304                                   22907060.2814
                                                                        46.2504
        29.0004
   3689701.41047   2864517.38744
                  24193811.9304                                   24193807.5514
                                                                        43.7504
        28.0004
   3230626.43446   2513406.11344
                  23346122.9614                                   23346119.0434
                                                                        41.2504
        25.5004
   -349505.02048   -227767.60945
                  21929199.5784                                   21929193.1374
                                                                        49.0004
        34.7504
    452567.86347    386466.51645
                  22559448.5864                                   22559444.9384
                                                                        47.5004
        32.0004
    414209.60247    355814.14844
                  23680017.0634                                   23680012.6214
                                                                        43.5004
        29.2504
 09 10  5 23 23 30.0000000  0  9G02G04G12G13G17G20G23G30G31
  -1893410.36348  -1418309.01646
                  21505130.2664                                   21505124.3984
                                                                        53.0004
        40.2504
    334874.02748    295553.80947
                  20550126.7734                                   20550123.0084
                                                                        52.0004
        42.2504
   2057497.94147   1615702.70345
                  23171364.0314                                   23171359.8634
                                                                        45.5004
        34.0004
  -2549378.58247  -1916088.24644
                  22870713.8524                                   22870709.1334
                                                                        46.0004
        29.2504
   3709157.14847   2879677.66444
                  24197513.8914                                   24197510.1414
                                                                        43.5004
        28.2504
   3235646.09047   2517317.52044
                  23347078.0474                                   23347074.1374
                                                                        42.7504
        25.5004
   -465906.86748   -318470.32445
                  21907049.5164                                   21907042.7664
                                                                        50.0004
        35.5004
    365425.24647    318563.18845
                  22542866.0164                                   22542862.6724
                                                                        47.2504
        32.5004
    324445.80947    285868.35245
                  23662935.6174                                   23662931.2814
                                                                        44.5004
        30.7504
 09 10  5 23 24  0.0000000  0  9G02G04G12G13G17G20G23G30G31
  -2061320.71148  -1549148.25846
                  21473178.1094                                   21473171.8284
                                                                        53.0004
        40.5004
    245677.07048    226049.66847
                  20533153.0554                                   20533149.5824
                                                                        50.7504
        42.0004
   2026075.45747   1591217.65245
                  23165384.3284                                   23165379.8594
                                                                        44.7504
        33.5004
  -2740030.82847  -2064648.39845
                  22834434.0634                                   22834429.4964
                                                                        47.2504
        30.0004
   3728743.21947   2894939.50444
                  24201241.8674                                   24201237.1684
                                                                        44.7504
        28.5004
   3240915.20747   2521423.34444
                  23348081.1724                                   23348076.6644
                                                                        42.7504
        25.2504
   -581696.26648   -408695.83246
                  21885015.3364                                   21885008.4454
                                                                        49.5004
        36.0004
    278949.86747    251179.80145
                  22526410.1804                                   22526406.7734
                                                                        44.2504
        30.7504
    235270.31647    216380.95344
                  23645965.8204                                   23645961.2774
                                                                        44.0004
        29.0004
