     2.11           OBSERVATION DATA    G (GPS)             RINEX VERSION / TYPE
teqc  2019Feb25                         20221121 12:28:16UTCPGM / RUN BY / DATE
OSX ker:10.11.6|Core i5|gcc 4.3 -m64|OSX ker:10.10+|=+      COMMENT
BIT 2 OF LLI FLAGS DATA COLLECTED UNDER A/S CONDITION       COMMENT
04712851                                                    MARKER NAME
2851                                                        MARKER NUMBER
-Unknown-           -Unknown-                               OBSERVER / AGENCY
0220400471          TRIMBLE R7          2.30                REC # / TYPE / VERS
-Unknown-           TRM39105.00     NONE                    ANT # / TYPE
  1449460.6235 -1709241.4247  5952443.7385                  APPROX POSITION XYZ
        0.0000        0.0000        0.0000                  ANTENNA: DELTA H/E/N
     1     1                                                WAVELENGTH FACT L1/2
    20    L1    L2    L5    L6    L7    L8    C1    P1    C2# / TYPES OF OBSERV
          P2    C5    C6    C7    C8    S1    S2    S5    S6# / TYPES OF OBSERV
          S7    S8                                          # / TYPES OF OBSERV
    30.0000                                                 INTERVAL
    15                                                      LEAP SECONDS
Forced Modulo Decimation to 30 seconds                      COMMENT
 SNR is mapped to RINEX snr flag value [0-9]                COMMENT
  L1 & L2: min(max(int(snr_dBHz/6), 0), 9)                  COMMENT
teqc edited: Beidou # 1 - 37 excluded                       COMMENT
  2009    10    12    23    10   30.0000000     GPS         TIME OF FIRST OBS
                                                            END OF HEADER
 09 10 12 23 10 30.0000000  0  7G02G04G12G13G23G30G31
   -298007.98058   -196826.00456
                  21055596.1884                                   21055589.8634
                                                                        51.0004
        41.0004
   -132700.51658    -87930.00856
                  20584982.2114                                   20584977.9614
                                                                        52.7504
        41.7504
    -24737.86357    -17234.11355
                  23543625.3594                                   23543620.6334
                                                                        46.7504
        30.7504
   -342271.35958   -225914.07455
                  22276107.8054                                   22276103.2974
                                                                        48.5004
        32.0004
   -184092.59458   -121656.86755
                  21776748.4304                                   21776742.0164
                                                                        48.7504
        35.0004
   -122443.81657    -81080.89154
                  22592223.1094                                   22592218.8554
                                                                        45.2504
        29.2504
   -128488.43757    -87743.35554
                  23693218.5394                                   23693214.2384
                                                                        44.5004
        29.2504
 09 10 12 23 11  0.0000000  0  8G02G04G12G13G20G23G30G31
   -448532.32048   -314117.71946
                  21026952.3284                                   21026946.0824
                                                                        51.5004
        41.2504
   -199274.10948   -139805.53546
                  20572313.3524                                   20572310.1054
                                                                        52.2504
        41.7504
    -37462.26647    -27149.23845
                  23541204.0634                                   23541199.4694
                                                                        46.0004
        30.5004
   -515151.97748   -360626.19545
                  22243209.9844                                   22243205.4064
                                                                        48.7504
        32.0004
     26858.39856     17207.97753
                  23883737.0634                                   23883732.7274
                                                                        41.5004
        20.5004
   -276748.95348   -193856.62145
                  21759116.3134                                   21759110.0394
                                                                        48.5004
        35.5004
   -183909.68747   -128976.37945
                  22580525.9614                                   22580522.3754
                                                                        45.0004
        30.0004
   -194882.08247   -139478.72744
                  23680584.0474                                   23680580.2234
                                                                        43.7504
        28.7504
 09 10 12 23 11 30.0000000  0  8G02G04G12G13G20G23G30G31
   -597949.07848   -430546.35546
                  20998519.2734                                   20998513.0864
                                                                        51.0004
        41.2504
   -264650.67648   -190748.31646
                  20559872.7114                                   20559868.8484
                                                                        52.2504
        41.7504
    -49135.66847    -36245.40645
                  23538982.8444                                   23538977.6334
                                                                        47.0004
        31.7504
   -686907.57448   -494461.66845
                  22210525.6724                                   22210521.1484
                                                                        49.2504
        31.7504
     43818.32847     30423.53943
                  23886965.3444                                   23886960.4344
                                                                        42.7504
        20.2504
   -368123.89847   -265057.85245
                  21741728.6414                                   21741722.0274
                                                                        47.5004
        35.0004
   -244080.34447   -175862.61745
                  22569076.2894                                   22569072.7544
                                                                        45.7504
        30.5004
   -260049.95747   -190258.75044
                  23668182.4694                                   23668178.6884
                                                                        43.5004
        28.7504
 09 10 12 23 12  0.0000000  0  8G02G04G12G13G20G23G30G31
   -746194.17648   -546062.01646
                  20970309.2814                                   20970303.0984
                                                                        51.0004
        41.2504
   -328769.08648   -240710.72747
                  20547671.4384                                   20547667.5204
                                                                        52.0004
        42.0004
    -59698.75047    -44476.39845
                  23536973.3524                                   23536968.0984
                                                                        47.2504
        31.7504
   -857473.59048   -627370.18745
                  22178068.2034                                   22178063.8094
                                                                        49.2504
        32.0004
     61672.36346     44335.79743
                  23890362.5084                                   23890357.7814
                                                                        41.0004
        21.2504
   -458155.95747   -335212.67245
                  21724595.4844                                   21724588.9184
                                                                        47.7504
        35.2504
   -302895.49647   -221692.70745
                  22557884.2584                                   22557880.5664
                                                                        45.5004
        30.2504
   -323931.77347   -240036.75844
                  23656026.6334                                   23656022.3204
                                                                        42.0004
        27.5004
 09 10 12 23 12 30.0000000  0  8G02G04G12G13G20G23G30G31
   -893263.35548   -660661.38346
                  20942322.9614                                   20942316.3094
                                                                        51.5004
        41.5004
   -391627.34448   -289691.20746
                  20535709.7424                                   20535705.7854
                                                                        52.5004
        41.5004
    -69151.57047    -51842.23445
                  23535174.2114                                   23535169.1994
                                                                        46.5004
        32.0004
  -1026844.63348   -759347.60945
                  22145837.6954                                   22145833.5514
                                                                        48.5004
        32.5004
     80421.03146     58945.15243
                  23893929.6954                                   23893925.8094
                                                                        40.0004
        21.0004
   -546842.41048   -404319.02045
                  21707719.1564                                   21707712.6954
                                                                        48.0004
        34.7504
   -360353.59447   -266465.23044
                  22546950.0864                                   22546946.0234
                                                                        45.5004
        29.5004
   -386525.75447   -288811.23044
                  23644114.9774                                   23644110.3164
                                                                        42.7504
        26.0004
 09 10 12 23 13  0.0000000  0  8G02G04G12G13G20G23G30G31
  -1039179.52748   -774362.30146
                  20914555.9144                                   20914549.8794
                                                                        50.5004
        41.0004
   -453251.00448   -337709.65246
                  20523983.1414                                   20523979.3594
                                                                        52.0004
        41.7504
    -77521.32847    -58364.12145
                  23533581.3524                                   23533576.9654
                                                                        46.7504
        31.7504
  -1195042.88747   -890411.22745
                  22113830.7034                                   22113826.0314
                                                                        47.5004
        31.7504
    100037.12946     74230.40643
                  23897663.6804                                   23897658.6054
                                                                        39.0004
        21.0004
   -634207.71147   -472395.89145
                  21691094.0784                                   21691087.5354
                                                                        47.0004
        34.2504
   -416480.63347   -310200.55945
                  22536269.1334                                   22536265.7734
                                                                        44.5004
        30.0004
   -447857.42647   -336602.02344
                  23632443.8284                                   23632439.4494
                                                                        42.0004
        26.7504
 09 10 12 23 13 30.0000000  0  8G02G04G12G13G20G23G30G31
  -1183973.53548   -887188.78146
                  20887002.4774                                   20886996.2814
                                                                        51.5004
        41.2504
   -513673.58248   -384792.20346
                  20512485.2424                                   20512481.2974
                                                                        52.5004
        41.2504
    -84843.65247    -64069.88745
                  23532187.6804                                   23532183.5004
                                                                        46.0004
        31.5004
  -1362098.11348  -1020584.13745
                  22082041.0314                                   22082036.2934
                                                                        48.2504
        32.0004
    120486.08646     90164.59443
                  23901553.8674                                   23901549.7424
                                                                        38.5004
        20.5004
   -720284.78948   -539468.94545
                  21674714.1564                                   21674707.4654
                                                                        48.2504
        35.2504
   -471310.90247   -352925.43445
                  22525835.2894                                   22525831.6094
                                                                        46.2504
        30.0004
   -507960.49647   -383435.51644
                  23621006.5394                                   23621002.2664
                                                                        43.5004
        28.2504
 09 10 12 23 14  0.0000000  0  8G02G04G12G13G20G23G30G31
  -1327685.62548   -999172.23046
                  20859654.6564                                   20859648.7584
                                                                        52.0004
        41.2504
   -572937.75848   -430972.09046
                  20501207.5554                                   20501203.8244
                                                                        53.5004
        41.5004
    -91162.84847    -68993.98845
                  23530984.9454                                   23530981.1254
                                                                        44.7504
        30.0004
  -1528049.68448  -1149897.04745
                  22050461.2274                                   22050457.0634
                                                                        48.7504
        32.0004
    141723.39846    106713.08643
                  23905595.5474                                   23905591.6724
                                                                        39.5004
        21.5004
   -805115.95348   -605571.17645
                  21658571.6484                                   21658565.1914
                                                                        48.2504
        35.5004
   -524887.56647   -394673.46944
                  22515640.3984                                   22515636.4844
                                                                        46.2504
        29.7504
   -566878.32447   -429345.41844
                  23609794.9064                                   23609790.4414
                                                                        44.0004
        28.0004
 09 10 12 23 14 30.0000000  0  8G02G04G12G13G20G23G30G31
    105077.23048    117266.37547
                  21132300.7114                                   21132294.3794
                                                                        51.5004
        42.0004
    944343.95748    751325.31346
                  20789936.8754                                   20789932.8634
                                                                        52.0004
        41.7504
   1478904.48847   1154435.02345
                  23829758.9924                                   23829754.8954
                                                                        45.0004
        30.7504
   -117502.80948    -50769.62545
                  22318880.0554                                   22318875.2584
                                                                        49.0004
        32.5004
   1739132.74246   1351447.58643
                  24209571.7664                                   24209568.4804
                                                                        39.5004
        21.5004
    686688.66447    556874.02745
                  21942452.0004                                   21942445.8324
                                                                        47.5004
        35.5004
    998175.86747    792129.25044
                  22805469.2424                                   22805465.1564
                                                                        45.0004
        29.2504
    950776.71547    753242.97344
                  23898595.0554                                   23898590.3054
                                                                        43.2504
        27.0004
 09 10 12 23 15  0.0000000  0  8G02G04G12G13G20G23G30G31
    -36564.42248      6896.24647
                  21105347.2274                                   21105341.0314
                                                                        52.0004
        42.0004
    887295.44548    706871.89847
                  20779080.7734                                   20779077.0274
                                                                        52.7504
        42.0004
   1474484.55147   1150990.94145
                  23828917.6414                                   23828913.3284
                                                                        45.7504
        30.0004
   -281337.74248   -178433.19945
                  22287702.8914                                   22287698.1524
                                                                        49.5004
        32.2504
   1761841.62546   1369142.87943
                  24213893.9144                                   24213889.4024
                                                                        41.0004
        21.0004
    604251.33248    492637.17245
                  21926764.9144                                   21926758.2894
                                                                        49.0004
        35.2504
    947002.97347    752254.23444
                  22795731.4144                                   22795727.7664
                                                                        44.5004
        29.7504
    894127.97347    709101.05144
                  23887815.2194                                   23887810.7154
                                                                        44.0004
        28.2504
 09 10 12 23 15 30.0000000  0  8G02G04G12G13G20G23G30G31
   -177207.42248   -102695.71146
                  21078583.7034                                   21078577.7114
                                                                        52.5004
        41.5004
    831314.69148    663250.50846
                  20768427.7894                                   20768423.8244
                                                                        52.5004
        41.2504
   1470970.78947   1148252.93844
                  23828249.3594                                   23828245.0784
                                                                        45.5004
        29.7504
   -444149.18048   -305299.23045
                  22256720.9614                                   22256716.8054
                                                                        49.5004
        31.5004
   1785244.23846   1387378.72743
                  24218347.9774                                   24218342.8554
                                                                        41.2504
        19.2504
    522971.49648    429302.29345
                  21911297.9144                                   21911291.8164
                                                                        49.7504
        34.5004
    896990.75847    713283.73844
                  22786214.1024                                   22786210.1094
                                                                        44.5004
        29.0004
    838573.24647    665811.67644
                  23877243.4694                                   23877238.7074
                                                                        43.2504
        26.7504
 09 10 12 23 16  0.0000000  0  8G02G04G12G13G20G23G30G31
   -316888.90248   -211538.42246
                  21052003.3914                                   21051996.9964
                                                                        52.7504
        41.2504
    776361.58248    620429.88346
                  20757970.6884                                   20757967.0394
                                                                        53.0004
        41.2504
   1468322.10547   1146189.02344
                  23827745.8054                                   23827740.8954
                                                                        46.0004
        29.7504
   -605973.86748   -431396.35945
                  22225926.8834                                   22225922.2664
                                                                        48.5004
        32.7504
   1809299.34046   1406122.99643
                  24222924.7664                                   24222920.1684
                                                                        39.7504
        20.0004
    442809.98848    366838.83645
                  21896043.9694                                   21896037.2774
                                                                        49.0004
        34.5004
    848098.71947    675186.03944
                  22776910.6094                                   22776906.7774
                                                                        44.5004
        29.5004
    784072.49647    623343.58244
                  23866872.1644                                   23866867.4884
                                                                        44.5004
        26.0004
 09 10 12 23 16 30.0000000  0  8G02G04G12G13G20G23G30G31
   -455636.31248   -319653.30946
                  21025600.6024                                   21025594.6024
                                                                        53.0004
        41.5004
    722406.40648    578386.88346
                  20747703.2664                                   20747699.7894
                                                                        52.5004
        41.2504
   1466506.76647   1144774.46945
                  23827400.5704                                   23827395.2504
                                                                        46.5004
        30.2504
   -766838.11348   -556745.13345
                  22195315.1884                                   22195310.7424
                                                                        48.7504
        32.2504
   1833975.59046   1425351.32843
                  24227620.1484                                   24227615.9064
                                                                        39.0004
        19.5004
    363737.61748    305224.03945
                  21880996.5164                                   21880990.0394
                                                                        49.2504
        34.7504
    800296.33647    637937.39544
                  22767814.1954                                   22767809.8134
                                                                        45.0004
        29.2504
    730595.36347    581673.10244
                  23856696.3284                                   23856690.9414
                                                                        44.5004
        26.5004
 09 10 12 23 17  0.0000000  0  8G02G04G12G13G20G23G30G31
   -593472.39848   -427058.08246
                  20999371.0084                                   20999365.1644
                                                                        51.2504
        41.7504
    669423.61348    537101.58646
                  20737620.9614                                   20737617.0164
                                                                        52.7504
        41.0004
   1465497.25447   1143987.82845
                  23827208.5164                                   23827203.1334
                                                                        46.5004
        30.2504
   -926763.77348   -681362.54345
                  22164882.3054                                   22164877.6414
                                                                        49.0004
        32.2504
   1859246.03946   1445042.51243
                  24232428.4924                                   24232424.9614
                                                                        38.5004
        19.0004
    285729.48848    244438.51245
                  21866152.2274                                   21866145.2734
                                                                        48.7504
        34.5004
    753557.43847    601517.47844
                  22758920.0314                                   22758916.2464
                                                                        43.5004
        29.2504
    678116.09847    540780.07844
                  23846709.8594                                   23846704.6604
                                                                        44.2504
        26.5004
 09 10 12 23 17 30.0000000  0  8G02G04G12G13G20G23G30G31
   -730422.25048   -533772.33246
                  20973310.4144                                   20973304.2774
                                                                        52.5004
        41.2504
    617386.02048    496552.80546
                  20727719.0634                                   20727714.8914
                                                                        52.7504
        40.5004
   1465263.80947   1143805.88345
                  23827163.4614                                   23827158.6254
                                                                        45.7504
        30.5004
  -1085774.57048   -805267.01645
                  22134623.7194                                   22134618.9654
                                                                        49.5004
        32.0004
   1885082.38746   1465174.69543
                  24237345.6804                                   24237341.2154
                                                                        39.5004
        19.5004
    208759.05548    184461.55945
                  21851505.2504                                   21851498.6024
                                                                        49.5004
        35.2504
    707853.51247    565904.03544
                  22750223.1564                                   22750219.0554
                                                                        44.0004
        28.7504
    626606.85247    500642.92244
                  23836907.4924                                   23836902.6334
                                                                        44.7504
        26.7504
 09 10 12 23 18  0.0000000  0  8G02G04G12G13G20G23G30G31
   -866504.44548   -639810.46146
                  20947414.7894                                   20947408.9304
                                                                        51.5004
        41.5004
    566272.07048    456723.75046
                  20717991.9454                                   20717988.4184
                                                                        52.5004
        41.2504
   1465783.81347   1144211.06345
                  23827262.5634                                   23827258.3554
                                                                        44.7504
        30.7504
  -1243888.85548   -928472.92645
                  22104535.9224                                   22104530.4064
                                                                        49.2504
        32.2504
   1911461.87146   1485730.17643
                  24242365.2424                                   24242361.5234
                                                                        41.0004
        21.2504
    132805.41048    125276.87545
                  21837051.6954                                   21837045.1174
                                                                        49.2504
        34.5004
    663163.27347    531080.48444
                  22741718.4924                                   22741714.6684
                                                                        43.7504
        29.7504
    576046.68047    461245.38344
                  23827286.5784                                   23827281.2344
                                                                        44.5004
        26.5004
 09 10 12 23 18 30.0000000  0  8G02G04G12G13G20G23G30G31
  -1001739.95748   -745188.80147
                  20921680.4224                                   20921674.3014
                                                                        52.0004
        42.0004
    516058.02348    417595.92646
                  20708436.5784                                   20708432.4654
                                                                        53.2504
        41.5004
   1467031.78147   1145183.45345
                  23827499.7894                                   23827495.9614
                                                                        44.5004
        30.0004
  -1401126.93048  -1050996.08245
                  22074613.9774                                   22074609.4924
                                                                        48.5004
        33.2504
   1938359.35946   1506689.24643
                  24247483.7194                                   24247479.5084
                                                                        40.2504
        20.5004
     57845.50448     66866.49645
                  21822787.5004                                   21822780.9454
                                                                        50.2504
        34.7504
    619461.93447    497027.51244
                  22733402.2504                                   22733398.6294
                                                                        45.5004
        29.7504
    526410.87547    422568.22344
                  23817840.8134                                   23817836.2384
                                                                        44.7504
        26.7504
 09 10 12 23 19  0.0000000  0  8G02G04G12G13G20G23G30G31
  -1136142.06648   -849917.74646
                  20896104.6644                                   20896098.4064
                                                                        52.0004
        41.7504
    466728.12148    379157.05546
                  20699049.4774                                   20699045.6724
                                                                        53.5004
        41.2504
   1468989.67247   1146709.05544
                  23827872.2584                                   23827868.1414
                                                                        45.0004
        29.5004
  -1557501.14148  -1172846.11345
                  22044856.8594                                   22044852.4964
                                                                        49.7504
        33.5004
   1965757.69146   1528038.62943
                  24252697.9144                                   24252693.2974
                                                                        39.7504
        20.0004
    -16135.59848      9218.86345
                  21808709.1414                                   21808702.5864
                                                                        49.5004
        34.7504
    576732.47747    463731.78144
                  22725271.5634                                   22725267.6334
                                                                        45.0004
        29.7504
    477683.43447    384598.84044
                  23808568.3984                                   23808563.6724
                                                                        45.0004
        27.5004
 09 10 12 23 19 30.0000000  0  8G02G04G12G13G20G23G30G31
  -1269729.73848   -954012.05146
                  20870684.0394                                   20870677.5434
                                                                        51.5004
        41.7504
    418260.88348    341390.39546
                  20689826.4774                                   20689822.6094
                                                                        53.0004
        41.7504
   1471634.68847   1148770.09444
                  23828376.1414                                   23828371.6644
                                                                        44.2504
        29.5004
  -1713029.27048  -1294036.84845
                  22015261.0864                                   22015256.8244
                                                                        49.5004
        33.5004
   1993634.68046   1549760.93042
                  24258001.5394                                   24257998.1484
                                                                        39.0004
        17.7504
    -89159.16848    -47682.61745
                  21794813.3754                                   21794806.6804
                                                                        48.7504
        35.0004
    534953.17247    431176.39544
                  22717320.9614                                   22717317.6724
                                                                        45.7504
        29.5004
    429842.78147    347320.36744
                  23799464.3754                                   23799460.2854
                                                                        44.2504
        27.7504
 09 10 12 23 20  0.0000000  0  8G02G04G12G13G20G23G30G31
  -1402517.23048  -1057482.84846
                  20845415.0394                                   20845409.1724
                                                                        52.2504
        41.5004
    370639.64848    304282.93846
                  20680764.4534                                   20680760.4494
                                                                        53.0004
        41.2504
   1474947.79747   1151351.69944
                  23829006.4144                                   23829001.8484
                                                                        46.5004
        29.0004
  -1867724.59448  -1414578.66445
                  21985823.5394                                   21985819.4964
                                                                        49.0004
        33.0004
   2021972.28946   1571842.21543
                  24263395.3674                                   24263391.2384
                                                                        40.5004
        19.5004
   -161241.15648   -103850.48045
                  21781096.5234                                   21781090.3054
                                                                        49.5004
        35.0004
    494106.56347    399347.89145
                  22709548.1254                                   22709544.5004
                                                                        45.2504
        30.5004
    382871.79347    310719.65244
                  23790525.8674                                   23790522.1214
                                                                        43.5004
        26.7504
 09 10 12 23 20 30.0000000  0  8G02G04G12G13G20G23G30G31
  -1534518.24648  -1160340.78947
                  20820296.1024                                   20820290.4304
                                                                        52.5004
        42.0004
    323847.78148    267821.71946
                  20671860.2664                                   20671856.2074
                                                                        53.2504
        41.0004
   1478911.21547   1154440.11344
                  23829760.8444                                   23829755.4304
                                                                        45.5004
        29.5004
  -2021600.32448  -1534481.82045
                  21956541.6564                                   21956537.2854
                                                                        49.0004
        33.5004
   2050752.66046   1594268.46943
                  24268872.1334                                   24268867.2194
                                                                        40.2504
        19.5004
   -232397.60948   -159297.13345
                  21767555.9454                                   21767549.7034
                                                                        49.0004
        34.5004
    454175.25447    368232.58244
                  22701949.6024                                   22701945.4144
                                                                        44.7504
        29.5004
    336753.35247    274783.21544
                  23781749.7194                                   23781746.0554
                                                                        43.5004
        26.0004
 09 10 12 23 21  0.0000000  0  8G02G04G12G13G20G23G30G31
  -1665744.87548  -1262595.34846
                  20795324.3134                                   20795318.5314
                                                                        51.7504
        41.5004
    277870.60548    231995.33246
                  20663111.1024                                   20663107.1374
                                                                        53.0004
        41.2504
   1483508.16847   1158022.18845
                  23830635.3364                                   23830630.2464
                                                                        46.2504
        30.0004
  -2174667.66848  -1653755.09045
                  21927414.3054                                   21927409.4144
                                                                        48.7504
        33.0004
   2079959.73446   1617027.18043
                  24274428.8134                                   24274425.4774
                                                                        39.7504
        20.7504
   -302642.81248   -214033.69145
                  21754188.8754                                   21754182.2464
                                                                        49.5004
        34.7504
    415143.93047    337818.57845
                  22694522.0314                                   22694518.1804
                                                                        44.5004
        30.0004
    291472.82847    239499.70344
                  23773133.2814                                   23773129.2504
                                                                        42.0004
        25.5004
 09 10 12 23 21 30.0000000  0  7G02G04G12G13G23G30G31
  -1796208.54348  -1364255.37146
                  20770498.4384                                   20770492.1254
                                                                        52.0004
        41.7504
    232694.53148    196793.19546
                  20654514.1884                                   20654510.7274
                                                                        52.2504
        41.0004
   1488723.08247   1162085.74644
                  23831627.7194                                   23831623.3244
                                                                        45.0004
        29.0004
  -2326936.65248  -1772406.21945
                  21898438.2974                                   21898433.4184
                                                                        49.0004
        32.7504
   -371989.40648   -268070.02345
                  21740992.7274                                   21740986.2384
                                                                        48.7504
        34.7504
    376997.68047    308094.23844
                  22687262.8754                                   22687259.0004
                                                                        44.0004
        29.7504
    247015.92546    204857.97444
                  23764672.9614                                   23764669.5084
                                                                        41.2504
        26.5004
 09 10 12 23 22  0.0000000  0  7G02G04G12G13G23G30G31
  -1925920.64848  -1465329.77347
                  20745815.0554                                   20745808.6884
                                                                        52.0004
        42.0004
    188305.07848    162204.02046
                  20646067.0474                                   20646063.3914
                                                                        52.5004
        41.7504
   1494539.88747   1166618.31344
                  23832734.1564                                   23832729.6024
                                                                        44.0004
        29.0004
  -2478418.15248  -1890443.72345
                  21869612.4924                                   21869607.8404
                                                                        49.0004
        32.5004
   -440451.34048   -321416.96145
                  21727964.3444                                   21727958.0394
                                                                        48.5004
        35.0004
    339721.50447    279047.84444
                  22680169.7034                                   22680165.9924
                                                                        45.5004
        29.5004
    203367.83647    170846.52044
                  23756366.9144                                   23756363.2464
                                                                        42.5004
        28.0004
 09 10 12 23 22 30.0000000  0  7G02G04G12G13G23G30G31
  -2054887.31248  -1565823.28547
                  20721273.2504                                   20721267.0664
                                                                        51.5004
        42.2504
    144693.70348    128221.16446
                  20637768.3984                                   20637764.4344
                                                                        53.0004
        41.5004
   1500948.27347   1171611.82044
                  23833953.4384                                   23833949.6884
                                                                        44.5004
        28.7504
  -2629117.84048  -2007872.04745
                  21840935.2344                                   21840930.4924
                                                                        50.0004
        33.0004
   -508036.86348   -374081.02745
                  21715103.6884                                   21715097.0864
                                                                        49.0004
        34.7504
    303305.81347    250671.99245
                  22673240.2114                                   22673236.4024
                                                                        44.5004
        30.5004
    160519.81647    137458.52044
                  23748213.8984                                   23748209.8094
                                                                        43.5004
        27.0004
 09 10 12 23 23  0.0000000  0  8G02G04G12G13G29G23G30G31
  -2183112.62148  -1665739.10246
                  20696872.8524                                   20696866.9344
                                                                        51.5004
        41.7504
    101853.46948     94839.14846
                  20629616.2584                                   20629612.3874
                                                                        52.5004
        40.7504
   1507939.75447   1177059.73844
                  23835284.8914                                   23835280.0634
                                                                        44.5004
        28.0004
  -2779038.66048  -2124693.48445
                  21812405.8134                                   21812401.5204
                                                                        49.2504
        33.0004
   1264917.20356   1029739.34453
                  24272980.2114                                   24272975.9964
                                                                        40.0004
        22.5004
   -574752.31648   -426067.13745
                  21702408.2664                                   21702401.8794
                                                                        48.5004
        34.7504
    267743.41847    222961.02045
                  22666472.5554                                   22666469.6054
                                                                        44.7504
        30.0004
    118464.46547    104688.16844
                  23740210.7504                                   23740206.3364
                                                                        42.5004
        27.2504
 09 10 12 23 23 30.0000000  0  8G02G04G12G13G29G23G30G31
  -2310615.01248  -1765091.59847
                  20672609.9614                                   20672604.1134
                                                                        51.5004
        42.0004
     59763.39848     62041.68846
                  20621606.4384                                   20621602.4924
                                                                        53.0004
        41.2504
   1515491.25447   1182944.00044
                  23836721.5004                                   23836717.2304
                                                                        43.5004
        28.2504
  -2928198.52048  -2240921.93745
                  21784021.5234                                   21784017.4344
                                                                        49.5004
        33.0004
   1081314.07847    886671.95743
                  24238041.6804                                   24238037.2194
                                                                        42.0004
        22.7504
   -640617.98048   -477391.09445
                  21689874.4694                                   21689868.0634
                                                                        48.5004
        35.0004
    233012.32447    195897.82045
                  22659863.5634                                   22659860.1524
                                                                        44.2504
        30.0004
     77180.64147     72518.95344
                  23732354.7504                                   23732350.7974
                                                                        42.5004
        27.2504
 09 10 12 23 24  0.0000000  0  8G02G04G12G13G29G23G30G31
   -861987.69548   -636291.07847
                  20948274.7974                                   20948268.8554
                                                                        51.0004
        42.0004
   1593824.92248   1257414.30946
                  20913528.7664                                   20913525.1054
                                                                        52.5004
        41.5004
   3099000.66447   2416847.40644
                  24138053.5234                                   24138049.1804
                                                                        44.5004
        29.7504
  -1501188.59448  -1128966.14845
                  22055572.7584                                   22055568.5434
                                                                        49.5004
        33.0004
   2473570.86346   1971547.36744
                  24502979.8054                                   24502975.2974
                                                                        41.5004
        26.5004
    869768.66848    699533.54745
                  21977291.4144                                   21977284.8714
                                                                        48.7504
        34.5004
   1774512.82447   1397067.06344
                  22953201.3364                                   22953197.8874
                                                                        45.7504
        29.5004
   1612069.07447   1268535.89544
                  24024434.7894                                   24024430.1844
                                                                        43.2504
        27.2504
 09 10 12 23 24 30.0000000  0  8G02G04G12G13G29G23G30G31
   -988080.36748   -734545.10946
                  20924279.9924                                   20924273.6724
                                                                        51.0004
        41.5004
   1553191.29748   1225751.75046
                  20905796.4774                                   20905792.7544
                                                                        53.0004
        41.2504
   3107623.25847   2423566.24245
                  24139694.2664                                   24139690.1884
                                                                        45.0004
        30.5004
  -1648859.61348  -1244034.46945
                  22027471.8054                                   22027467.3914
                                                                        50.0004
        33.2504
   2290834.83246   1829155.66444
                  24468205.7664                                   24468202.8204
                                                                        40.5004
        27.7504
    805559.96548    649500.80545
                  21965073.0314                                   21965066.2774
                                                                        48.2504
        34.5004
   1741397.89147   1371263.23444
                  22946899.6334                                   22946896.2384
                                                                        46.0004
        29.2504
   1572283.07847   1237533.81344
                  24016863.6174                                   24016859.5474
                                                                        43.0004
        27.7504
 09 10 12 23 25  0.0000000  0  8G02G04G12G13G29G23G30G31
  -1113476.75848   -832256.57847
                  20900417.7344                                   20900411.8674
                                                                        51.0004
        42.5004
   1513273.31348   1194646.81646
                  20898200.4304                                   20898196.6174
                                                                        53.0004
        41.5004
   3116766.58647   2430690.90245
                  24141434.6804                                   24141429.9884
                                                                        44.5004
        30.0004
  -1795793.88348  -1358528.69545
                  21999511.1954                                   21999507.0234
                                                                        49.2504
        34.0004
   2108525.24246   1687096.26644
                  24433512.5084                                   24433510.0824
                                                                        39.0004
        24.5004
    742167.69548    600104.23045
                  21953009.3284                                   21953003.5784
                                                                        48.2504
        35.0004
   1709077.10247   1346078.18045
                  22940748.9774                                   22940746.0944
                                                                        44.2504
        30.0004
   1533232.56646   1207104.80544
                  24009432.3594                                   24009428.2384
                                                                        41.5004
        27.5004
 09 10 12 23 25 30.0000000  0  8G02G04G12G13G29G23G30G31
  -1238175.57848   -929424.48847
                  20876687.9304                                   20876682.4414
                                                                        50.5004
        42.0004
   1474069.71548   1164098.55146
                  20890740.0004                                   20890736.3204
                                                                        52.5004
        41.0004
   3126426.99247   2438218.44945
                  24143272.6484                                   24143267.9924
                                                                        44.5004
        30.2504
  -1941988.71948  -1472446.73045
                  21971691.2344                                   21971686.6914
                                                                        49.5004
        34.0004
   1926644.50846   1545371.12144
                  24398901.6724                                   24398899.4774
                                                                        39.0004
        25.0004
    679591.56347    551343.60945
                  21941101.5554                                   21941095.7074
                                                                        47.7504
        34.5004
   1677548.32847   1321510.30944
                  22934749.3834                                   22934746.4064
                                                                        43.7504
        28.7504
   1494916.26646   1177247.97744
                  24002141.2194                                   24002136.8054
                                                                        40.7504
        27.2504
 09 10 12 23 26  0.0000000  0  8G02G04G12G13G29G23G30G31
  -1362186.91848  -1026056.69947
                  20853089.5704                                   20853083.8984
                                                                        50.5004
        42.0004
   1435567.82448   1134097.07046
                  20883413.7034                                   20883410.1024
                                                                        53.0004
        41.2504
   3136590.39547   2446137.95744
                  24145206.5864                                   24145201.6254
                                                                        45.0004
        28.5004
  -2087453.66048  -1585796.03145
                  21944010.4774                                   21944005.9304
                                                                        49.5004
        34.0004
   1745183.65246   1403973.07443
                  24364371.7274                                   24364368.9384
                                                                        39.7504
        23.7504
    617818.91047    503209.08645
                  21929347.0474                                   21929340.3134
                                                                        47.5004
        34.2504
   1646798.08247   1297549.07044
                  22928897.7894                                   22928894.0554
                                                                        43.2504
        28.7504
   1457320.95747   1147952.96944
                  23994986.6254                                   23994982.7154
                                                                        44.0004
        27.5004
 09 10 12 23 26 30.0000000  0  8G02G04G12G13G29G23G30G31
  -1485512.15648  -1122154.30547
                  20829621.7504                                   20829615.8554
                                                                        50.0004
        42.2504
   1397763.58648   1104639.21146
                  20876219.5314                                   20876216.1994
                                                                        53.5004
        41.0004
   3147251.19147   2454445.05144
                  24147234.9924                                   24147230.4264
                                                                        44.5004
        27.5004
  -2232189.44548  -1698577.14845
                  21916467.7504                                   21916463.2934
                                                                        49.5004
        33.7504
   1564142.46146   1262902.07844
                  24329920.6884                                   24329917.3984
                                                                        41.5004
        25.0004
    556846.51248    455698.13345
                  21917744.6254                                   21917737.8834
                                                                        48.5004
        34.7504
   1616821.34447   1274190.57844
                  22923193.7034                                   22923190.2384
                                                                        44.5004
        29.2504
   1420442.38347   1119216.43044
                  23987969.0234                                   23987965.1564
                                                                        43.2504
        26.5004
 09 10 12 23 27  0.0000000  0  9G02G04G12G13G29G23G30G31G10
  -1608156.18448  -1217721.09847
                  20806283.3444                                   20806277.0904
                                                                        50.2504
        43.0004
   1360649.41848   1075719.05946
                  20869157.0394                                   20869153.2114
                                                                        52.7504
        41.0004
   3158400.06347   2463132.48044
                  24149356.3674                                   24149351.7504
                                                                        44.5004
        26.0004
  -2376200.07848  -1810793.21545
                  21889063.8204                                   21889059.1914
                                                                        49.5004
        33.5004
   1383516.87546   1122154.87944
                  24295548.5084                                   24295545.0904
                                                                        40.7504
        24.5004
    496667.05947    408805.07845
                  21906292.6174                                   21906286.2584
                                                                        47.7504
        34.0004
   1587609.88747   1251428.41444
                  22917634.6334                                   22917631.1214
                                                                        45.5004
        29.0004
   1384272.51247   1091032.18844
                  23981086.5944                                   23981081.4884
                                                                        44.0004
        28.2504
   2815377.95757   2241373.59854
                  24188133.0084                                   24188130.1214
                                                                        42.5004
        26.0004
 09 10 12 23 27 30.0000000  0  9G02G04G12G13G29G23G30G31G10
  -1730129.00848  -1312764.85947
