     2.11           OBSERVATION DATA    G (GPS)             RINEX VERSION / TYPE
teqc  2019Feb25                         20221121 12:28:02UTCPGM / RUN BY / DATE
OSX ker:10.11.6|Core i5|gcc 4.3 -m64|OSX ker:10.10+|=+      COMMENT
BIT 2 OF LLI FLAGS DATA COLLECTED UNDER A/S CONDITION       COMMENT
04712771                                                    MARKER NAME
2771                                                        MARKER NUMBER
-Unknown-           -Unknown-                               OBSERVER / AGENCY
0220400471          TRIMBLE R7          2.30                REC # / TYPE / VERS
-Unknown-           TRM39105.00     NONE                    ANT # / TYPE
  1449460.6501 -1709240.0109  5952441.5749                  APPROX POSITION XYZ
        0.0000        0.0000        0.0000                  ANTENNA: DELTA H/E/N
     1     1                                                WAVELENGTH FACT L1/2
    20    L1    L2    L5    L6    L7    L8    C1    P1    C2# / TYPES OF OBSERV
          P2    C5    C6    C7    C8    S1    S2    S5    S6# / TYPES OF OBSERV
          S7    S8                                          # / TYPES OF OBSERV
    30.0000                                                 INTERVAL
    15                                                      LEAP SECONDS
Forced Modulo Decimation to 30 seconds                      COMMENT
 SNR is mapped to RINEX snr flag value [0-9]                COMMENT
  L1 & L2: min(max(int(snr_dBHz/6), 0), 9)                  COMMENT
teqc edited: Beidou # 1 - 37 excluded                       COMMENT
  2009    10     4    23     9   30.0000000     GPS         TIME OF FIRST OBS
                                                            END OF HEADER
 09 10  4 23  9 30.0000000  0  9G02G04G12G13G17G20G23G30G31
   -252582.87558   -124936.87556
                  22006737.6724                                   22006732.0434
                                                                        51.0004
        39.0004
   -154412.00058    -75638.87557
                  20536051.8594                                   20536048.4344
                                                                        51.2504
        42.2504
    -70782.28157    -35637.41855
                  22751379.8284                                   22751376.0124
                                                                        47.0004
        35.0004
   -282478.25457   -140809.82454
                  23527319.0944                                   23527314.1374
                                                                        43.2504
        26.7504
     17926.57057      8271.55955
                  23385279.3054                                   23385275.8364
                                                                        44.0004
        31.2504
     -8006.41857     -4662.27754
                  22649178.0704                                   22649173.3984
                                                                        46.0004
        29.0004
   -192318.19558    -95352.05555
                  22080262.9774                                   22080256.4224
                                                                        48.0004
        35.2504
   -152652.46157    -79450.91054
                  22524387.7344                                   22524384.2664
                                                                        45.7504
        29.5004
   -152717.36757    -76230.57054
                  23651919.9844                                   23651916.2734
                                                                        43.0004
        28.5004
 09 10  4 23 10  0.0000000  0  9G02G04G12G13G17G20G23G30G31
   -435516.63348   -267482.71946
                  21971926.2894                                   21971921.2114
                                                                        50.5004
        38.0004
   -266013.88748   -162601.48047
                  20514814.8204                                   20514811.4804
                                                                        50.5004
        42.0004
   -123087.69547    -76394.75445
                  22741426.4384                                   22741422.8444
                                                                        46.2504
        35.2504
   -486942.16046   -300132.35244
                  23488410.5314                                   23488406.4844
                                                                        41.7504
        26.0004
     29183.50847     17043.15245
                  23387421.5864                                   23387417.6564
                                                                        44.0004
        31.0004
    -15382.48047    -10409.81644
                  22647773.5634                                   22647769.7854
                                                                        45.7504
        29.5004
   -331652.85547   -203924.55945
                  22053748.5234                                   22053742.6524
                                                                        47.2504
        35.0004
   -265494.84847   -167379.72344
                  22502913.9304                                   22502910.3634
                                                                        44.5004
        29.0004
   -265162.88747   -163850.55144
                  23630523.1334                                   23630518.4304
                                                                        43.5004
        27.5004
 09 10  4 23 10 30.0000000  0  9G02G04G12G13G17G20G23G30G31
   -617940.25448   -409631.05146
                  21937212.3284                                   21937207.0514
                                                                        50.7504
        38.0004
   -376873.98848   -248985.91047
                  20493718.8444                                   20493715.6374
                                                                        51.5004
        42.0004
   -174656.37947   -116578.02745
                  22731613.3134                                   22731609.7154
                                                                        47.2504
        35.2504
   -690949.49647   -459099.10944
                  23449588.3134                                   23449585.0704
                                                                        42.2504
        26.5004
     40841.83647     26127.53545
                  23389640.6094                                   23389636.4574
                                                                        44.5004
        32.0004
    -22236.96547    -15750.98044
                  22646469.8834                                   22646465.6254
                                                                        45.7504
        29.0004
   -470227.30548   -311904.58245
                  22027378.3914                                   22027372.4104
                                                                        48.0004
        34.5004
   -377484.30547   -254644.16844
                  22481602.8134                                   22481599.3984
                                                                        44.0004
        28.5004
   -376837.64147   -250869.50044
                  23609270.6954                                   23609267.1604
                                                                        43.2504
        27.5004
 09 10  4 23 11  0.0000000  0  9G02G04G12G13G17G20G23G30G31
   -799625.91048   -551204.33246
                  21902638.6804                                   21902632.9534
                                                                        50.5004
        37.7504
   -486766.91848   -334616.85247
                  20472806.9144                                   20472803.8404
                                                                        50.0004
        42.0004
   -225264.25447   -156012.67645
                  22721982.6804                                   22721979.4574
                                                                        47.5004
        35.5004
   -894271.39547   -617531.60944
                  23410897.6484                                   23410894.3794
                                                                        42.0004
        26.7504
     53124.94947     35698.80545
                  23391977.6884                                   23391973.6644
                                                                        43.7504
        31.0004
    -28346.25847    -20511.48444
                  22645307.4144                                   22645303.0164
                                                                        45.7504
        28.5004
   -607814.56647   -419115.39145
                  22001196.6254                                   22001190.4534
                                                                        47.7504
        35.5004
   -488394.69147   -341067.77044
                  22460497.3134                                   22460493.8444
                                                                        42.5004
        29.2504
   -487516.00447   -337111.93444
                  23588210.2274                                   23588205.6254
                                                                        43.5004
        27.7504
 09 10  4 23 11 30.0000000  0  9G02G04G12G13G17G20G23G30G31
   -980493.13748   -692139.89546
                  21868220.7344                                   21868215.6094
                                                                        50.5004
        38.5004
   -595613.30148   -419432.18447
                  20452094.1024                                   20452090.7114
                                                                        50.5004
        42.0004
   -274834.29347   -194638.66845
                  22712549.7894                                   22712545.7664
                                                                        47.0004
        35.5004
  -1096826.62547   -775366.91044
                  23372353.4224                                   23372349.4384
                                                                        43.7504
        27.2504
     66109.27047     45816.41845
                  23394448.5634                                   23394445.1644
                                                                        43.0004
        31.5004
    -33634.34847    -24632.11344
                  22644300.8834                                   22644296.6954
                                                                        45.5004
        28.5004
   -744334.71148   -525494.70345
                  21975217.7974                                   21975211.7074
                                                                        48.5004
        35.2504
   -598146.95747   -426589.14145
                  22439612.1254                                   22439609.4534
                                                                        43.0004
        30.0004
   -597119.87547   -422517.44144
                  23567352.6564                                   23567347.9224
                                                                        42.5004
        26.7504
 09 10  4 23 12  0.0000000  0  9G02G04G12G13G17G20G23G30G31
  -1160515.15648   -832416.88746
                  21833963.7814                                   21833958.7034
                                                                        51.0004
        38.7504
   -703387.80948   -503412.32046
                  20431585.3834                                   20431582.0704
                                                                        51.0004
        41.5004
   -323343.20748   -232437.91445
                  22703319.1954                                   22703315.6214
                                                                        48.0004
        35.0004
  -1298586.76647   -932582.66044
                  23333959.4534                                   23333955.5474
                                                                        43.5004
        25.5004
     79817.65247     56498.30545
                  23397056.9454                                   23397052.9654
                                                                        43.5004
        30.7504
    -38078.41047    -28095.05944
                  22643454.7974                                   22643451.1294
                                                                        44.7504
        28.7504
   -879761.40648   -631022.08645
                  21949446.9694                                   21949440.7624
                                                                        48.5004
        35.5004
   -706714.88347   -511187.53144
                  22418952.1644                                   22418949.1804
                                                                        43.7504
        29.2504
   -705622.96147   -507065.25844
                  23546705.2894                                   23546701.3284
                                                                        43.0004
        26.7504
 09 10  4 23 12 30.0000000  0  9G02G04G12G13G17G20G23G30G31
  -1339690.16448   -972033.77046
                  21799868.1094                                   21799863.3284
                                                                        51.5004
        39.0004
   -810090.80148   -586557.46946
                  20411280.4774                                   20411276.8404
                                                                        51.5004
        41.7504
   -370793.34047   -269412.04345
                  22694289.4384                                   22694285.9264
                                                                        47.0004
        35.0004
  -1499549.05947  -1089176.57444
                  23295717.6414                                   23295713.6724
                                                                        44.5004
        25.5004
     94246.86747     67741.80945
                  23399802.5164                                   23399798.8984
                                                                        42.2504
        30.2504
    -41681.80947    -30903.01244
                  22642769.3834                                   22642765.5744
                                                                        44.5004
        28.0004
  -1014093.12547   -735696.06245
                  21923884.4924                                   21923878.2384
                                                                        46.5004
        35.2504
   -814098.38347   -594862.80545
                  22398517.6644                                   22398514.8404
                                                                        45.5004
        30.0004
   -813025.35947   -590755.43444
                  23526267.0004                                   23526263.0514
                                                                        42.2504
        28.5004
 09 10  4 23 13  0.0000000  0  9G02G04G12G13G17G20G23G30G31
  -1518017.12148  -1110989.81646
                  21765933.7734                                   21765928.4414
                                                                        51.0004
        38.5004
   -915723.32448   -668868.55146
                  20391179.1954                                   20391175.9414
                                                                        53.0004
        41.5004
   -417187.45347   -305563.40645
                  22685460.8674                                   22685457.4924
                                                                        47.0004
        34.5004
  -1699711.98447  -1245147.65644
                  23257627.9614                                   23257623.4454
                                                                        45.0004
        26.0004
    109393.16847     79544.04345
                  23402685.0864                                   23402681.3244
                                                                        44.0004
        30.7504
    -44447.74247    -33058.49644
                  22642243.2034                                   22642239.3134
                                                                        45.2504
        28.5004
  -1147330.03948   -839517.05145
                  21898530.2814                                   21898523.9844
                                                                        48.5004
        35.5004
   -920299.21947   -677616.71944
                  22378308.7974                                   22378305.3634
                                                                        46.0004
        29.2504
   -919327.58247   -673588.29344
                  23506038.6724                                   23506034.9414
                                                                        42.5004
        28.0004
 09 10  4 23 13 30.0000000  0  9G02G04G12G13G17G20G23G30G31
  -1695512.84848  -1249298.05946
                  21732157.2664                                   21732152.1564
                                                                        51.0004
        39.2504
  -1020303.78948   -750359.83646
                  20371278.2424                                   20371274.6334
                                                                        51.2504
        41.2504
   -462546.81247   -340908.43745
                  22676829.7424                                   22676826.1294
                                                                        47.5004
        34.7504
  -1899091.49247  -1400508.24644
                  23219686.7664                                   23219682.2424
                                                                        45.0004
        27.0004
    125235.41847     91888.69545
                  23405699.9614                                   23405696.7234
                                                                        44.5004
        31.7504
    -46397.94147    -34578.22744
                  22641872.4224                                   22641868.2584
                                                                        45.0004
        27.5004
  -1279489.70747   -942498.60245
                  21873380.8914                                   21873374.8134
                                                                        47.0004
        35.0004
  -1025335.14547   -759462.69144
                  22358320.9384                                   22358317.7424
                                                                        45.7504
        29.7504
  -1024548.32847   -755578.48044
                  23486015.2734                                   23486011.7704
                                                                        43.7504
        27.7504
 09 10  4 23 14  0.0000000  0  9G02G04G12G13G17G20G23G30G31
   -296769.42648   -159368.12946
                  21998329.4454                                   21998324.1054
                                                                        52.0004
        38.5004
    451572.04748    396556.39146
                  20651367.0704                                   20651363.7274
                                                                        51.0004
        41.5004
   1068529.33247    852137.91445
                  22968183.2584                                   22968180.0554
                                                                        47.2504
        34.7504
   -522276.87947   -327665.56244
                  23481685.9694                                   23481682.1884
                                                                        44.5004
        26.0004
   1717171.36347   1332358.27745
                  23708635.2034                                   23708631.5984
                                                                        44.0004
        31.2504
   1527866.38347   1192121.22344
                  22941445.1254                                   22941440.6764
                                                                        46.0004
        27.7504
    164834.47347    182948.92245
                  22148227.0394                                   22148220.4574
                                                                        47.0004
        35.5004
    446197.82847    387186.51645
                  22638343.8674                                   22638340.8674
                                                                        47.0004
        31.0004
    446716.99247    390862.05544
                  23765987.7974                                   23765984.5904
                                                                        43.7504
        29.5004
 09 10  4 23 14 30.0000000  0  9G02G04G12G13G17G20G23G30G31
   -472664.72348   -296429.34446
                  21964857.3284                                   21964852.2074
                                                                        51.5004
        38.5004
    349029.38348    316653.01247
                  20631853.7504                                   20631850.3204
                                                                        51.5004
        42.0004
   1025168.19147    818349.92245
                  22959932.1804                                   22959928.5744
                                                                        46.2504
        34.0004
   -720147.11747   -481850.15244
                  23444032.3834                                   23444028.8054
                                                                        45.0004
        27.5004
   1734331.64147   1345729.80945
                  23711900.9844                                   23711896.8634
                                                                        45.5004
        30.5004
   1527474.58247   1191815.93844
                  22941370.0164                                   22941365.9384
                                                                        45.0004
        28.5004
     34766.84447     81597.64845
                  22123475.6174                                   22123469.7074
                                                                        46.5004
        35.5004
    343424.88347    307103.72745
                  22618786.8754                                   22618784.1684
                                                                        45.2504
        30.5004
    343593.97747    310506.55944
                  23746364.5314                                   23746360.6054
                                                                        44.2504
        28.5004
 09 10  4 23 15  0.0000000  0  9G02G04G12G13G17G20G23G30G31
   -647794.97748   -432894.53946
                  21931531.0704                                   21931525.6484
                                                                        52.2504
        38.2504
    247467.73848    237514.07046
                  20612527.1254                                   20612523.9024
                                                                        51.5004
        41.7504
    982764.56347    785308.01245
                  22951863.2034                                   22951859.4844
                                                                        47.5004
        33.2504
   -917296.12147   -635472.66444
                  23406516.4454                                   23406512.2894
                                                                        45.7504
        26.7504
   1752109.21147   1359582.37945
                  23715283.1024                                   23715280.6214
                                                                        44.5004
        32.0004
   1527819.77047   1192084.87544
                  22941436.0634                                   22941432.3134
                                                                        45.5004
        28.0004
    -94291.05947    -18966.90245
                  22098916.3364                                   22098910.6884
                                                                        47.2504
        35.5004
    241746.03547    227873.51245
                  22599437.7344                                   22599435.2894
                                                                        45.0004
        31.7504
    241482.33247    230939.24244
                  23726933.4454                                   23726929.4494
                                                                        45.0004
        29.2504
 09 10  4 23 15 30.0000000  0  9G02G04G12G13G17G20G23G30G31
   -822169.98448   -568771.25046
                  21898348.6954                                   21898343.6804
                                                                        51.5004
        39.0004
    146875.40648    159130.41447
                  20593385.1024                                   20593382.2424
                                                                        51.7504
        42.2504
    941304.82447    753001.60245
                  22943973.7734                                   22943970.6054
                                                                        47.0004
        34.2504
  -1113732.95347   -788540.28944
                  23369135.8204                                   23369131.9344
                                                                        46.7504
        28.2504
   1770489.19147   1373904.30545
                  23718781.0864                                   23718777.8364
                                                                        45.0004
        30.0004
   1528887.75447   1192917.00044
                  22941639.0864                                   22941635.5124
                                                                        44.5004
        28.2504
   -222349.61748   -118752.72345
                  22074547.8984                                   22074541.7664
                                                                        48.0004
        35.5004
    141149.31647    149486.44545
                  22580294.8674                                   22580292.1054
                                                                        46.5004
        30.5004
    140369.97747    152150.34044
                  23707692.5004                                   23707688.5634
                                                                        44.0004
        28.2504
 09 10  4 23 16  0.0000000  0  9G02G04G12G13G17G20G23G30G31
   -995808.00448   -704073.64546
                  21865306.4844                                   21865301.5004
                                                                        51.2504
        38.7504
     47232.40648     81486.52046
                  20574423.6414                                   20574420.2304
                                                                        52.0004
        41.5004
    900767.59847    721414.26645
                  22936260.0004                                   22936255.9384
                                                                        47.0004
        34.2504
  -1309474.37947   -941065.98044
                  23331887.1564                                   23331883.6804
                                                                        46.5004
        28.2504
   1789449.50847   1388678.53944
                  23722389.3674                                   23722386.0824
                                                                        44.5004
        29.5004
   1530656.13747   1194294.95744
                  22941975.6644                                   22941971.9924
                                                                        44.2504
        26.5004
   -349427.77748   -217774.60945
                  22050365.5944                                   22050359.5314
                                                                        48.2504
        35.5004
     41615.43447     71927.66845
                  22561354.7894                                   22561351.4804
                                                                        45.7504
        30.2504
     40237.31347     74124.88344
                  23688637.2034                                   23688633.4064
                                                                        44.0004
        28.5004
 09 10  4 23 16 30.0000000  0  9G02G04G12G13G17G20G23G30G31
  -1168725.42248   -838814.48046
                  21832401.5944                                   21832396.1954
                                                                        51.7504
        39.0004
    -51480.12948      4567.57847
                  20555639.3134                                   20555636.1454
                                                                        50.7504
        42.0004
    861131.77747    690529.34045
                  22928717.5084                                   22928713.8244
                                                                        47.5004
        34.5004
  -1504536.53547  -1093062.40244
                  23294767.9534                                   23294764.0634
                                                                        46.2504
        28.0004
   1808969.40647   1403889.10944
                  23726103.9304                                   23726098.8914
                                                                        43.0004
        28.2504
   1533103.48047   1196202.02744
                  22942441.3834                                   22942436.9614
                                                                        45.2504
        26.5004
   -475543.12947   -316046.25445
                  22026366.5704                                   22026360.4534
                                                                        47.5004
        35.5004
    -56874.84047     -4817.98845
                  22542612.2424                                   22542609.7934
                                                                        45.7504
        31.0004
    -58934.07847     -3151.48044
                  23669765.8834                                   23669761.9844
                                                                        43.7504
        29.0004
 09 10  4 23 17  0.0000000  0  9G02G04G12G13G17G20G23G30G31
  -1340936.14548   -973004.65646
                  21799630.9224                                   21799625.6174
                                                                        51.5004
        38.5004
   -149277.14548    -71637.85546
                  20537029.2274                                   20537025.8874
                                                                        52.0004
        41.0004
    822379.62947    660332.85245
                  22921342.7974                                   22921339.3554
                                                                        47.2504
        34.5004
  -1698931.84047  -1244539.11744
                  23257775.8984                                   23257772.1414
                                                                        46.0004
        28.2504
   1829030.00846   1419520.63744
                  23729920.9064                                   23729917.6884
                                                                        41.0004
        28.5004
   1536211.59447   1198623.91844
                  22943032.9384                                   22943028.7194
                                                                        45.2504
        28.0004
   -600709.98448   -413578.79345
                  22002548.1484                                   22002542.0744
                                                                        49.2504
        35.7504
   -154336.88747    -80762.43445
                  22524065.8594                                   22524063.1914
                                                                        46.0004
        30.5004
   -157159.75047    -79690.98844
                  23651074.2974                                   23651070.4804
                                                                        44.2504
        29.0004
 09 10  4 23 17 30.0000000  0  9G02G04G12G13G17G20G23G30G31
  -1512452.40648  -1106653.65646
                  21766992.3364                                   21766986.9884
                                                                        51.5004
        39.5004
   -246173.19148   -147141.29346
                  20518590.6334                                   20518587.1414
                                                                        51.7504
        41.7504
    784494.78147    630812.23845
                  22914133.8754                                   22914130.2704
                                                                        47.2504
        34.0004
  -1892671.68047  -1395505.19944
                  23220907.9844                                   23220903.8874
                                                                        45.7504
        27.5004
   1849614.87547   1435560.69144
                  23733838.4774                                   23733834.5234
                                                                        42.7504
        29.7504
   1539963.94547   1201547.85944
                  22943747.1564                                   22943742.5904
                                                                        45.7504
        28.5004
   -724941.57848   -510382.57445
                  21978907.4454                                   21978901.3054
                                                                        48.2504
        35.2504
   -250784.92247   -155916.82845
                  22505713.0004                                   22505709.6374
                                                                        44.7504
        31.0004
   -254453.16047   -155504.03545
                  23632560.3134                                   23632556.1954
                                                                        44.0004
        30.7504
 09 10  4 23 18  0.0000000  0  9G02G04G12G13G17G20G23G30G31
  -1683290.21948  -1239773.98846
                  21734482.9924                                   21734478.1024
                                                                        51.2504
        39.2504
   -342186.76648   -221957.45346
                  20500319.8524                                   20500316.4654
                                                                        51.2504
        41.5004
    747457.60947    601952.18445
                  22907085.6484                                   22907082.1844
                                                                        45.2504
        34.2504
  -2085770.89847  -1545972.10544
                  23184162.4304                                   23184157.9614
                                                                        46.2504
        26.0004
   1870704.08247   1451993.80145
                  23737851.8594                                   23737848.3954
                                                                        42.7504
        30.7504
   1544340.15247   1204957.82044
                  22944579.2814                                   22944575.7114
                                                                        45.5004
        26.2504
   -848254.39548   -606470.54345
                  21955441.8594                                   21955435.7734
                                                                        48.5004
        35.0004
   -346236.63347   -230294.96145
                  22487548.7974                                   22487545.9694
                                                                        45.0004
        31.2504
   -350832.41447   -230604.77344
                  23614219.4384                                   23614215.7894
                                                                        44.5004
        28.7504
 09 10  4 23 18 30.0000000  0  9G02G04G12G13G17G20G23G30G31
  -1853459.99248  -1372373.85546
                  21702100.6334                                   21702095.7074
                                                                        51.2504
        39.5004
   -437328.42248   -296093.88346
                  20482215.2274                                   20482211.9774
                                                                        52.0004
        41.7504
    711253.88347    573741.53545
                  22900196.5944                                   22900192.5124
                                                                        47.0004
        34.0004
  -2278238.50047  -1695946.86344
                  23147537.1094                                   23147532.6374
                                                                        45.7504
        28.0004
   1892282.61347   1468808.14844
                  23741958.0944                                   23741954.5314
                                                                        43.5004
        29.7504
   1549325.75447   1208842.68444
                  22945528.6884                                   22945524.7704
                                                                        44.5004
        26.7504
   -970659.53548   -701851.25445
                  21932148.9694                                   21932142.9144
                                                                        49.5004
        35.5004
   -440704.19947   -303906.38344
                  22469572.4144                                   22469569.6054
                                                                        43.5004
        29.7504
   -446309.28147   -305002.33644
                  23596050.8914                                   23596046.6684
                                                                        43.7504
        29.0004
 09 10  4 23 19  0.0000000  0  9G02G04G12G13G17G20G23G30G31
  -2022973.89548  -1504462.58246
                  21669843.2974                                   21669838.4884
                                                                        51.5004
        39.5004
   -531613.24248   -369562.53546
                  20464273.6724                                   20464269.8984
                                                                        50.5004
        41.7504
    675866.88347    546167.35945
                  22893462.3204                                   22893458.4384
                                                                        45.7504
        34.0004
  -2470085.94547  -1845438.35544
                  23111029.9614                                   23111025.6644
                                                                        46.2504
        28.5004
   1914333.84047   1485990.93444
                  23746154.3594                                   23746150.6914
                                                                        43.5004
        28.7504
   1554903.78547   1213189.20744
                  22946590.0314                                   22946586.0594
                                                                        45.0004
        27.2504
  -1092170.34848   -796534.99645
                  21909026.0314                                   21909020.4264
                                                                        49.5004
        35.5004
   -534201.72747   -376761.74245
                  22451780.2274                                   22451777.5664
                                                                        42.7504
        30.2504
   -540898.28547   -378708.03944
                  23578051.1484                                   23578047.1954
                                                                        43.0004
        28.5004
 09 10  4 23 19 30.0000000  0  9G02G04G12G13G17G20G23G30G31
  -2191841.50448  -1636047.66846
                  21637708.8204                                   21637703.5664
                                                                        52.0004
        39.2504
   -625052.83248   -442372.60247
                  20446492.5234                                   20446489.3284
                                                                        50.5004
        42.0004
    641282.60947    519218.64845
                  22886881.0554                                   22886876.9574
                                                                        46.7504
        34.5004
  -2661321.96547  -1994453.49244
                  23074639.2274                                   23074634.9734
                                                                        46.2504
        28.5004
   1936843.70347   1503531.06644
                  23750437.3054                                   23750434.4344
                                                                        43.5004
        29.5004
   1561060.18447   1217986.39544
                  22947761.2894                                   22947757.5904
                                                                        45.0004
        27.0004
  -1212797.32048   -890530.04746
                  21886071.7504                                   21886066.2274
                                                                        48.7504
        36.0004
   -626740.26247   -448869.75445
                  22434171.0084                                   22434168.5594
                                                                        43.2504
        30.2504
   -634610.44947   -451730.48044
                  23560217.8834                                   23560213.8634
                                                                        43.0004
        28.5004
 09 10  4 23 20  0.0000000  0  9G02G04G12G13G17G20G23G30G31
  -2360073.09448  -1767137.16846
                  21605695.5164                                   21605690.2074
                                                                        51.7504
        39.0004
   -717659.16848   -514533.39546
                  20428870.1564                                   20428866.9964
                                                                        51.2504
        41.7504
    607487.35247    492884.62145
                  22880449.3984                                   22880446.4804
                                                                        47.0004
        34.0004
  -2851955.10247  -2142998.75844
                  23038362.5394                                   23038358.6374
                                                                        46.0004
        27.7504
   1959797.70347   1521417.19544
                  23754805.0004                                   23754802.3484
                                                                        42.0004
        26.5004
   1567780.41847   1223222.87944
                  22949040.6484                                   22949036.1254
                                                                        45.0004
        26.7504
  -1332551.21548   -983844.73845
                  21863283.3594                                   21863277.4804
                                                                        48.7504
        35.5004
   -718332.37147   -520240.29745
                  22416741.6724                                   22416738.9534
                                                                        43.0004
        31.0004
   -727458.26247   -524079.48044
                  23542549.7344                                   23542545.6254
                                                                        43.7504
        29.2504
 09 10  4 23 20 30.0000000  0  9G02G04G12G13G17G20G23G30G31
  -2527677.08648  -1897737.65246
                  21573801.1564                                   21573796.2424
                                                                        51.7504
        39.2504
   -809442.83248   -586053.22747
                  20411404.0554                                   20411400.6294
                                                                        49.7504
        42.0004
    574470.03947    467157.34445
                  22874166.5784                                   22874163.1604
                                                                        45.5004
        34.0004
  -3041993.21547  -2291080.37944
                  23002199.6564                                   23002195.3204
                                                                        46.0004
        28.5004
   1983183.10247   1539639.51644
                  23759255.4454                                   23759251.3594
                                                                        44.5004
        27.0004
   1575051.51647   1228888.62544
                  22950424.1954                                   22950419.8914
                                                                        45.0004
        26.5004
  -1451441.33247  -1076486.37145
                  21840659.3444                                   21840653.3914
                                                                        47.2504
        35.7504
   -808988.37147   -590881.27045
                  22399490.5634                                   22399487.7234
                                                                        44.5004
        32.0004
   -819451.77746   -595762.87144
                  23525044.1884                                   23525040.3164
                                                                        41.5004
        29.0004
 09 10  4 23 21  0.0000000  0  9G02G04G12G13G17G20G23G30G31
  -2694661.32448  -2027855.13346
                  21542025.4224                                   21542020.0044
                                                                        51.7504
        39.7504
   -900413.34048   -656939.32847
                  20394093.0164                                   20394089.7704
                                                                        52.2504
        42.2504
    542216.93847    442025.44145
                  22868028.5864                                   22868025.3714
                                                                        45.5004
        34.0004
  -3231442.88347  -2438703.44544
                  22966148.7114                                   22966144.3054
                                                                        46.2504
        29.0004
   2006987.71147   1558188.55544
                  23763785.9774                                   23763781.5904
                                                                        45.7504
        29.5004
   1582861.24247   1234974.01244
                  22951910.4694                                   22951906.4694
                                                                        45.0004
        28.0004
  -1569476.65248  -1168461.90245
                  21818198.2194                                   21818191.8244
                                                                        48.5004
        35.5004
   -898717.85247   -660800.12145
                  22382415.1804                                   22382412.5864
                                                                        45.0004
        30.7504
   -910600.77047   -666788.18744
                  23507699.2734                                   23507695.3134
                                                                        43.5004
        27.2504
 09 10  4 23 21 30.0000000  0  9G02G04G12G13G17G20G23G30G31
  -2861031.47748  -2157494.21946
                  21510365.9844                                   21510361.1564
                                                                        52.0004
        39.5004
   -990577.83648   -727197.23847
                  20376935.0164                                   20376931.7464
                                                                        50.7504
        42.2504
    510719.09847    417482.06645
                  22862034.5634                                   22862031.0124
                                                                        45.7504
        34.5004
  -3420309.03147  -2585871.91444
                  22930208.3674                                   22930204.3874
                                                                        46.2504
        28.7504
   2031201.67247   1577056.53545
                  23768393.6644                                   23768390.2624
                                                                        45.0004
        31.2504
   1591200.00447   1241471.64144
                  22953496.7734                                   22953493.2734
                                                                        44.5004
        25.5004
  -1686663.42248  -1259776.32845
                  21795897.9694                                   21795891.8404
                                                                        48.7504
        35.2504
   -987529.16447   -730003.67245
                  22365515.1334                                   22365512.5744
                                                                        43.2504
        31.0004
  -1000912.53547   -737161.10544
                  23490513.3594                                   23490509.2704
                                                                        44.2504
        29.2504
 09 10  4 23 22  0.0000000  0  9G02G04G12G13G17G20G23G30G31
  -3026798.73848  -2286663.45746
                  21478821.8364                                   21478816.6294
                                                                        52.2504
        39.5004
  -1079950.55548   -796838.28947
                  20359928.0864                                   20359924.7934
                                                                        50.0004
        42.0004
    479960.51647    393514.58245
                  22856181.4844                                   22856177.6374
                                                                        46.5004
        33.7504
  -3608601.50847  -2732593.28544
                  22894377.3204                                   22894373.0274
                                                                        45.7504
        28.5004
   2055808.84447   1596230.77345
                  23773076.2664                                   23773072.8674
                                                                        45.2504
        31.2504
   1600052.26647   1248369.50044
                  22955181.2894                                   22955177.9264
                                                                        44.5004
        26.5004
  -1803013.97748  -1350439.23045
                  21773757.0864                                   21773751.5234
                                                                        49.2504
        35.7504
  -1075435.68047   -798502.40245
                  22348786.9614                                   22348784.5514
                                                                        42.7504
        30.5004
  -1090400.26247   -806891.71144
                  23473484.4224                                   23473480.7034
                                                                        42.5004
        28.0004
 09 10  4 23 22 30.0000000  0  9G02G04G12G13G17G20G23G30G31
  -3191968.73048  -2415367.34046
                  21447391.0314                                   21447385.4494
                                                                        51.7504
        39.2504
  -1168538.34048   -865867.73847
                  20343070.3594                                   20343066.8874
                                                                        51.7504
        42.0004
    449931.91047    370115.68045
                  22850466.9844                                   22850463.7814
                                                                        46.0004
        34.5004
  -3796324.90247  -2878871.33244
                  22858654.5004                                   22858650.4144
                                                                        45.5004
        28.2504
   2080799.97747   1615704.30944
                  23777831.9694                                   23777828.6804
                                                                        44.2504
        29.5004
   1609407.59447   1255659.35944
                  22956961.8364                                   22956958.5594
                                                                        43.7504
        27.5004
  -1918534.64548  -1440455.35545
                  21751774.8984                                   21751768.6804
                                                                        49.7504
        35.5004
  -1162444.73447   -866301.91845
                  22332229.8984                                   22332226.9104
                                                                        44.0004
        30.5004
  -1179071.89546   -875986.64544
                  23456611.0004                                   23456607.4694
                                                                        41.2504
        28.0004
 09 10  4 23 23  0.0000000  0  9G02G04G12G13G17G20G23G30G31
  -1781122.92648  -1316007.04746
                  21715865.9224                                   21715860.6254
                                                                        51.7504
        39.5004
    319072.26248    293309.28147
                  20626153.3444                                   20626150.4144
                                                                        51.0004
        42.0004
   1996042.70747   1574877.27045
                  23144682.4384                                   23144678.0704
                                                                        47.0004
        34.2504
  -2408058.81647  -1797105.59445
                  23122832.8134                                   23122829.0824
                                                                        45.2504
        30.0004
   3681583.09847   2863067.69544
                  24082450.7584                                   24082447.6374
                                                                        44.0004
        27.5004
   3194674.82847   2490932.57444
                  23258627.7894                                   23258624.4104
                                                                        44.0004
        25.7504
   -457809.77348   -302228.17245
                  22029741.1024                                   22029734.9064
                                                                        48.5004
        35.5004
    326857.38747    294193.05545
                  22615635.1954                                   22615632.2974
                                                                        45.5004
        30.5004
    308487.62547    283150.77045
                  23739683.7504                                   23739680.5124
                                                                        42.7504
        30.2504
 09 10  4 23 23 30.0000000  0  9G02G04G12G13G17G20G23G30G31
  -1945117.59048  -1443795.09046
                  21684658.6174                                   21684653.5664
                                                                        51.5004
        39.0004
    232028.10248    225482.58247
                  20609589.2894                                   20609586.2234
                                                                        50.5004
        42.0004
   1967442.03547   1552591.03545
                  23139239.7344                                   23139235.9654
                                                                        45.5004
        33.5004
  -2594660.11347  -1942509.16845
                  23087323.7734                                   23087320.2074
                                                                        46.5004
        30.0004
   3707308.88347   2883113.70344
                  24087346.3524                                   24087342.9384
                                                                        43.2504
        27.0004
   3205004.22347   2498981.55944
                  23260593.7114                                   23260589.7464
                                                                        44.2504
        26.2504
   -571693.28948   -390968.57045
                  22008069.7664                                   22008063.2934
                                                                        49.2504
        35.5004
    241617.71147    227772.55545
                  22599414.0234                                   22599411.0944
                                                                        42.7504
        30.2504
    221424.01647    215308.80544
                  23723116.3754                                   23723112.4414
                                                                        43.5004
        28.7504
 09 10  4 23 24  0.0000000  0  9G02G04G12G13G17G20G23G30G31
  -2108535.04748  -1571133.30946
                  21653561.0634                                   21653556.2544
                                                                        52.0004
        39.0004
    145742.32848    158246.84446
                  20593169.9304                                   20593167.0514
                                                                        51.5004
        41.5004
   1939538.87147   1530848.42245
                  23133929.8834                                   23133925.9264
                                                                        45.0004
        33.2504
  -2780709.35547  -2087482.61744
                  23051920.0634                                   23051916.4414
                                                                        46.2504
        29.0004
   3733385.24647   2903432.77744
                  24092308.5164                                   24092305.3364
                                                                        44.0004
        28.7504
   3215803.67647   2507396.76244
                  23262648.7034                                   23262644.6334
                                                                        44.2504
        25.0004
   -684770.20348   -479080.37545
                  21986551.7274                                   21986545.9734
                                                                        48.5004
        35.7504
    157248.64847    162030.51245
                  22583359.3284                                   22583356.6954
                                                                        44.5004
        30.7504
    135150.55147    148082.73044
                  23706699.0634                                   23706695.3554
                                                                        43.0004
        29.5004
