     2.11           OBSERVATION DATA    G (GPS)             RINEX VERSION / TYPE
teqc  2019Feb25                         20221121 12:28:32UTCPGM / RUN BY / DATE
OSX ker:10.11.6|Core i5|gcc 4.3 -m64|OSX ker:10.10+|=+      COMMENT
BIT 2 OF LLI FLAGS DATA COLLECTED UNDER A/S CONDITION       COMMENT
04712930                                                    MARKER NAME
2930                                                        MARKER NUMBER
-Unknown-           -Unknown-                               OBSERVER / AGENCY
0220400471          TRIMBLE R7          2.30                REC # / TYPE / VERS
-Unknown-           TRM39105.00     NONE                    ANT # / TYPE
  1449458.6891 -1709242.4118  5952442.3292                  APPROX POSITION XYZ
        0.0000        0.0000        0.0000                  ANTENNA: DELTA H/E/N
     1     1                                                WAVELENGTH FACT L1/2
    20    L1    L2    L5    L6    L7    L8    C1    P1    C2# / TYPES OF OBSERV
          P2    C5    C6    C7    C8    S1    S2    S5    S6# / TYPES OF OBSERV
          S7    S8                                          # / TYPES OF OBSERV
    30.0000                                                 INTERVAL
    15                                                      LEAP SECONDS
Forced Modulo Decimation to 30 seconds                      COMMENT
 SNR is mapped to RINEX snr flag value [0-9]                COMMENT
  L1 & L2: min(max(int(snr_dBHz/6), 0), 9)                  COMMENT
teqc edited: Beidou # 1 - 37 excluded                       COMMENT
  2009    10    20     0     0    0.0000000     GPS         TIME OF FIRST OBS
                                                            END OF HEADER
 09 10 20  0  0  0.0000000  0  8G02G04G05G10G25G13G23G29
  -9081185.91448  -7057074.41447
                  20469933.0164                                   20469927.2034
                                                                        51.5004
        42.5004
  -1136593.47747   -880046.73045
                  22432344.0084                                   22432340.5354
                                                                        47.7504
        34.2504
 -18524763.27748 -14393965.69546
                  22328800.6414                                   22328796.9454
                                                                        48.2504
        37.5004
 -18953256.12548 -14735564.28146
                  21529057.8204                                   21529054.6054
                                                                        49.2504
        38.0004
 -10625740.47747  -8241715.70744
                  23163131.2734                                   23163127.7704
                                                                        43.2504
        26.7504
 -10661629.99648  -8290003.98846
                  21155418.6954                                   21155414.8444
                                                                        50.5004
        36.5004
  -2766497.00047  -2147022.15244
                  23035673.3284                                   23035667.5984
                                                                        44.5004
        27.2504
 -16285854.18047 -12651563.53946
                  22292559.9384                                   22292556.8634
                                                                        47.5004
        36.0004
 09 10 20  0  0 30.0000000  0  8G02G04G05G10G25G13G23G29
  -9138540.85548  -7101766.73447
                  20459018.8834                                   20459013.1644
                                                                        51.0004
        42.7504
  -1125516.00448   -871414.89545
                  22434451.6884                                   22434449.0124
                                                                        48.2504
        34.5004
 -18703935.80947 -14533580.64546
                  22294705.4304                                   22294701.4574
                                                                        46.7504
        36.2504
 -19120905.07848 -14866199.84046
                  21497155.4774                                   21497151.9694
                                                                        49.7504
        38.2504
 -10776838.03947  -8359453.98844
                  23134378.0394                                   23134374.9344
                                                                        43.0004
        28.2504
 -10730542.92648  -8343702.40646
                  21142305.2734                                   21142301.3914
                                                                        50.7504
        36.7504
  -2766175.93047  -2146771.97344
                  23035734.8054                                   23035729.3954
                                                                        43.7504
        28.7504
 -16420837.60547 -12756745.43446
                  22266873.4384                                   22266870.6134
                                                                        47.7504
        36.0004
 09 10 20  0  1  0.0000000  0  8G02G04G05G10G25G13G23G29
  -9195306.69148  -7145999.76247
                  20448216.5394                                   20448210.6954
                                                                        51.0004
        42.5004
  -1114126.80148   -862540.15645
                  22436619.3524                                   22436616.2384
                                                                        48.0004
        34.0004
 -18882784.18447 -14672942.97346
                  22260671.5474                                   22260668.1054
                                                                        47.0004
        37.5004
 -19288124.10248 -14996500.38746
                  21465334.8524                                   21465331.0634
                                                                        49.7504
        38.0004
 -10927472.77047  -8476831.68044
                  23105713.4694                                   23105710.1054
                                                                        42.2504
        27.5004
 -10798783.68748  -8396876.95346
                  21129319.4144                                   21129315.4184
                                                                        49.7504
        36.7504
  -2765446.82447  -2146203.89144
                  23035872.9924                                   23035868.1524
                                                                        42.7504
        28.5004
 -16555267.79348 -12861496.27745
                  22241292.2194                                   22241289.1884
                                                                        48.0004
        35.5004
 09 10 20  0  1 30.0000000  0  8G02G04G05G10G25G13G23G29
  -9251486.98848  -7189776.49247
                  20437525.7504                                   20437520.0314
                                                                        51.2504
        42.5004
  -1102430.77348   -853426.40645
                  22438844.5394                                   22438841.4774
                                                                        48.0004
        34.2504
 -19061308.46547 -14812052.74646
                  22226699.7814                                   22226695.9884
                                                                        47.2504
        37.2504
 -19454913.69948 -15126466.31646
                  21433595.6564                                   21433592.3594
                                                                        49.7504
        38.0004
 -11077644.56247  -8593848.66844
                  23077136.4064                                   23077133.8874
                                                                        43.7504
        28.0004
 -10866355.81648  -8449530.46946
                  21116461.0944                                   21116457.0944
                                                                        51.0004
        36.7504
  -2764314.09447  -2145321.28544
                  23036088.9614                                   23036083.5944
                                                                        42.7504
        28.2504
 -16689145.69147 -12965816.84046
                  22215816.0004                                   22215813.3164
                                                                        47.0004
        36.0004
 09 10 20  0  2  0.0000000  0  8G02G04G05G10G25G13G23G29
  -7731659.27048  -6005495.13347
                  20726739.3134                                   20726733.3134
                                                                        51.0004
        43.0004
    484991.27048    383525.79345
                  22740921.1484                                   22740918.2814
                                                                        48.0004
        33.7504
 -17664079.52747 -13723302.92246
                  22492583.3364                                   22492579.4344
                                                                        47.2504
        37.5004
 -18045844.74648 -14028490.48446
                  21701732.6724                                   21701729.3364
                                                                        49.5004
        38.2504
  -9651924.53947  -7482897.94544
                  23348441.9144                                   23348439.0664
                                                                        43.5004
        27.2504
  -9357836.52748  -7274060.86346
                  21403522.6484                                   21403518.9184
                                                                        50.7504
        36.7504
  -1187359.32047   -916525.37144
                  23336173.4454                                   23336167.6214
                                                                        43.5004
        27.7504
 -15247043.53547 -11842101.03946
                  22490238.8674                                   22490235.7304
                                                                        47.7504
        36.0004
 09 10 20  0  2 30.0000000  0  9G02G04G05G10G25G13G23G29G16
  -7786670.23448  -6048360.86347
                  20716270.7584                                   20716265.5084
                                                                        51.5004
        42.7504
    497296.07848    393113.99245
                  22743262.9924                                   22743259.4734
                                                                        48.2504
        33.0004
 -17841949.55548 -13861902.96546
                  22458736.0944                                   22458731.9884
                                                                        48.0004
        37.7504
 -18211768.44548 -14157781.65646
                  21670158.2424                                   21670154.6844
                                                                        49.2504
        38.0004
  -9801163.00847  -7599187.60244
                  23320042.7814                                   23320039.7384
                                                                        43.7504
        28.0004
  -9424073.12148  -7325673.80546
                  21390917.8754                                   21390914.2034
                                                                        51.0004
        36.5004
  -1185427.36347   -915019.98444
                  23336540.9144                                   23336535.6094
                                                                        43.7504
        27.0004
 -15379810.66448 -11945556.05146
                  22464975.0554                                   22464971.5984
                                                                        48.5004
        36.0004
   1377366.34456   1106297.50052
                  24476282.6484                                   24476279.5704
                                                                        37.5004
        17.2504
 09 10 20  0  3  0.0000000  0  9G02G04G05G10G25G13G23G29G16
  -7841099.68048  -6090773.51247
                  20705913.5474                                   20705907.8094
                                                                        51.5004
        42.0004
    509899.77747    402935.08245
                  22745660.9924                                   22745657.8204
                                                                        47.7504
        33.5004
 -18019491.71548 -14000247.52046
                  22424950.6884                                   22424947.0394
                                                                        48.0004
        37.7504
 -18377258.67248 -14286735.05946
                  21638666.7194                                   21638663.1054
                                                                        49.0004
        38.0004
  -9949933.82447  -7715112.89144
                  23291732.8914                                   23291729.4144
                                                                        45.0004
        27.5004
  -9489645.84848  -7376769.47346
                  21378440.1414                                   21378435.7894
                                                                        51.0004
        36.5004
  -1183101.69147   -913207.79344
                  23336984.2814                                   23336978.0474
                                                                        44.0004
        26.0004
 -15512021.99248 -12048577.87546
                  22439815.8524                                   22439812.6294
                                                                        49.0004
        36.0004
   1223126.03546    986110.33242
                  24446931.0944                                   24446928.4774
                                                                        37.2504
        17.2504
 09 10 20  0  3 30.0000000  0  9G02G04G05G10G25G13G23G29G16
  -7894950.62148  -6132735.34047
                  20695665.8054                                   20695660.3094
                                                                        51.7504
        42.7504
    522797.52347    412985.30145
                  22748115.5394                                   22748112.3794
                                                                        47.0004
        33.5004
 -18196706.87148 -14138337.28546
                  22391227.7894                                   22391223.9384
                                                                        48.2504
        38.0004
 -18542316.28948 -14415351.39546
                  21607256.7814                                   21607253.4414
                                                                        49.5004
        38.0004
 -10098237.16447  -7830673.84844
                  23263511.5784                                   23263507.6484
                                                                        43.7504
        28.7504
  -9554557.61348  -7427350.05546
                  21366087.8524                                   21366084.1024
                                                                        50.7504
        36.7504
  -1180387.52347   -911092.85544
                  23337500.3134                                   23337494.3444
                                                                        44.5004
        26.2504
 -15643678.72748 -12151167.63746
                  22414762.4144                                   22414758.8714
                                                                        48.7504
        36.0004
   1069352.85546    866287.11342
                  24417669.5394                                   24417665.6094
                                                                        38.5004
        17.7504
 09 10 20  0  4  0.0000000  0  9G02G04G05G10G25G13G23G29G16
  -7948222.57448  -6174245.89847
                  20685528.5944                                   20685523.0664
                                                                        52.0004
        42.5004
    535988.45347    423263.96545
                  22750625.3054                                   22750622.3984
                                                                        47.2504
        33.5004
 -18373591.93448 -14276169.82046
                  22357567.5084                                   22357564.0124
                                                                        49.2504
        38.0004
 -18706938.21148 -14543628.23446
                  21575930.7734                                   21575926.9734
                                                                        49.5004
        38.2504
 -10246070.37547  -7945868.59444
                  23235380.1954                                   23235376.0164
                                                                        45.2504
        28.0004
  -9618808.66448  -7477415.76246
                  21353861.2814                                   21353856.9924
                                                                        51.0004
        36.0004
  -1177286.32047   -908676.28144
                  23338090.7664                                   23338084.0824
                                                                        44.5004
        25.5004
 -15774778.22748 -12253323.36346
                  22389815.0394                                   22389811.9964
                                                                        48.0004
        36.5004
    916050.06646    746830.38743
                  24388497.4224                                   24388492.9494
                                                                        39.5004
        21.2504
 09 10 20  0  4 30.0000000  0  9G02G04G05G10G25G13G23G29G16
  -8000913.36348  -6215303.55546
                  20675501.6564                                   20675496.0004
                                                                        52.5004
        41.7504
    549473.50847    433771.79345
                  22753191.3914                                   22753188.7894
                                                                        47.7504
        34.0004
 -18550141.71148 -14413741.12146
                  22323971.5164                                   22323968.0084
                                                                        49.5004
        37.7504
 -18871119.02048 -14671561.32846
                  21544688.0394                                   21544684.5554
                                                                        49.5004
        39.0004
 -10393427.49647  -8060692.29744
                  23207338.4144                                   23207334.7344
                                                                        43.7504
        27.0004
  -9682396.63348  -7526964.80546
                  21341760.6644                                   21341756.8874
                                                                        51.0004
        36.0004
  -1173797.65647   -905957.82044
                  23338754.1414                                   23338748.0744
                                                                        44.0004
        27.2504
 -15905315.78548 -12355041.27045
                  22364974.7974                                   22364971.6254
                                                                        48.5004
        35.5004
    763223.60246    627744.85243
                  24359416.0704                                   24359410.9574
                                                                        41.5004
        20.0004
 09 10 20  0  5  0.0000000  0  9G02G04G05G10G25G13G23G29G16
  -8053020.52748  -6255906.46147
                  20665586.2584                                   20665580.3594
                                                                        52.2504
        42.0004
    563254.04747    444509.87945
                  22755814.0704                                   22755810.8054
                                                                        47.5004
        34.0004
 -18726351.07848 -14551047.07046
                  22290440.0234                                   22290436.1254
                                                                        50.0004
        37.7504
 -19034854.31648 -14799147.28946
                  21513530.3834                                   21513526.6804
                                                                        50.0004
        38.7504
 -10540303.14847  -8175140.80544
                  23179388.8204                                   23179384.9264
                                                                        44.5004
        26.7504
  -9745319.05148  -7575995.25846
                  21329787.1254                                   21329783.2194
                                                                        51.5004
        36.5004
  -1169920.76647   -902936.86744
                  23339491.3754                                   23339486.7274
                                                                        43.0004
        26.2504
 -16035285.72748 -12456316.58646
                  22340242.7584                                   22340239.0164
                                                                        48.7504
        36.0004
    610878.92647    509034.75043
                  24330425.6564                                   24330420.9884
                                                                        42.5004
        21.7504
 09 10 20  0  5 30.0000000  0  9G02G04G05G10G25G13G23G29G16
  -8104542.71548  -6296053.59047
                  20655781.7274                                   20655776.4614
                                                                        52.7504
        42.5004
    577329.80947    455478.00045
                  22758492.3674                                   22758489.4614
                                                                        46.7504
        33.5004
 -18902215.73048 -14688084.45346
                  22256973.8834                                   22256970.1214
                                                                        49.5004
        37.5004
 -19198139.75048 -14926382.65246
                  21482457.7504                                   21482454.3284
                                                                        50.0004
        38.7504
 -10686693.36747  -8289211.08244
                  23151531.3914                                   23151528.2114
                                                                        44.5004
        27.2504
  -9807575.04748  -7624506.43046
                  21317940.1174                                   21317935.8674
                                                                        51.0004
        36.5004
  -1165656.29747   -899613.94144
                  23340303.7344                                   23340297.9774
                                                                        44.5004
        25.7504
 -16164684.22348 -12557146.53546
                  22315618.7424                                   22315615.4614
                                                                        48.7504
        36.2504
    459020.29747    390703.28943
                  24301527.0234                                   24301523.5274
                                                                        42.2504
        22.7504
 09 10 20  0  6  0.0000000  0  9G02G04G05G10G25G13G23G29G16
  -8155481.58248  -6335746.19947
                  20646088.4844                                   20646082.7934
                                                                        52.2504
        42.2504
    591697.92647    466673.91445
                  22761226.7584                                   22761223.7704
                                                                        47.2504
        32.7504
 -19077734.63348 -14824852.41446
                  22223573.7194                                   22223570.0474
                                                                        49.5004
        37.7504
 -19360974.08248 -15053266.52346
                  21451471.6414                                   21451468.2274
                                                                        50.7504
        38.7504
 -10832596.68047  -8402901.94944
                  23123767.0394                                   23123763.7814
                                                                        44.5004
        27.2504
  -9869166.53548  -7672499.77346
                  21306219.7894                                   21306215.7504
                                                                        51.0004
        37.2504
  -1161007.78147   -895991.69544
                  23341188.5704                                   23341182.9734
                                                                        45.0004
        27.5004
 -16293511.59448 -12657531.46546
                  22291103.7584                                   22291100.3794
                                                                        49.0004
        36.2504
    307649.57047    272752.16443
                  24272722.8524                                   24272718.7894
                                                                        43.5004
        22.5004
 09 10 20  0  6 30.0000000  0  9G02G04G05G10G25G13G23G29G16
  -8205836.37948  -6374983.68447
                  20636506.4454                                   20636500.6454
                                                                        52.5004
        42.0004
    606357.73847    478097.13345
                  22764015.9774                                   22764012.8954
                                                                        47.2504
        31.7504
 -19252905.49248 -14961349.14846
                  22190239.7734                                   22190236.6334
                                                                        50.0004
        37.7504
 -19523354.50048 -15179796.68446
                  21420571.4224                                   21420568.0164
                                                                        50.0004
        38.5004
 -10978009.52747  -8516210.52744
                  23096096.0084                                   23096092.5704
                                                                        44.5004
        28.0004
  -9930093.07848  -7719974.99246
                  21294625.5314                                   21294621.4804
                                                                        51.5004
        36.0004
  -1155976.21147   -892070.91444
                  23342145.7344                                   23342139.9574
                                                                        45.2504
        27.0004
 -16421764.78948 -12757468.99646
                  22266697.8134                                   22266694.6564
                                                                        48.5004
        36.5004
    156769.95347    155183.60544
                  24244011.3444                                   24244006.9964
                                                                        42.5004
        24.0004
 09 10 20  0  7  0.0000000  0  9G02G04G05G10G25G13G23G29G16
  -8255609.17648  -6413767.69947
                  20627034.6954                                   20627029.0984
                                                                        52.0004
        42.0004
    621306.16447    489745.23045
                  22766861.1024                                   22766857.8594
                                                                        46.5004
        32.7504
 -19427726.30548 -15097573.12946
                  22156972.7894                                   22156968.9414
                                                                        50.5004
        38.5004
 -19685279.66048 -15305972.14146
                  21389757.9844                                   21389754.7344
                                                                        50.0004
        38.7504
 -11122930.95747  -8629136.23844
                  23068518.9454                                   23068515.0634
                                                                        44.7504
        28.0004
  -9990356.69148  -7766933.59845
                  21283157.6254                                   21283153.6134
                                                                        50.7504
        35.5004
  -1150565.19547   -887854.44944
                  23343174.6644                                   23343169.3244
                                                                        44.5004
        27.7504
 -16549442.41848 -12856958.03546
                  22242401.6024                                   22242398.8364
                                                                        48.5004
        36.0004
      6383.36346     37999.26243
                  24215393.2814                                   24215389.6564
                                                                        41.2504
        22.0004
 09 10 20  0  7 30.0000000  0  9G02G04G05G10G25G13G23G29G16
  -8304799.90648  -6452098.17647
                  20617674.1804                                   20617668.7544
                                                                        52.5004
        42.2504
    636541.74247    501617.09445
                  22769760.6334                                   22769757.2234
                                                                        47.5004
        32.2504
 -19602195.14148 -15233522.86746
                  22123772.1724                                   22123768.7114
                                                                        51.2504
        38.7504
 -19846747.35248 -15431791.08246
                  21359031.9224                                   21359028.3834
                                                                        51.2504
        39.2504
 -11267358.15247  -8741676.88744
                  23041035.4384                                   23041031.8674
                                                                        46.7504
        29.5004
 -10049957.87948  -7813376.05145
                  21271816.5084                                   21271812.2304
                                                                        51.5004
        35.7504
  -1144776.74247   -883343.96943
                  23344276.3834                                   23344270.9024
                                                                        45.5004
        23.7504
 -16676543.19948 -12955997.59046
                  22218215.0634                                   22218211.9614
                                                                        48.5004
        36.7504
   -143507.67646    -78798.91843
                  24186869.7034                                   24186866.5274
                                                                        39.2504
        20.2504
 09 10 20  0  8  0.0000000  0 10G02G04G05G10G25G13G23G29G16G07
  -8353409.92648  -6489976.12147
                  20608424.0234                                   20608418.6334
                                                                        53.0004
        42.5004
    652061.94947    513710.75845
                  22772713.5084                                   22772710.7074
                                                                        47.0004
        31.7504
 -19776310.18048 -15369196.91046
                  22090639.1334                                   22090635.3444
                                                                        50.5004
        38.0004
 -20007756.25048 -15557252.55546
                  21328392.7734                                   21328389.3714
                                                                        50.5004
        39.5004
 -11411289.68447  -8853831.31644
                  23013646.1484                                   23013642.8014
                                                                        46.0004
        29.2504
 -10108898.28948  -7859303.64146
                  21260600.1254                                   21260596.0044
                                                                        50.5004
        36.0004
  -1138613.94947   -878541.77343
                  23345449.2344                                   23345443.3634
                                                                        45.0004
        23.0004
 -16803065.97348 -13054586.78146
                  22194138.6884                                   22194135.6844
                                                                        48.7504
        36.2504
   -292901.03946   -195209.27343
                  24158441.5084                                   24158437.7114
                                                                        39.0004
        20.0004
   1338566.33257   1057472.87554
                  24373669.8754                                   24373666.9264
                                                                        42.5004
        25.5004
 09 10 20  0  8 30.0000000  0 10G02G04G05G10G25G13G23G29G16G07
  -8401444.78948  -6527405.85247
                  20599283.0474                                   20599277.6254
                                                                        52.0004
        42.2504
    667859.60547    526020.59845
                  22775719.8054                                   22775716.9494
                                                                        47.5004
        31.7504
 -19950074.58248 -15504597.75046
                  22057572.7894                                   22057569.1724
                                                                        50.5004
        38.5004
 -20168309.18048 -15682358.71146
                  21297840.6414                                   21297837.0784
                                                                        51.2504
        38.7504
 -11554728.30947  -8965601.68444
                  22986350.3674                                   22986346.8524
                                                                        45.2504
        28.7504
 -10167183.95348  -7904721.03146
                  21249508.6564                                   21249505.1524
                                                                        50.5004
        36.2504
  -1132084.46547   -873453.87544
                  23346691.6954                                   23346685.7464
                                                                        44.2504
        25.7504
 -16929013.84448 -13152727.99646
                  22170171.5864                                   22170168.8094
                                                                        49.2504
        36.5004
   -441799.56246   -311234.07843
                  24130106.5084                                   24130102.9104
                                                                        40.2504
        20.5004
   1153901.52747    913578.27043
                  24338529.4844                                   24338525.8204
                                                                        42.7504
        22.5004
 09 10 20  0  9  0.0000000  0 10G02G04G05G10G25G13G23G29G16G07
  -8448910.26648  -6564391.94547
                  20590250.8524                                   20590245.1024
                                                                        52.5004
        42.2504
    683928.14847    538541.50045
                  22778777.6094                                   22778774.6484
                                                                        46.5004
        33.0004
 -20123490.94548 -15639727.38346
                  22024572.6024                                   22024569.0434
                                                                        49.5004
        38.2504
 -20328409.02348 -15807111.80946
                  21267374.5944                                   21267371.3094
                                                                        51.2504
        39.2504
 -11697676.27347  -9076989.67244
                  22959147.8914                                   22959145.0084
                                                                        45.0004
        29.0004
 -10224820.14548  -7949632.26246
                  21238541.1644                                   21238536.7854
                                                                        50.0004
        36.2504
  -1125195.32447   -868085.66844
                  23348003.3444                                   23347996.6604
                                                                        43.7504
        26.0004
 -17054389.61348 -13250423.38746
                  22146313.5164                                   22146310.5354
                                                                        49.2504
        37.2504
   -590205.22746   -426874.84443
                  24101866.2974                                   24101861.6884
                                                                        41.2504
        20.2504
    969494.50846    769884.49643
                  24303437.9454                                   24303434.2424
                                                                        41.5004
        22.5004
 09 10 20  0  9 30.0000000  0 10G02G04G05G10G25G13G23G29G16G07
  -8495805.85548  -6600934.02047
                  20581326.8594                                   20581321.3404
                                                                        52.5004
        42.2504
    700266.80947    551272.88345
                  22781886.9064                                   22781884.1724
                                                                        46.5004
        33.0004
 -20296555.94548 -15774583.28946
                  21991639.8054                                   21991636.1454
                                                                        50.0004
        38.2504
 -20488052.69548 -15931509.47346
                  21236995.6564                                   21236992.2274
                                                                        51.0004
        39.2504
 -11840130.33247  -9187992.78944
                  22932039.9224                                   22932036.6884
                                                                        44.7504
        29.0004
 -10281807.30148  -7994037.77746
                  21227696.7194                                   21227692.6684
                                                                        50.5004
        36.0004
  -1117947.85247   -862438.29744
                  23349381.6254                                   23349375.7114
                                                                        43.7504
        25.2504
 -17179190.66448 -13347670.92246
                  22122564.5944                                   22122561.7034
                                                                        49.0004
        37.0004
   -738114.85546   -542129.14843
                  24073720.3754                                   24073716.2234
                                                                        41.2504
        20.7504
    785349.31646    626394.72743
                  24268395.6724                                   24268392.7504
                                                                        40.5004
        22.0004
 09 10 20  0 10  0.0000000  0 10G02G04G05G10G25G13G23G29G16G07
  -8542128.41848  -6637029.53547
                  20572511.7974                                   20572506.3714
                                                                        52.7504
        42.2504
    716877.37147    564216.13745
                  22785047.4384                                   22785044.8914
                                                                        45.5004
        31.7504
 -20469264.03948 -15909161.04746
                  21958774.3594                                   21958770.7384
                                                                        50.0004
        39.2504
 -20647234.57448 -16055547.37146
                  21206704.1884                                   21206701.0314
                                                                        51.2504
        39.0004
 -11982084.54747  -9298606.46944
                  22905026.9694                                   22905022.8954
                                                                        45.0004
        28.2504
 -10338142.46948  -8037935.30946
                  21216976.5004                                   21216972.3244
                                                                        50.0004
        36.0004
  -1110340.69147   -856510.58244
                  23350829.9144                                   23350823.8324
                                                                        43.2504
        24.2504
 -17303411.82048 -13444466.54346
                  22098925.6094                                   22098923.0864
                                                                        48.7504
        36.5004
   -885522.05546   -656991.94943
                  24045670.0634                                   24045665.2704
                                                                        41.0004
        21.0004
    601473.78546    483115.16843
                  24233405.4924                                   24233402.0004
                                                                        40.7504
        22.0004
 09 10 20  0 10 30.0000000  0 10G02G04G05G10G25G13G23G29G16G07
  -8587878.19548  -6672678.75046
                  20563806.1094                                   20563800.6174
                                                                        52.0004
        41.7504
    733758.59047    577370.28945
                  22788260.2504                                   22788256.9064
                                                                        45.5004
        31.7504
 -20641612.45348 -16043458.54346
                  21925977.7584                                   21925974.0634
                                                                        49.5004
        39.2504
 -20805951.76648 -16179223.11746
                  21176501.2344                                   21176498.1054
                                                                        50.7504
        39.5004
 -12123536.14147  -9408828.46944
                  22878108.9454                                   22878105.0984
                                                                        45.2504
        27.5004
 -10393826.16848  -8081325.18745
                  21206379.8444                                   21206375.9024
                                                                        50.0004
        35.5004
  -1102375.80547   -850304.14144
                  23352345.1484                                   23352339.5744
                                                                        44.5004
        27.7504
 -17427051.07448 -13540808.84046
                  22075398.0784                                   22075395.2854
                                                                        49.0004
        36.5004
  -1032423.50446   -771460.58643
                  24017715.4844                                   24017710.7114
                                                                        40.5004
        20.0004
    417870.93847    340048.08644
                  24198467.0004                                   24198463.6844
                                                                        43.0004
        25.2504
 09 10 20  0 11  0.0000000  0 10G02G04G05G10G25G13G23G29G16G07
  -7057634.57048  -5480281.25847
                  20855002.0704                                   20854996.3794
                                                                        52.2504
        42.5004
   2326327.92647   1818333.41845
                  23091315.9454                                   23091312.7194
                                                                        46.2504
        31.5004
 -19238173.04748 -14949869.35246
                  22193043.6254                                   22193040.0124
                                                                        49.5004
        39.0004
 -19388777.25048 -15074931.29746
                  21446180.8284                                   21446177.5784
                                                                        51.2504
        39.0004
 -10689058.14147  -8291053.36344
                  23151081.2974                                   23151077.0554
                                                                        43.7504
        26.7504
  -8873437.44148  -6896606.68046
                  21495700.4694                                   21495696.5864
                                                                        49.7504
        36.2504
    481364.27347    383779.05144
                  23653720.6804                                   23653715.6684
                                                                        43.7504
        26.5004
 -15974682.22748 -12409092.90646
                  22351774.5314                                   22351772.3364
                                                                        49.2504
        36.7504
    396607.95346    342070.42243
                  24289650.5394                                   24289646.5124
                                                                        41.5004
        20.0004
   1809970.25447   1424800.85244
                  24463375.1644                                   24463371.8634
                                                                        43.5004
        26.7504
 09 10 20  0 11 30.0000000  0 10G02G04G05G10G25G13G23G29G16G07
  -7102240.07048  -5515038.80546
                  20846513.7344                                   20846508.1214
                                                                        52.0004
        41.7504
   2343745.57047   1831905.60545
                  23094630.6254                                   23094627.2544
                                                                        46.2504
        31.7504
 -19409794.99648 -15083600.70346
                  22160384.8134                                   22160381.4414
                                                                        49.7504
        38.7504
 -19546558.69148 -15197877.90246
                  21416155.7814                                   21416152.7194
                                                                        52.0004
        38.5004
 -10829497.06647  -8400486.25444
                  23124357.0944                                   23124353.0664
                                                                        44.0004
        28.7504
  -8927820.41448  -6938983.02346
                  21485351.6564                                   21485347.4844
                                                                        49.7504
        36.0004
    490038.15647    390537.94144
                  23655371.4534                                   23655366.1524
                                                                        44.0004
        26.0004
 -16097151.58248 -12504523.52346
                  22328469.6174                                   22328466.8094
                                                                        49.0004
        37.0004
    250725.33246    228395.67643
                  24261889.9694                                   24261886.0514
                                                                        41.7504
        20.7504
   1626923.33247   1282166.97744
                  24428542.2194                                   24428538.9144
                                                                        43.7504
        27.0004
 09 10 20  0 12  0.0000000  0 10G02G04G05G10G25G13G23G29G16G07
  -7146273.70748  -5549350.71147
                  20838134.6334                                   20838129.0044
                                                                        52.2504
        42.7504
   2361429.07047   1845684.96545
                  23097995.6884                                   23097992.4064
                                                                        46.7504
        31.0004
 -19581049.96548 -15217046.15246
                  22127796.2584                                   22127792.7424
                                                                        48.7504
        38.7504
 -19703868.38348 -15320456.87546
                  21386220.7034                                   21386217.1214
                                                                        51.5004
        39.0004
 -10969425.91847  -8509521.66844
                  23097729.7424                                   23097725.6214
                                                                        45.0004
        28.0004
  -8981554.12148  -6980853.43445
                  21475126.5234                                   21475122.3714
                                                                        49.0004
        35.7504
    499063.68847    397570.85544
                  23657088.7114                                   23657083.5434
                                                                        42.2504
        24.2504
 -16219033.07848 -12599496.14546
                  22305276.3754                                   22305273.8364
                                                                        49.5004
        37.5004
    105356.53146    115121.32843
                  24234227.1564                                   24234223.1644
                                                                        41.0004
        21.5004
   1444159.69147   1139753.78544
                  24393763.3204                                   24393759.6254
                                                                        43.5004
        27.0004
 09 10 20  0 12 30.0000000  0 10G02G04G05G10G25G13G23G29G16G07
  -7189740.70748  -5583220.98046
                  20829862.8984                                   20829857.5474
                                                                        52.2504
        41.5004
   2379372.46147   1859666.84445
                  23101409.7504                                   23101407.1684
                                                                        46.2504
        31.5004
 -19751940.03548 -15350207.23446
                  22095276.3984                                   22095272.8714
                                                                        48.7504
        38.7504
 -19860708.43748 -15442669.87546
                  21356375.1564                                   21356371.6414
                                                                        52.2504
        39.2504
 -11108846.55947  -8618161.10944
                  23071198.2814                                   23071194.8054
                                                                        43.5004
        29.0004
  -9034643.99648  -7022222.18446
                  21465024.0474                                   21465019.5784
                                                                        49.0004
        36.0004
    508434.33646    404872.69143
                  23658871.1884                                   23658865.9614
                                                                        41.5004
        22.5004
 -16340329.28548 -12694012.66846
                  22282194.4924                                   22282191.4574
                                                                        49.2504
        37.0004
    -39500.32446      2245.89843
                  24206662.2114                                   24206657.8714
                                                                        40.0004
        22.5004
   1261678.44946    997560.65244
                  24359037.9844                                   24359035.3984
                                                                        41.2504
        24.5004
 09 10 20  0 13  0.0000000  0 10G02G04G05G10G25G13G23G29G16G07
  -7232642.08648  -5616650.64846
                  20821699.1644                                   20821693.6684
                                                                        53.0004
        41.7504
   2397573.84047   1873849.75045
                  23104873.2814                                   23104870.4454
                                                                        46.7504
        31.2504
 -19922463.06648 -15483082.26246
                  22062827.3444                                   22062823.4224
                                                                        49.7504
        39.0004
 -20017077.11748 -15564515.62146
                  21326619.2344                                   21326616.3284
                                                                        51.5004
        40.0004
 -11247756.90647  -8726402.91044
                  23044764.3984                                   23044760.7734
                                                                        44.5004
        28.7504
  -9087090.87148  -7063089.88346
                  21455043.4384                                   21455039.5704
                                                                        48.5004
        36.0004
    518147.44546    412441.43043
                  23660719.9384                                   23660714.0704
                                                                        41.0004
        22.0004
 -16461038.00448 -12788071.37946
                  22259224.3204                                   22259221.3794
                                                                        49.0004
        36.7504
   -183843.02346   -110228.93443
                  24179194.6804                                   24179190.5124
                                                                        39.5004
        22.5004
   1079482.84446    855590.14843
                  24324366.7424                                   24324364.2774
                                                                        41.0004
        22.7504
 09 10 20  0 13 30.0000000  0 10G02G04G05G10G25G13G23G29G16G07
  -7274980.48048  -5649641.67647
                  20813642.4694                                   20813636.7734
                                                                        52.2504
        42.0004
   2416029.54747   1888230.82445
                  23108385.6484                                   23108382.6604
                                                                        47.5004
        32.0004
 -20092618.69148 -15615671.02346
                  22030447.7424                                   22030443.9144
                                                                        49.5004
        39.0004
 -20172974.00848 -15685993.71146
                  21296952.9534                                   21296949.6414
                                                                        51.0004
        39.5004
 -11386156.45747  -8834246.69544
                  23018427.9454                                   23018424.6414
                                                                        44.7504
        29.2504
  -9138897.29748  -7103458.50845
                  21445184.9694                                   21445181.0204
                                                                        49.0004
        35.5004
    528198.92647    420273.84843
                  23662633.0394                                   23662626.3674
                                                                        43.0004
        22.2504
 -16581160.32448 -12881673.14146
                  22236365.8984                                   22236362.8364
                                                                        50.0004
        37.0004
   -327670.60946   -222302.34443
                  24151824.6484                                   24151821.7464
                                                                        38.0004
        22.0004
    897574.59046    713843.52743
                  24289750.9224                                   24289747.5784
                                                                        40.5004
        22.0004
 09 10 20  0 14  0.0000000  0 10G02G04G05G10G25G13G23G29G16G07
  -7316758.38748  -5682195.91446
                  20805692.2894                                   20805686.6604
                                                                        52.7504
        41.5004
   2434735.28947   1902806.71545
                  23111944.9844                                   23111942.6054
                                                                        46.2504
        31.5004
 -20262407.29748 -15747973.87146
                  21998138.2424                                   21998134.5944
                                                                        49.5004
        39.5004
 -20328399.74648 -15807104.66846
                  21267376.5314                                   21267373.3404
                                                                        51.2504
        39.5004
 -11524045.59447  -8941692.74644
                  22992188.6724                                   22992185.7664
                                                                        44.2504
        29.5004
  -9190067.27348  -7143331.22346
                  21435447.8364                                   21435443.3984
                                                                        49.2504
        36.0004
    538584.12147    428366.27344
                  23664609.5864                                   23664602.8444
                                                                        44.0004
        24.0004
 -16700697.05148 -12974818.70346
                  22213618.8834                                   22213615.7544
                                                                        49.5004
        36.2504
   -470983.32446   -333974.60243
                  24124553.5474                                   24124549.0904
                                                                        40.0004
        22.2504
    715954.21946    572321.23044
                  24255190.2114                                   24255186.2584
                                                                        41.5004
        24.0004
 09 10 20  0 14 30.0000000  0 10G02G04G05G10G25G13G23G29G16G07
  -7357976.74248  -5714314.14547
                  20797848.6804                                   20797843.1644
                                                                        53.0004
        42.0004
