     2.11           OBSERVATION DATA    G (GPS)             RINEX VERSION / TYPE
teqc  2019Feb25                         20221121 12:27:56UTCPGM / RUN BY / DATE
OSX ker:10.11.6|Core i5|gcc 4.3 -m64|OSX ker:10.10+|=+      COMMENT
BIT 2 OF LLI FLAGS DATA COLLECTED UNDER A/S CONDITION       COMMENT
04712750                                                    MARKER NAME
2750                                                        MARKER NUMBER
-Unknown-           -Unknown-                               OBSERVER / AGENCY
0220400471          TRIMBLE R7          2.30                REC # / TYPE / VERS
-Unknown-           TRM39105.00     NONE                    ANT # / TYPE
  1449461.2702 -1709240.0343  5952444.3762                  APPROX POSITION XYZ
        0.0000        0.0000        0.0000                  ANTENNA: DELTA H/E/N
     1     1                                                WAVELENGTH FACT L1/2
    20    L1    L2    L5    L6    L7    L8    C1    P1    C2# / TYPES OF OBSERV
          P2    C5    C6    C7    C8    S1    S2    S5    S6# / TYPES OF OBSERV
          S7    S8                                          # / TYPES OF OBSERV
    30.0000                                                 INTERVAL
    15                                                      LEAP SECONDS
Forced Modulo Decimation to 30 seconds                      COMMENT
 SNR is mapped to RINEX snr flag value [0-9]                COMMENT
  L1 & L2: min(max(int(snr_dBHz/6), 0), 9)                  COMMENT
teqc edited: Beidou # 1 - 37 excluded                       COMMENT
  2009    10     2     0     0    0.0000000     GPS         TIME OF FIRST OBS
                                                            END OF HEADER
 09 10  2  0  0  0.0000000  0  8G02G04G12G13G20G23G30G31
 -17503384.92648 -13603557.05947
                  21100200.7034                                   21100196.1644
                                                                        52.0004
        42.5004
  -9772967.17648  -7591739.81646
                  20766525.5864                                   20766522.9454
                                                                        51.7504
        41.5004
  -3826463.20347  -2970162.93745
                  23811420.0084                                   23811416.9614
                                                                        46.0004
        31.2504
 -19762059.28948 -15324988.29345
                  22295739.6174                                   22295735.7974
                                                                        49.5004
        33.5004
    270979.21147    212683.85243
                  24256479.4844                                   24256476.4064
                                                                        42.2504
        20.2504
 -12429673.16448  -9656547.48045
                  21937759.6414                                   21937753.5904
                                                                        50.2504
        35.0004
  -9586812.14547  -7446562.13744
                  22801895.3594                                   22801893.4774
                                                                        45.7504
        29.2504
  -9704104.17646  -7541620.55544
                  23895864.8204                                   23895860.9024
                                                                        41.2504
        29.0004
 09 10  2  0  0 30.0000000  0  8G02G04G12G13G20G23G30G31
 -17650010.53548 -13717810.68747
                  21072299.0864                                   21072294.1604
                                                                        52.7504
        42.5004
  -9836887.55548  -7641547.86747
                  20754361.7814                                   20754359.0434
                                                                        51.5004
        42.0004
  -3837250.93047  -2978568.90645
                  23809366.8054                                   23809363.9844
                                                                        45.5004
        30.0004
 -19931500.64148 -15457020.46545
                  22263495.5784                                   22263492.0904
                                                                        48.7504
        34.0004
    288235.88346    226130.66443
                  24259763.6174                                   24259759.8984
                                                                        39.2504
        19.0004
 -12516267.21948  -9724023.37545
                  21921280.6884                                   21921275.2424
                                                                        50.5004
        35.5004
  -9643440.58247  -7490688.19145
                  22791119.7584                                   22791117.0514
                                                                        46.0004
        30.0004
  -9765843.45746  -7589729.02044
                  23884115.5394                                   23884112.1524
                                                                        41.2504
        28.5004
 09 10  2  0  1  0.0000000  0  8G02G04G12G13G20G23G30G31
 -17796140.87948 -13831678.45747
                  21044491.1484                                   21044486.1844
                                                                        53.5004
        42.2504
  -9900245.89848  -7690917.96547
                  20742305.1334                                   20742302.4844
                                                                        53.0004
        42.5004
  -3847636.05147  -2986661.23445
                  23807390.7974                                   23807387.6294
                                                                        46.2504
        30.5004
 -20100424.06248 -15588649.05145
                  22231350.9064                                   22231347.3164
                                                                        49.0004
        32.2504
    305673.02346    239718.02343
                  24263081.2194                                   24263078.1254
                                                                        37.2504
        18.2504
 -12602211.10248  -9790992.60945
                  21904926.4534                                   21904920.8284
                                                                        50.7504
        34.7504
  -9699415.97747  -7534305.42645
                  22780467.0004                                   22780465.5314
                                                                        46.0004
        30.0004
  -9826997.10547  -7637381.21544
                  23872479.1804                                   23872474.7074
                                                                        44.5004
        28.5004
 09 10  2  0  1 30.0000000  0  8G02G04G12G13G20G23G30G31
 -17941774.42648 -13945159.22746
                  21016777.9304                                   21016772.6684
                                                                        52.5004
        41.7504
  -9963042.94148  -7739850.66447
                  20730355.1804                                   20730352.6954
                                                                        52.7504
        42.0004
  -3857620.90647  -2994441.64145
                  23805491.0394                                   23805487.4844
                                                                        46.5004
        30.5004
 -20268826.28148 -15719871.48845
                  22199304.7034                                   22199301.5164
                                                                        48.5004
        32.7504
    323289.37546    253444.98443
                  24266432.8754                                   24266430.8834
                                                                        37.5004
        19.2504
 -12687504.54348  -9857455.00045
                  21888695.6414                                   21888690.2304
                                                                        50.0004
        35.5004
  -9754740.33247  -7577415.31245
                  22769939.2734                                   22769937.6844
                                                                        46.5004
        30.2504
  -9887565.66847  -7684577.48044
                  23860953.1334                                   23860949.2424
                                                                        42.7504
        28.5004
 09 10  2  0  2  0.0000000  0  8G02G04G12G13G20G23G30G31
 -18086909.42248 -14058251.74247
                  20989159.8364                                   20989155.0594
                                                                        52.7504
        42.0004
 -10025279.09848  -7788346.32847
                  20718511.9384                                   20718509.2274
                                                                        51.2504
        42.0004
  -3867209.07047  -3001912.90645
                  23803665.9144                                   23803662.9454
                                                                        46.5004
        30.2504
 -20436704.48848 -15850685.59845
                  22167358.4774                                   22167355.1414
                                                                        49.2504
        32.7504
    341082.68846    267309.85943
                  24269819.6724                                   24269817.0274
                                                                        40.0004
        21.7504
 -12772147.68448  -9923410.71545
                  21872588.5554                                   21872583.0354
                                                                        50.7504
        35.5004
  -9809415.22347  -7620019.14145
                  22759535.6564                                   22759533.7624
                                                                        45.5004
        30.0004
  -9947550.41046  -7731318.78544
                  23849537.8364                                   23849534.5944
                                                                        41.0004
        28.0004
 09 10  2  0  2 30.0000000  0  8G02G04G12G13G20G23G30G31
 -18231547.53548 -14170956.74247
                  20961636.2894                                   20961631.2544
                                                                        52.5004
        42.0004
 -10086959.68048  -7836409.08247
                  20706774.6484                                   20706772.1414
                                                                        52.7504
        42.0004
  -3876406.85947  -3009079.98045
                  23801915.8284                                   23801912.2624
                                                                        46.2504
        31.2504
 -20604061.19548 -15981093.35545
                  22135511.4224                                   22135507.9884
                                                                        49.5004
        33.0004
    359045.97747    281307.25444
                  24273238.6804                                   24273235.3874
                                                                        42.2504
        24.5004
 -12856145.39548  -9988863.49245
                  21856604.0234                                   21856598.6604
                                                                        50.0004
        35.5004
  -9863446.25047  -7662121.28945
                  22749254.0864                                   22749252.0864
                                                                        46.2504
        30.7504
 -10006957.03147  -7777609.59044
                  23838233.7194                                   23838230.0824
                                                                        44.5004
        28.5004
 09 10  2  0  3  0.0000000  0  8G02G04G12G13G20G23G30G31
 -18375682.43048 -14283269.55947
                  20934208.2584                                   20934203.2114
                                                                        52.2504
        42.0004
 -10148080.37148  -7884035.50847
                  20695143.8054                                   20695141.0594
                                                                        53.0004
        42.0004
  -3885212.02347  -3015941.13345
                  23800240.3054                                   23800236.7464
                                                                        46.0004
        30.5004
 -20770888.38348 -16111088.57045
                  22103765.2344                                   22103761.8554
                                                                        50.0004
        33.5004
    377182.35946    295439.52743
                  24276689.7274                                   24276686.5944
                                                                        41.7504
        22.5004
 -12939492.86748 -10053809.60245
                  21840744.2274                                   21840738.3874
                                                                        49.0004
        34.7504
  -9916830.00047  -7703719.02045
                  22739094.8914                                   22739093.1094
                                                                        45.5004
        30.2504
 -10065781.77047  -7823447.01644
                  23827039.7664                                   23827035.7234
                                                                        43.5004
        28.7504
 09 10  2  0  3 30.0000000  0  8G02G04G12G13G20G23G30G31
 -18519312.89548 -14395189.39847
                  20906876.1414                                   20906871.1054
                                                                        52.5004
        42.0004
 -10208642.18048  -7931226.52747
                  20683619.0394                                   20683616.4344
                                                                        52.5004
        42.2504
  -3893627.22747  -3022498.43045
                  23798638.5234                                   23798635.9694
                                                                        45.2504
        30.5004
 -20937183.20348 -16240668.97745
                  22072120.4144                                   22072117.2274
                                                                        49.2504
        33.7504
    395490.30946    309705.48043
                  24280172.8054                                   24280170.4454
                                                                        40.0004
        19.7504
 -13022189.50048 -10118248.54745
                  21825007.2114                                   21825001.6294
                                                                        49.0004
        35.2504
  -9969568.12947  -7744813.70345
                  22729059.1024                                   22729057.4964
                                                                        47.0004
        31.5004
 -10124025.56246  -7868831.76244
                  23815956.0394                                   23815952.3324
                                                                        41.5004
        28.5004
 09 10  2  0  4  0.0000000  0  8G02G04G12G13G20G23G30G31
 -18662438.79348 -14506716.02347
                  20879640.2894                                   20879635.1994
                                                                        52.0004
        42.0004
 -10268647.91048  -7977984.35947
                  20672200.5634                                   20672197.8484
                                                                        53.7504
        42.5004
  -3901656.77747  -3028755.26245
                  23797110.7584                                   23797107.9804
                                                                        45.2504
        30.0004
 -21102944.97748 -16369833.99245
                  22040577.2034                                   22040573.5124
                                                                        49.5004
        33.7504
    413965.30546    324101.60242
                  24283689.2424                                   24283686.6254
                                                                        38.5004
        17.2504
 -13104238.73848 -10182183.16045
                  21809394.0554                                   21809388.3594
                                                                        50.0004
        34.7504
 -10021663.97347  -7785407.91045
                  22719146.2504                                   22719144.2274
                                                                        46.5004
        30.5004
 -10181691.35547  -7913766.10944
                  23804982.5084                                   23804979.1094
                                                                        43.7504
        27.2504
 09 10  2  0  4 30.0000000  0  8G02G04G12G13G20G23G30G31
 -18805059.17648 -14617848.80946
                  20852500.4384                                   20852495.3674
                                                                        52.5004
        41.7504
 -10328098.57448  -8024309.60947
                  20660887.6024                                   20660884.8914
                                                                        53.2504
        42.0004
  -3909304.17647  -3034714.29745
                  23795655.7424                                   23795652.9224
                                                                        45.2504
        30.2504
 -21268171.71148 -16498582.09845
                  22009135.4924                                   22009131.8324
                                                                        49.5004
        33.5004
    432605.04746    338626.09843
                  24287235.2664                                   24287233.3914
                                                                        39.7504
        18.2504
 -13185640.39148 -10245612.96945
                  21793903.6254                                   21793897.7034
                                                                        50.0004
        35.5004
 -10073119.43047  -7825503.03945
                  22709354.9304                                   22709352.3674
                                                                        46.0004
        31.2504
 -10238780.57047  -7958251.18744
                  23794119.0004                                   23794115.3524
                                                                        44.0004
        28.2504
 09 10  2  0  5  0.0000000  0  8G02G04G12G13G20G23G30G31
 -18947169.21948 -14728583.84447
                  20825457.7734                                   20825452.8134
                                                                        51.7504
        42.5004
 -10386992.71148  -8070201.21947
                  20649680.3594                                   20649677.7504
                                                                        53.5004
        42.0004
  -3916569.47747  -3040375.54345
                  23794272.8914                                   23794270.4614
                                                                        45.2504
        30.0004
 -21432858.17648 -16626909.16445
                  21977796.9384                                   21977793.1804
                                                                        50.0004
        34.2504
    451409.96946    353279.25443
                  24290814.2664                                   24290811.4654
                                                                        40.5004
        19.2504
 -13266393.03148 -10308537.09045
                  21778536.5394                                   21778531.1564
                                                                        49.0004
        35.2504
 -10123934.06247  -7865098.81645
                  22699684.9844                                   22699682.4804
                                                                        46.0004
        30.5004
 -10295292.52347  -8002286.46544
                  23783364.4534                                   23783361.7194
                                                                        43.7504
        27.0004
 09 10  2  0  5 30.0000000  0  7G02G04G12G13G23G30G31
 -19088769.90248 -14838921.96547
                  20798512.0314                                   20798507.0394
                                                                        52.0004
        42.2504
 -10445333.14548  -8115661.31647
                  20638578.8524                                   20638575.8794
                                                                        52.7504
        42.2504
  -3923458.22747  -3045743.39845
                  23792962.4064                                   23792959.0514
                                                                        44.7504
        30.5004
 -21597004.43048 -16754815.34045
                  21946560.7734                                   21946556.9694
                                                                        49.0004
        34.0004
 -13346498.83248 -10370957.15645
                  21763293.1174                                   21763287.6524
                                                                        48.5004
        35.0004
 -10174112.14147  -7904198.59045
                  22690136.4924                                   22690133.6844
                                                                        45.2504
        30.2504
 -10351230.92247  -8045874.83644
                  23772720.0784                                   23772716.7504
                                                                        43.0004
        27.5004
 09 10  2  0  6  0.0000000  0  7G02G04G12G13G23G30G31
 -19229856.86348 -14948859.84847
                  20771664.0314                                   20771659.0084
                                                                        52.5004
        42.2504
 -10503118.27048  -8160688.68046
                  20627582.3984                                   20627579.8794
                                                                        53.7504
        41.7504
  -3929969.48047  -3050817.12144
                  23791723.4144                                   23791719.5824
                                                                        45.2504
        29.5004
 -21760604.81248 -16882296.17645
                  21915428.6954                                   21915424.7274
                                                                        49.0004
        34.0004
 -13425955.28548 -10432871.23045
                  21748172.8594                                   21748167.6564
                                                                        48.7504
        35.0004
 -10223652.06247  -7942801.11744
                  22680708.9694                                   22680706.3164
                                                                        46.2504
        29.5004
 -10406593.53547  -8089014.50844
                  23762184.9064                                   23762181.1954
                                                                        44.5004
        27.5004
 09 10  2  0  6 30.0000000  0  7G02G04G12G13G23G30G31
 -19370424.34848 -15058392.85547
                  20744914.8524                                   20744909.8954
                                                                        51.7504
        42.5004
 -10560345.23448  -8205281.13346
                  20616692.5864                                   20616689.8754
                                                                        53.2504
        41.7504
  -3936102.52347  -3055596.11744
                  23790556.6884                                   23790552.4654
                                                                        46.0004
        29.2504
 -21923653.72348 -17009347.29345
                  21884401.9924                                   21884397.7274
                                                                        49.2504
        33.7504
 -13504759.51648 -10494277.05945
                  21733176.9144                                   21733171.6604
                                                                        48.5004
        35.5004
 -10272551.71947  -7980904.71944
                  22671403.6334                                   22671401.1914
                                                                        45.5004
        29.0004
 -10461378.37947  -8131703.98844
                  23751759.6954                                   23751756.0704
                                                                        45.0004
        27.7504
 09 10  2  0  7  0.0000000  0  7G02G04G12G13G23G30G31
 -19510468.02748 -15167517.76247
                  20718265.5394                                   20718260.4454
                                                                        52.5004
        42.2504
 -10617011.73448  -8249436.85246
                  20605909.0554                                   20605906.5594
                                                                        52.7504
        41.5004
  -3941857.31247  -3060080.37144
                  23789461.0704                                   23789457.3054
                                                                        45.0004
        29.0004
 -22086144.57848 -17135963.53145
                  21853480.4224                                   21853477.0124
                                                                        49.0004
        33.2504
 -13582908.74648 -10555172.52745
                  21718306.0554                                   21718300.3674
                                                                        49.2504
        34.5004
 -10320809.93047  -8018508.45745
                  22662220.7974                                   22662217.8364
                                                                        46.0004
        30.0004
 -10515583.62946  -8173941.85244
                  23741445.1334                                   23741441.5904
                                                                        41.5004
        27.2504
 09 10  2  0  7 30.0000000  0  7G02G04G12G13G23G30G31
 -19649988.78948 -15276235.20347
                  20691715.5004                                   20691710.5004
                                                                        52.0004
        42.5004
 -10673121.33248  -8293158.57847
                  20595231.8834                                   20595229.3754
                                                                        51.7504
        42.0004
  -3947238.86347  -3064273.75844
                  23788436.9694                                   23788433.5704
                                                                        44.5004
        29.2504
 -22248077.88748 -17262145.30945
                  21822665.6174                                   21822661.9104
                                                                        49.2504
        34.0004
 -13660406.41048 -10615560.41845
                  21703558.6724                                   21703552.8594
                                                                        49.5004
        34.7504
 -10368431.10247  -8055615.80945
                  22653158.1414                                   22653155.8244
                                                                        44.0004
        30.0004
 -10569213.36346  -8215731.28144
                  23731239.2974                                   23731235.8794
                                                                        41.0004
        27.2504
 09 10  2  0  8  0.0000000  0  7G02G04G12G13G23G30G31
 -19788989.76648 -15384547.63347
                  20665264.2734                                   20665259.3164
                                                                        51.7504
        42.7504
 -10728679.78548  -8336450.81247
                  20584659.5234                                   20584656.7544
                                                                        53.5004
        42.5004
  -3952254.33647  -3068181.90644
                  23787482.0944                                   23787479.1024
                                                                        44.5004
        29.7504
 -22409456.23848 -17387894.62145
                  21791956.3364                                   21791952.7194
                                                                        50.0004
        33.5004
 -13737257.21548 -10675444.19545
                  21688934.6564                                   21688928.4344
                                                                        48.5004
        35.2504
 -10415421.47347  -8092231.64544
                  22644216.4614                                   22644213.9344
                                                                        45.0004
        29.2504
 -10622273.10947  -8257076.57444
                  23721141.9774                                   23721138.8634
                                                                        44.0004
        28.2504
 09 10  2  0  8 30.0000000  0  7G02G04G12G13G23G30G31
 -18352049.53548 -14264853.99647
                  20938705.2894                                   20938700.4064
                                                                        52.5004
        42.5004
  -9208270.99248  -7151716.59846
                  20873983.4924                                   20873980.8554
                                                                        53.0004
        41.5004
  -2381491.78147  -1844211.10544
                  24086388.2194                                   24086385.4304
                                                                        44.0004
        29.5004
 -20994856.29748 -16285608.89145
                  22061145.7664                                   22061142.0394
                                                                        49.5004
        33.5004
 -12238043.44548  -9507225.62545
                  21974225.1414                                   21974219.3674
                                                                        49.5004
        35.5004
  -8886366.76247  -6900760.45744
                  22935185.8524                                   22935183.2234
                                                                        45.2504
        29.5004
  -9099347.66047  -7070381.45344
                  24010945.9694                                   24010941.9144
                                                                        42.2504
        28.2504
 09 10  2  0  9  0.0000000  0  8G02G04G12G13G29G23G30G31
 -18490019.74648 -14372363.34447
                  20912450.5164                                   20912445.4964
                                                                        50.7504
        42.2504
  -9262743.88348  -7194162.94547
                  20863617.6724                                   20863614.9104
                                                                        52.0004
        42.0004
  -2385798.17247  -1847566.77044
                  24085569.0474                                   24085566.8794
                                                                        43.5004
        29.2504
 -21155130.60248 -16410497.91045
                  22030646.2664                                   22030642.7234
                                                                        49.5004
        34.7504
   1255416.33656    993472.60254
                  24510149.0084                                   24510146.5784
                                                                        41.0004
        26.7504
 -12313616.11348  -9566113.44545
                  21959844.1414                                   21959839.0004
                                                                        48.2504
        35.7504
  -8932115.69947  -6936408.98044
                  22926480.1564                                   22926477.6804
                                                                        44.7504
        29.5004
  -9151286.04346  -7110852.91444
                  24001061.7034                                   24001058.4774
                                                                        40.2504
        27.5004
 09 10  2  0  9 30.0000000  0  8G02G04G12G13G29G23G30G31
 -18627479.57448 -14479474.93447
                  20886292.6094                                   20886287.8164
                                                                        50.5004
        42.5004
  -9316682.85248  -7236193.29347
                  20853353.4534                                   20853350.5394
                                                                        53.0004
        42.0004
  -2389761.43047  -1850655.07845
                  24084815.1484                                   24084812.0474
                                                                        44.7504
        30.2504
 -21314856.66048 -16534959.68445
                  22000251.6254                                   22000248.2504
                                                                        50.0004
        34.5004
   1060512.79746    841599.73844
                  24473059.7894                                   24473058.0474
                                                                        40.5004
        27.2504
 -12388557.80947  -9624509.52746
                  21945583.3134                                   21945578.0044
                                                                        47.7504
        36.2504
  -8977253.73847  -6971581.45745
                  22917890.5084                                   22917888.2384
                                                                        44.2504
        30.5004
  -9202673.53946  -7150895.15644
                  23991283.3834                                   23991280.1844
                                                                        41.5004
        26.5004
 09 10  2  0 10  0.0000000  0  8G02G04G12G13G29G23G30G31
 -18764431.82448 -14586191.02347
                  20860231.6564                                   20860226.8444
                                                                        52.2504
        42.5004
  -9370093.35948  -7277811.83647
                  20843189.8204                                   20843186.7544
                                                                        53.5004
        42.2504
  -2393388.83247  -1853481.65645
                  24084124.8204                                   24084121.5164
                                                                        45.2504
        31.0004
 -21474036.20348 -16658995.64845
                  21969960.6174                                   21969957.5824
                                                                        49.0004
        34.7504
    865841.73446    689908.05144
                  24436014.1254                                   24436013.4024
                                                                        37.0004
        26.0004
 -12462873.68048  -9682418.08645
                  21931441.5864                                   21931436.1524
                                                                        49.0004
        35.5004
  -9021787.47347  -7006283.12544
                  22909416.0314                                   22909413.7664
                                                                        45.5004
        29.5004
  -9253515.61747  -7190512.31244
                  23981608.6174                                   23981605.3204
                                                                        43.0004
        27.2504
 09 10  2  0 10 30.0000000  0  8G02G04G12G13G29G23G30G31
 -18900870.98048 -14692507.21147
                  20834267.8914                                   20834262.8164
                                                                        51.0004
        42.5004
  -9422972.66048  -7319016.45746
                  20833127.0864                                   20833124.4414
                                                                        51.7504
        41.5004
  -2396678.98447  -1856045.44545
                  24083498.9694                                   24083495.9264
                                                                        46.0004
        30.7504
 -21632663.61348 -16782601.36345
                  21939774.5864                                   21939771.8634
                                                                        49.5004
        34.0004
    671410.13746    538403.01244
                  24399015.2584                                   24399013.7734
                                                                        39.5004
        25.2504
 -12536560.71147  -9739836.52045
                  21917419.4144                                   21917413.8164
                                                                        47.7504
        34.5004
  -9065714.80947  -7040512.26644
                  22901057.0084                                   22901054.7034
                                                                        44.0004
        29.2504
  -9303810.26246  -7229702.93744
                  23972037.4144                                   23972034.3874
                                                                        40.5004
        27.2504
 09 10  2  0 11  0.0000000  0  8G02G04G12G13G29G23G30G31
 -19036794.87148 -14798421.93447
                  20808402.3364                                   20808397.4104
                                                                        51.5004
        42.2504
  -9475320.80148  -7359807.18747
                  20823165.4694                                   20823162.9414
                                                                        53.0004
        42.0004
  -2399633.98447  -1858348.01644
                  24082936.2734                                   24082933.2854
                                                                        46.0004
        29.7504
 -21790735.59848 -16905774.29345
                  21909694.4064                                   21909691.0984
                                                                        49.7504
        34.7504
    477221.03146    387086.89144
                  24362062.4844                                   24362060.9534
                                                                        40.5004
        25.5004
 -12609618.53148  -9796764.62145
                  21903516.9694                                   21903511.1254
                                                                        49.0004
        34.5004
  -9109036.89547  -7074269.75044
                  22892813.2114                                   22892810.6954
                                                                        44.2504
        29.2504
  -9353557.60247  -7268467.12544
                  23962571.3524                                   23962567.9774
                                                                        42.2504
        28.2504
 09 10  2  0 11 30.0000000  0  8G02G04G12G13G29G23G30G31
 -19172197.35948 -14903930.29747
                  20782636.1174                                   20782631.3324
                                                                        51.7504
        42.0004
  -9527134.47348  -7400181.46547
                  20813305.6094                                   20813302.7704
                                                                        53.7504
        42.0004
  -2402251.86747  -1860387.98444
                  24082438.2974                                   24082434.7934
                                                                        44.5004
        28.5004
 -21948245.18748 -17028508.98845
                  21879721.2194                                   21879718.0554
                                                                        49.5004
        34.0004
    283281.76647    235965.39544
                  24325157.5004                                   24325155.1334
                                                                        43.0004
        24.2504
 -12682043.46948  -9853199.68445
                  21889735.1024                                   21889729.4804
                                                                        48.7504
        35.2504
  -9151751.04347  -7107553.46944
                  22884684.7504                                   22884682.3984
                                                                        44.0004
        29.5004
  -9402754.96947  -7306802.76644
                  23953209.4144                                   23953206.0164
                                                                        43.0004
        28.2504
 09 10  2  0 12  0.0000000  0  8G02G04G12G13G29G23G30G31
 -19307074.84848 -15009029.54747
                  20756969.8444                                   20756964.8134
                                                                        51.5004
        42.2504
  -9578412.32848  -7440138.18746
                  20803547.8444                                   20803545.2154
                                                                        53.0004
        41.7504
  -2404533.85247  -1862166.10944
                  24082003.3204                                   24082001.0664
                                                                        43.7504
        28.0004
 -22105187.65648 -17150801.80545
                  21849856.4144                                   21849852.6094
                                                                        49.0004
        34.5004
     89596.77047     85041.94144
                  24288300.5944                                   24288297.6254
                                                                        43.2504
        24.5004
 -12753833.82848  -9909140.21545
                  21876073.5944                                   21876067.8554
                                                                        48.7504
        34.7504
  -9193857.55947  -7140363.66844
                  22876672.2504                                   22876669.5004
                                                                        43.5004
        29.7504
  -9451401.53947  -7344709.15244
                  23943952.3984                                   23943948.7734
                                                                        43.5004
        28.2504
 09 10  2  0 12 30.0000000  0  8G02G04G12G13G29G23G30G31
 -19441424.57048 -15113717.67247
                  20731403.7274                                   20731398.8834
                                                                        51.0004
        42.5004
  -9629154.40248  -7479677.42646
                  20793891.9144                                   20793888.9024
                                                                        51.7504
        41.7504
  -2406481.19547  -1863683.57444
                  24081632.9924                                   24081630.3674
                                                                        44.0004
        27.7504
 -22261559.72748 -17272650.13345
                  21820099.4924                                   21820095.9454
                                                                        49.5004
        34.7504
   -103830.03547    -65680.28544
                  24251492.3914                                   24251490.1524
                                                                        43.0004
        25.7504
 -12824989.30148  -9964586.07845
                  21862533.2584                                   21862527.8874
                                                                        48.0004
        35.2504
  -9235356.79747  -7172700.66845
                  22868774.5634                                   22868772.9734
                                                                        44.2504
        30.0004
  -9499497.93746  -7382186.88744
                  23934799.9384                                   23934796.2114
                                                                        41.5004
        26.5004
 09 10  2  0 13  0.0000000  0  8G02G04G12G13G29G23G30G31
 -19575243.40248 -15217992.21547
                  20705938.9924                                   20705933.8204
                                                                        52.5004
        42.5004
  -9679360.06648  -7518798.68047
                  20784337.8524                                   20784335.1414
                                                                        53.5004
        42.0004
  -2408094.80547  -1864941.01644
                  24081326.5394                                   24081323.1134
                                                                        44.5004
        28.5004
 -22417357.30948 -17394050.87545
                  21790452.4924                                   21790449.0314
                                                                        49.7504
        35.0004
   -296994.08246   -216197.73044
                  24214734.2974                                   24214732.5204
                                                                        39.7504
        25.0004
 -12895508.71948 -10019536.28945
                  21849114.0394                                   21849108.6844
                                                                        48.5004
        34.7504
  -9276249.02747  -7204564.77045
                  22860993.6414                                   22860991.2894
                                                                        44.7504
        30.0004
  -9547043.37947  -7419235.30144
                  23925752.1414                                   23925748.4574
                                                                        43.5004
        27.2504
 09 10  2  0 13 30.0000000  0  8G02G04G12G13G29G23G30G31
 -19708530.50448 -15321852.35547
                  20680575.6024                                   20680570.6804
                                                                        51.7504
        42.5004
  -9729031.37948  -7557503.57047
                  20774885.6484                                   20774883.1844
                                                                        53.5004
        42.2504
  -2409378.61347  -1865941.40244
                  24081082.0394                                   24081079.4384
                                                                        44.5004
        29.5004
 -22572579.04348 -17515002.89145
                  21760914.9304                                   21760911.0124
                                                                        49.5004
        34.5004
   -489894.39546   -366509.58643
                  24178025.7344                                   24178024.9104
                                                                        37.5004
        22.5004
 -12965393.67248 -10073992.07845
                  21835815.0784                                   21835809.7974
                                                                        49.5004
        35.0004
  -9316537.56647  -7235958.44545
                  22853326.8984                                   22853324.8554
                                                                        45.5004
        30.0004
  -9594041.25847  -7455857.09444
                  23916808.3204                                   23916805.2234
                                                                        43.5004
        27.5004
 09 10  2  0 14  0.0000000  0  8G02G04G12G13G29G23G30G31
 -19841285.25048 -15425297.52047
                  20655313.0704                                   20655308.0394
                                                                        52.0004
        42.7504
  -9778170.75049  -7595793.97346
                  20765534.7584                                   20765531.9264
                                                                        54.2504
        41.5004
  -2410336.73847  -1866688.08245
                  24080899.5554                                   24080897.0554
                                                                        44.7504
        30.0004
 -22727223.94948 -17635505.39845
                  21731486.7114                                   21731483.2424
                                                                        49.0004
        35.0004
   -682528.72746   -516614.12144
                  24141368.9304                                   24141368.1724
                                                                        40.2504
        27.2504
 -13034646.17648 -10127954.96145
                  21822636.7894                                   21822631.7344
                                                                        49.5004
        35.5004
  -9356225.41447  -7266884.03945
                  22845774.7274                                   22845772.6054
                                                                        45.7504
        30.2504
  -9640493.50447  -7492053.66844
                  23907968.8594                                   23907965.6644
                                                                        42.5004
        25.7504
 09 10  2  0 14 30.0000000  0  8G02G04G12G13G29G23G30G31
 -19973500.88348 -15528322.61347
                  20630153.4614                                   20630148.3674
                                                                        52.2504
        42.5004
  -9826773.47348  -7633666.24646
                  20756286.2274                                   20756283.3794
                                                                        53.7504
        41.5004
  -2410965.84847  -1867178.28544
                  24080780.3834                                   24080777.3754
                                                                        45.0004
        29.0004
 -22881283.66448 -17755551.87145
                  21702170.2734                                   21702166.5124
                                                                        49.7504
        35.0004
   -874889.27747   -666505.39844
                  24104764.3984                                   24104763.0394
                                                                        42.5004
        28.7504
 -13103261.82048 -10181421.64845
                  21809579.3674                                   21809573.9694
                                                                        49.0004
        34.7504
  -9395309.40647  -7297339.07445
                  22838337.5864                                   22838335.1414
                                                                        45.7504
        30.7504
  -9686396.59446  -7527822.29344
                  23899233.8834                                   23899230.3244
                                                                        41.5004
        26.2504
 09 10  2  0 15  0.0000000  0  8G02G04G12G13G29G23G30G31
 -20105175.52748 -15630926.18047
                  20605096.2114                                   20605091.6214
                                                                        52.0004
        43.0004
  -9874839.61748  -7671120.36747
                  20747139.4694                                   20747136.8204
                                                                        52.5004
        42.0004
  -2411268.30547  -1867414.03145
                  24080722.7734                                   24080719.8634
                                                                        44.5004
        30.5004
 -23034755.73848 -17875140.46145
                  21672965.5474                                   21672962.0514
                                                                        49.0004
        34.7504
  -1066972.00847   -816180.24644
                  24068212.8594                                   24068210.5784
                                                                        43.7504
        29.5004
 -13171240.12548 -10234391.77745
                  21796643.7344                                   21796638.2424
                                                                        50.0004
        34.7504
  -9433790.34047  -7327324.21544
                  22831014.5164                                   22831011.7624
                                                                        46.0004
        29.5004
  -9731750.87146  -7563163.28944
                  23890602.9694                                   23890599.8524
                                                                        40.0004
        25.2504
 09 10  2  0 15 30.0000000  0  9G02G04G12G13G29G10G23G30G31
 -20236311.77348 -15733110.16447
                  20580141.7584                                   20580136.9734
                                                                        52.0004
        42.5004
  -9922375.16848  -7708161.05947
                  20738093.7274                                   20738091.0204
                                                                        53.2504
        42.0004
  -2411251.32447  -1867400.76644
                  24080726.3444                                   24080723.1684
                                                                        44.5004
        29.2504
 -23187642.13348 -17994272.69145
                  21643872.3594                                   21643868.4964
                                                                        49.5004
        35.5004
  -1258779.17647   -965640.32044
                  24031712.4924                                   24031710.0594
                                                                        44.0004
        27.7504
   1229058.82056   1002729.49654
                  24006633.4304                                   24006631.6954
                                                                        41.7504
        24.5004
 -13238586.22348 -10286869.21945
                  21783828.1094                                   21783822.4304
                                                                        49.5004
        34.5004
  -9471674.86347  -7356844.58644
                  22823805.4304                                   22823802.8284
                                                                        45.5004
        29.7504
  -9776562.76647  -7598081.66844
                  23882076.0554                                   23882072.3444
                                                                        42.0004
        24.5004
 09 10  2  0 16  0.0000000  0  9G02G04G12G13G29G10G23G30G31
 -20366923.09448 -15834885.15647
                  20555287.4844                                   20555282.1094
                                                                        52.5004
        43.0004
  -9969396.06248  -7744800.73046
                  20729145.8594                                   20729143.3984
                                                                        53.2504
        41.7504
  -2410932.57047  -1867152.41044
                  24080786.7504                                   24080783.7704
                                                                        42.7504
        27.2504
 -23339955.41048 -18112958.32846
                  21614887.9844                                   21614884.3674
                                                                        49.5004
        36.0004
  -1450323.50847  -1114895.59844
                  23995262.8674                                   23995259.8834
                                                                        42.5004
        24.2504
   1017973.12547    838247.10943
                  23966465.8204                                   23966462.5634
                                                                        43.2504
        23.7504
 -13305316.48048 -10338866.85945
                  21771129.9144                                   21771124.2734
                                                                        49.2504
        35.0004
  -9508980.14847  -7385913.61744
                  22816706.6644                                   22816703.7384
                                                                        44.0004
        29.5004
  -9820848.95347  -7632590.36344
                  23873648.8444                                   23873644.7344
                                                                        43.0004
        26.5004
 09 10  2  0 16 30.0000000  0  9G02G04G12G13G29G10G23G30G31
 -20497007.70348 -15936249.79347
                  20530533.3674                                   20530528.2034
                                                                        52.5004
        42.7504
 -10015902.95348  -7781039.84846
                  20720295.8364                                   20720293.0984
                                                                        52.5004
        41.7504
  -2410313.99247  -1866670.41444
                  24080903.6644                                   24080901.0944
                                                                        42.5004
        26.2504
 -23491693.33248 -18231195.67645
                  21586012.8054                                   21586009.5204
                                                                        49.5004
        35.2504
  -1641601.52046  -1263943.40643
                  23958863.5164                                   23958861.0164
                                                                        41.2504
        22.2504
    807030.34047    673875.97344
                  23926325.1174                                   23926322.0554
                                                                        44.5004
        25.7504
 -13371431.15248 -10390384.78145
                  21758548.7504                                   21758542.9774
                                                                        50.0004
        34.0004
  -9545708.03547  -7414532.77344
                  22809717.2894                                   22809715.2234
                                                                        45.0004
        29.5004
  -9864610.57446  -7666690.33644
                  23865320.9774                                   23865317.4774
                                                                        39.7504
        26.5004
 09 10  2  0 17  0.0000000  0  9G02G04G12G13G29G10G23G30G31
 -19051135.51248 -14809596.20747
                  20805673.4384                                   20805668.3594
                                                                        52.5004
        43.0004
  -8486471.24648  -6589274.86746
