     2.11           OBSERVATION DATA    G (GPS)             RINEX VERSION / TYPE
teqc  2019Feb25                         20221121 12:28:15UTCPGM / RUN BY / DATE
OSX ker:10.11.6|Core i5|gcc 4.3 -m64|OSX ker:10.10+|=+      COMMENT
BIT 2 OF LLI FLAGS DATA COLLECTED UNDER A/S CONDITION       COMMENT
04712850                                                    MARKER NAME
2850                                                        MARKER NUMBER
-Unknown-           -Unknown-                               OBSERVER / AGENCY
0220400471          TRIMBLE R7          2.30                REC # / TYPE / VERS
-Unknown-           TRM39105.00     NONE                    ANT # / TYPE
  1449459.8875 -1709240.7522  5952444.8659                  APPROX POSITION XYZ
        0.0000        0.0000        0.0000                  ANTENNA: DELTA H/E/N
     1     1                                                WAVELENGTH FACT L1/2
    20    L1    L2    L5    L6    L7    L8    C1    P1    C2# / TYPES OF OBSERV
          P2    C5    C6    C7    C8    S1    S2    S5    S6# / TYPES OF OBSERV
          S7    S8                                          # / TYPES OF OBSERV
    30.0000                                                 INTERVAL
    15                                                      LEAP SECONDS
Forced Modulo Decimation to 30 seconds                      COMMENT
 SNR is mapped to RINEX snr flag value [0-9]                COMMENT
  L1 & L2: min(max(int(snr_dBHz/6), 0), 9)                  COMMENT
teqc edited: Beidou # 1 - 37 excluded                       COMMENT
  2009    10    12     0     0    0.0000000     GPS         TIME OF FIRST OBS
                                                            END OF HEADER
 09 10 12  0  0  0.0000000  0  9G02G04G05G13G29G23G30G31G10
 -12566985.07048  -9728267.62147
                  20462978.4384                                   20462972.7974
                                                                        51.5004
        42.7504
  -4043789.06648  -3121090.55946
                  21449031.6334                                   21449028.9614
                                                                        49.7504
        39.0004
  -5535281.71147  -4265847.79345
                  23747494.9694                                   23747491.5904
                                                                        42.2504
        30.5004
 -14666403.53948 -11355085.03146
                  21329456.9534                                   21329452.7274
                                                                        51.2504
        36.5004
 -11903401.66847  -9238032.40245
                  23239291.8594                                   23239288.9224
                                                                        44.5004
        31.0004
  -6256960.96948  -4834251.20745
                  22273590.8914                                   22273585.0744
                                                                        48.0004
        31.7504
  -3216664.87147  -2478203.28944
                  23606058.8754                                   23606055.5594
                                                                        44.7504
        27.0004
  -3948522.64546  -3048733.29343
                  24575231.2114                                   24575227.5204
                                                                        39.0004
        22.0004
 -11477808.85947  -8922539.52045
                  22903156.5944                                   22903153.2034
                                                                        44.0004
        32.0004
 09 10 12  0  0 30.0000000  0  9G02G04G05G13G29G23G30G31G10
 -12659620.53148  -9800451.10547
                  20445350.6024                                   20445344.8594
                                                                        51.2504
        43.2504
  -4055126.08648  -3129924.58246
                  21446874.5164                                   21446871.3954
                                                                        50.0004
        39.2504
  -5728454.11747  -4416371.71145
                  23710735.8674                                   23710731.8444
                                                                        44.5004
        30.2504
 -14776738.40248 -11441060.29746
                  21308460.9774                                   21308456.7344
                                                                        50.7504
        36.5004
 -12067376.43747  -9365804.96145
                  23208088.0164                                   23208085.3634
                                                                        44.7504
        31.5004
  -6284662.56648  -4855836.88745
                  22268319.3284                                   22268313.6954
                                                                        48.7504
        33.0004
  -3217374.43047  -2478756.21144
                  23605924.0164                                   23605920.9264
                                                                        42.7504
        26.5004
  -3958665.34846  -3056636.74643
                  24573301.2114                                   24573297.1954
                                                                        40.5004
        22.7504
 -11667098.29347  -9070037.77745
                  22867136.2114                                   22867132.4384
                                                                        45.2504
        31.2504
 09 10 12  0  1  0.0000000  0 10G02G04G05G13G29G23G30G31G10G25
 -12751665.48048  -9872174.44147
                  20427834.9774                                   20427829.9344
                                                                        52.0004
        43.5004
  -4066017.11348  -3138411.09046
                  21444802.0474                                   21444798.6684
                                                                        50.0004
        39.5004
  -5921434.21947  -4566745.81245
                  23674012.7344                                   23674008.8754
                                                                        42.7504
        30.7504
 -14886404.77348 -11526514.64846
                  21287592.0234                                   21287587.6454
                                                                        51.0004
        36.7504
 -12230939.34047  -9493256.61345
                  23176963.7734                                   23176960.8874
                                                                        44.5004
        32.2504
  -6311807.13748  -4876988.45745
                  22263154.1024                                   22263147.8244
                                                                        49.2504
        32.2504
  -3217627.45347  -2478953.37544
                  23605875.2274                                   23605872.1914
                                                                        42.0004
        24.5004
  -3968375.77746  -3064203.34844
                  24571454.0704                                   24571449.6644
                                                                        41.2504
        27.2504
 -11856104.79747  -9217315.55545
                  22831169.4924                                   22831165.9454
                                                                        45.2504
        31.5004
   -218491.49656   -128983.67653
                  24189591.6024                                   24189588.7074
                                                                        39.5004
        19.7504
 09 10 12  0  1 30.0000000  0 10G02G04G05G13G29G23G30G31G10G25
 -12843121.02748  -9943438.49647
                  20410431.5864                                   20410426.1094
                                                                        52.5004
        42.7504
  -4076465.29348  -3146552.53146
                  21442813.5944                                   21442810.5594
                                                                        50.0004
        38.2504
  -6114220.81647  -4716969.09845
                  23637326.6724                                   23637323.7854
                                                                        43.2504
        31.0004
 -14995402.55948 -11611447.97746
                  21266850.4454                                   21266846.2424
                                                                        50.2504
        36.2504
 -12394088.96147  -9620386.23445
                  23145917.0864                                   23145914.1524
                                                                        45.2504
        32.2504
  -6338397.50848  -4897708.23445
                  22258093.8914                                   22258088.0514
                                                                        48.7504
        32.7504
  -3217428.44147  -2478798.32444
                  23605913.2194                                   23605910.0944
                                                                        43.5004
        24.7504
  -3977657.68446  -3071436.03144
                  24569687.5634                                   24569683.4804
                                                                        40.5004
        27.7504
 -12044827.35947  -9364372.10945
                  22795255.6954                                   22795252.7624
                                                                        44.5004
        31.0004
   -390712.35946   -263181.44543
                  24156818.1954                                   24156816.2704
                                                                        38.5004
        19.0004
 09 10 12  0  2  0.0000000  0  9G02G04G05G13G29G23G30G10G25
 -12933987.92648 -10014243.85947
                  20393140.3284                                   20393134.5004
                                                                        52.0004
        43.0004
  -4086473.95348  -3154351.48046
                  21440909.3444                                   21440906.0164
                                                                        50.5004
        38.5004
  -6306813.51647  -4867041.28145
                  23600677.3524                                   23600674.1524
                                                                        43.0004
        31.0004
 -15103732.56248 -11695860.94546
                  21246235.7814                                   21246231.5234
                                                                        51.2504
        36.2504
 -12556824.32847  -9747193.05145
                  23114949.7504                                   23114946.7464
                                                                        44.2504
        31.7504
  -6364436.99648  -4917998.71545
                  22253138.6254                                   22253132.8284
                                                                        48.5004
        31.5004
  -3216781.73047  -2478294.37144
                  23606036.1174                                   23606033.6644
                                                                        42.2504
        25.0004
 -12233265.77747  -9511207.19945
                  22759398.0084                                   22759394.5744
                                                                        45.2504
        32.2504
   -562636.97746   -397148.72743
                  24124102.7274                                   24124100.0824
                                                                        39.7504
        20.7504
 09 10 12  0  2 30.0000000  0  9G02G04G05G13G29G23G30G10G25
 -13024264.64848 -10084589.34047
                  20375961.3364                                   20375955.9144
                                                                        52.7504
        42.7504
  -4096043.62948  -3161808.34846
                  21439088.0004                                   21439084.7814
                                                                        50.2504
        38.5004
  -6499209.93047  -5016960.55545
                  23564065.6884                                   23564062.5164
                                                                        45.2504
        33.0004
 -15211392.88348 -11779752.09846
                  21225749.0394                                   21225744.5784
                                                                        51.5004
        36.0004
 -12719142.82847  -9873675.07845
                  23084061.2194                                   23084058.6914
                                                                        45.5004
        32.0004
  -6389926.91448  -4937860.97345
                  22248288.2814                                   22248282.3484
                                                                        48.0004
        31.2504
  -3215690.42647  -2477444.00844
                  23606243.4614                                   23606241.1844
                                                                        42.0004
        24.7504
 -12421416.55947  -9657818.16045
                  22723594.2424                                   22723590.8834
                                                                        45.5004
        33.2504
   -734259.96146   -530880.73043
                  24091443.9774                                   24091441.2074
                                                                        41.0004
        21.7504
 09 10 12  0  3  0.0000000  0  9G02G04G05G13G29G23G30G10G25
 -13113945.39848 -10154470.43747
                  20358895.4304                                   20358890.0234
                                                                        52.7504
        43.0004
  -4105171.33248  -3168920.85546
                  21437351.1024                                   21437347.7154
                                                                        50.2504
        38.5004
  -6691402.09447  -5166720.68445
                  23527492.8364                                   23527489.3594
                                                                        45.7504
        32.0004
 -15318378.05948 -11863117.18446
                  21205390.1954                                   21205385.8674
                                                                        50.7504
        36.0004
 -12881035.02047  -9999824.85245
                  23053254.0784                                   23053251.6644
                                                                        44.5004
        32.0004
  -6414863.83648  -4957292.34845
                  22243542.6254                                   22243536.9104
                                                                        48.5004
        32.2504
  -3214150.83247  -2476244.36744
                  23606537.6024                                   23606534.0944
                                                                        43.2504
        25.5004
 -12609271.56647  -9804198.66045
                  22687846.1174                                   22687843.1054
                                                                        45.5004
        33.2504
   -905575.65246   -664373.77743
                  24058844.2974                                   24058840.8054
                                                                        41.7504
        22.5004
 09 10 12  0  3 30.0000000  0  9G02G04G05G13G29G23G30G10G25
 -13203022.45348 -10223881.12947
                  20341944.5704                                   20341938.8634
                                                                        52.2504
        42.7504
  -4113851.27748  -3175684.45346
                  21435699.2814                                   21435696.2894
                                                                        50.2504
        38.5004
  -6883381.42247  -5316314.95745
                  23490960.3914                                   23490957.2384
                                                                        46.0004
        31.5004
 -15424679.00448 -11945949.10246
                  21185162.0004                                   21185157.9384
                                                                        50.2504
        37.0004
 -13042492.52347 -10125635.85545
                  23022530.0784                                   23022527.2854
                                                                        45.0004
        31.5004
  -6439242.34448  -4976288.57845
                  22238903.5314                                   22238897.6414
                                                                        49.0004
        31.2504
  -3212160.04347  -2474693.16044
                  23606915.7974                                   23606912.9224
                                                                        43.2504
        25.2504
 -12796822.21147  -9950341.99245
                  22652156.7194                                   22652153.2734
                                                                        46.5004
        32.5004
  -1076571.29346   -797616.98843
                  24026303.9384                                   24026301.8204
                                                                        41.0004
        22.7504
 09 10 12  0  4  0.0000000  0  9G02G04G05G13G29G23G30G10G25
 -13291494.92648 -10292820.69947
                  20325108.8984                                   20325103.4024
                                                                        51.7504
        43.5004
  -4122085.46948  -3182100.71546
                  21434132.2814                                   21434129.4534
                                                                        51.0004
        39.0004
  -7075144.93447  -5465741.06245
                  23454468.3524                                   23454465.1454
                                                                        44.2504
        30.0004
 -15530295.57048 -12028247.75446
                  21165063.5474                                   21165059.5394
                                                                        50.7504
        36.7504
 -13203512.09447 -10251105.62945
                  22991888.8524                                   22991886.1054
                                                                        45.0004
        31.5004
  -6463064.21948  -4994851.05945
                  22234370.6564                                   22234364.4304
                                                                        48.0004
        31.7504
  -3209719.50847  -2472791.45344
                  23607380.1094                                   23607378.2034
                                                                        43.5004
        26.5004
 -12984065.45347 -10096245.80145
                  22616525.2664                                   22616521.9494
                                                                        46.2504
        31.7504
  -1247245.12547   -930609.37543
                  23993826.2584                                   23993822.8954
                                                                        42.7504
        22.5004
 09 10 12  0  4 30.0000000  0  9G02G04G05G13G29G23G30G10G25
 -13379368.83248 -10361293.88747
                  20308387.1884                                   20308381.2234
                                                                        52.5004
        43.2504
  -4129880.89148  -3188175.07446
                  21432649.0944                                   21432645.8404
                                                                        50.7504
        38.5004
  -7266697.36347  -5615002.71945
                  23418017.4694                                   23418014.1844
                                                                        43.5004
        31.2504
 -15635232.52048 -12110016.82446
                  21145095.0164                                   21145090.7544
                                                                        50.0004
        36.7504
 -13364098.55547 -10376238.02045
                  22961330.1954                                   22961327.3134
                                                                        45.7504
        31.5004
  -6486337.50047  -5012986.06245
                  22229942.2584                                   22229935.4414
                                                                        47.5004
        31.0004
  -3206839.89947  -2470547.65044
                  23607928.4694                                   23607925.9264
                                                                        45.5004
        28.0004
 -13171005.72347 -10241913.50845
                  22580951.8594                                   22580948.3554
                                                                        46.0004
        33.5004
  -1417599.98047  -1063353.30943
                  23961408.6724                                   23961404.9534
                                                                        42.5004
        21.5004
 09 10 12  0  5  0.0000000  0  9G02G04G05G13G29G23G30G10G25
 -11891222.63348  -9201699.46547
                  20591571.8054                                   20591566.3484
                                                                        52.7504
        43.5004
  -2561822.44948  -1966311.35546
                  21731040.8054                                   21731037.0664
                                                                        49.7504
        38.2504
  -5882612.07847  -4536494.68745
                  23681400.4694                                   23681396.9414
                                                                        44.7504
        32.2504
 -14164068.32848 -10963655.14546
                  21425047.7274                                   21425043.7544
                                                                        50.0004
        36.2504
 -11948824.64547  -9273427.16845
                  23230648.1644                                   23230645.1644
                                                                        45.0004
        31.5004
  -4933646.22748  -3803096.75445
                  22525408.8524                                   22525402.7154
                                                                        48.0004
        31.0004
  -1628105.02347  -1240364.66844
                  23908351.9694                                   23908349.0824
                                                                        46.0004
        27.0004
 -11782216.20747  -9159739.84045
                  22845229.7664                                   22845226.2234
                                                                        46.2504
        33.0004
    -12210.96946     31754.91043
                  24228844.9064                                   24228842.0474
                                                                        40.0004
        21.7504
 09 10 12  0  5 30.0000000  0  9G02G04G05G13G29G23G30G10G25
 -11977903.16048  -9269242.75047
                  20575077.0004                                   20575071.2344
                                                                        52.5004
        43.2504
  -2568753.43748  -1971712.13746
                  21729721.6174                                   21729718.5984
                                                                        50.0004
        38.5004
  -6073741.37547  -4685426.61345
                  23645029.9454                                   23645026.5274
                                                                        45.5004
        33.7504
 -14267649.60548 -11044367.86746
                  21405337.3364                                   21405333.5234
                                                                        50.2504
        36.2504
 -12108541.19947  -9397881.60945
                  23200254.7424                                   23200252.1414
                                                                        43.7504
        31.5004
  -4955834.68048  -3820386.44945
                  22521186.7114                                   22521180.6294
                                                                        48.0004
        31.7504
  -1624359.84047  -1237446.33644
                  23909064.9384                                   23909061.7704
                                                                        45.2504
        27.5004
 -11968549.39847  -9304934.52345
                  22809771.6644                                   22809768.0354
                                                                        46.5004
        32.7504
   -181926.46146   -100490.75443
                  24196548.5864                                   24196546.5944
                                                                        39.0004
        20.5004
 09 10 12  0  6  0.0000000  0  9G02G04G05G13G29G23G30G10G25
 -12063987.69948  -9336321.61747
                  20558695.7194                                   20558690.5514
                                                                        52.7504
        43.0004
  -2575255.92648  -1976779.03546
                  21728484.4614                                   21728481.3244
                                                                        51.0004
        38.2504
  -6264657.40647  -4834192.30145
                  23608699.9534                                   23608696.5164
                                                                        44.7504
        33.5004
 -14370553.61348 -11124552.83646
                  21385755.1254                                   21385751.7934
                                                                        50.7504
        37.0004
 -12267820.85547  -9521995.57845
                  23169945.1094                                   23169942.9654
                                                                        43.7504
        32.7504
  -4977484.94147  -3837256.77345
                  22517066.8834                                   22517060.9304
                                                                        47.0004
        31.0004
  -1620188.16847  -1234195.69944
                  23909858.2344                                   23909855.8204
                                                                        44.5004
        28.0004
 -12154576.98447  -9449891.07845
                  22774371.3984                                   22774368.3404
                                                                        46.5004
        33.0004
   -351319.52346   -232485.38743
                  24164314.1804                                   24164311.7504
                                                                        40.2504
        21.0004
 09 10 12  0  6 30.0000000  0  9G02G04G05G13G29G23G30G10G25
 -12149478.58248  -9402937.89847
                  20542427.2194                                   20542421.7854
                                                                        52.5004
        43.2504
  -2581334.02348  -1981515.20346
                  21727327.7974                                   21727324.5004
                                                                        51.0004
        38.5004
  -6455360.89547  -4982792.40645
                  23572409.7424                                   23572406.2274
                                                                        45.2504
        32.0004
 -14472781.85948 -11204211.20746
                  21366302.0944                                   21366297.7074
                                                                        50.2504
        37.2504
 -12426663.95747  -9645769.37145
                  23139717.9224                                   23139715.5664
                                                                        43.2504
        32.7504
  -4998601.31647  -3853711.08645
                  22513048.1174                                   22513042.7464
                                                                        47.2504
        31.7504
  -1615595.51347  -1230616.98044
                  23910731.6804                                   23910729.7704
                                                                        44.2504
        26.0004
 -12340299.41847  -9594609.84845
                  22739029.8984                                   22739026.5314
                                                                        46.5004
        32.2504
   -520388.77347   -364227.45343
                  24132141.8444                                   24132138.7074
                                                                        42.0004
        21.5004
 09 10 12  0  7  0.0000000  0  9G02G04G05G13G29G23G30G10G25
 -12234374.42248  -9469090.48047
                  20526272.3204                                   20526266.5594
                                                                        52.7504
        43.5004
  -2586989.62148  -1985922.17646
                  21726251.5234                                   21726248.5664
                                                                        51.0004
        38.7504
  -6645848.71547  -5131224.43445
                  23536160.9384                                   23536157.5234
                                                                        45.5004
        31.2504
 -14574333.64848 -11283342.46146
                  21346977.3914                                   21346973.3014
                                                                        50.0004
        37.0004
 -12585066.97747  -9769200.26445
                  23109574.9774                                   23109572.4844
                                                                        43.5004
        32.2504
  -5019185.89147  -3869751.00445
                  22509131.5234                                   22509125.6024
                                                                        46.5004
        31.5004
  -1610583.89147  -1226711.84444
                  23911685.5084                                   23911683.9224
                                                                        44.0004
        25.7504
 -12525713.42647  -9739088.27045
                  22703746.8834                                   22703743.5784
                                                                        47.2504
        33.2504
   -689132.07847   -495715.61343
                  24100031.1414                                   24100027.6094
                                                                        42.5004
        23.7504
 09 10 12  0  7 30.0000000  0  9G02G04G05G13G29G23G30G10G25
 -12318674.99648  -9534779.23047
                  20510230.4144                                   20510225.0354
                                                                        53.0004
        42.7504
  -2592224.50448  -1990001.32046
                  21725255.2504                                   21725252.5314
                                                                        49.5004
        38.2504
  -6836119.25047  -5279487.14845
                  23499953.8674                                   23499949.8164
                                                                        44.5004
        31.2504
 -14675207.85548 -11361945.70746
                  21327781.5314                                   21327777.7464
                                                                        49.2504
        37.2504
 -12743027.51247  -9892286.33645
                  23079516.2344                                   23079513.7814
                                                                        43.7504
        33.5004
  -5039240.05947  -3885377.59445
                  22505315.3524                                   22505309.2114
                                                                        47.5004
        32.0004
  -1605156.83647  -1222483.01644
                  23912718.3524                                   23912716.7344
                                                                        43.0004
        24.7504
 -12710817.03947  -9883324.83245
                  22668522.2664                                   22668519.0514
                                                                        46.7504
        33.5004
   -857546.48447   -626947.63744
                  24067983.1644                                   24067979.8794
                                                                        44.0004
        24.5004
 09 10 12  0  8  0.0000000  0  9G02G04G05G13G29G23G30G10G25
 -12402376.98448  -9600001.55947
                  20494302.5554                                   20494296.7934
                                                                        53.0004
        43.2504
  -2597036.94948  -1993751.27746
                  21724339.2194                                   21724336.1604
                                                                        50.5004
        37.7504
  -7026167.48847  -5427576.66845
                  23463788.6094                                   23463785.0474
                                                                        46.2504
        31.0004
 -14775400.80148 -11440018.12946
                  21308715.3054                                   21308711.4064
                                                                        50.0004
        36.5004
 -12900540.77047 -10015023.86345
                  23049542.2974                                   23049539.5664
                                                                        44.0004
        33.2504
  -5058763.27747  -3900590.48845
                  22501600.3444                                   22501594.1914
                                                                        47.2504
        32.0004
  -1599315.08247  -1217931.05143
                  23913829.6884                                   23913827.7344
                                                                        42.7504
        22.5004
 -12895604.85947 -10027315.30545
                  22633358.5634                                   22633355.2504
                                                                        46.7504
        33.0004
  -1025624.93047   -757917.46143
                  24035998.4224                                   24035995.1804
                                                                        42.2504
        22.5004
 09 10 12  0  8 30.0000000  0  9G02G04G05G13G29G23G30G10G25
 -12485484.39148  -9664760.57847
                  20478487.6804                                   20478482.0164
                                                                        53.0004
        42.5004
  -2601433.70348  -1997177.30146
                  21723502.7814                                   21723499.6054
                                                                        50.2504
        38.0004
  -7215995.82447  -5575494.80945
                  23427665.8364                                   23427662.3834
                                                                        45.0004
        33.2504
 -14874916.66848 -11517562.93746
                  21289778.2114                                   21289773.9924
                                                                        50.0004
        36.2504
 -13057608.42647 -10137414.19545
                  23019653.3364                                   23019650.6644
                                                                        45.0004
        32.7504
  -5077761.99648  -3915394.67645
                  22497984.8204                                   22497979.0354
                                                                        48.2504
        31.0004
  -1593065.30147  -1213061.07043
                  23915018.8284                                   23915016.2274
                                                                        42.7504
        22.7504
 -13080079.37947 -10171061.68445
                  22598254.1644                                   22598251.2814
                                                                        47.0004
        33.0004
  -1193370.77846   -888628.34943
                  24004076.4694                                   24004074.0234
                                                                        40.2504
        22.5004
 09 10 12  0  9  0.0000000  0  9G02G04G05G13G29G23G30G10G25
 -12567996.93748  -9729056.06647
                  20462785.8914                                   20462780.1994
                                                                        52.7504
        43.0004
  -2605416.37948  -2000280.69546
                  21722745.3594                                   21722742.0044
                                                                        50.5004
        38.0004
  -7405602.04747  -5723239.82445
                  23391585.0234                                   23391581.4144
                                                                        46.0004
        34.0004
 -14973754.74648 -11594579.60946
                  21270970.0474                                   21270965.7664
                                                                        49.5004
        37.0004
 -13214228.60247 -10259455.85545
                  22989849.4454                                   22989846.5004
                                                                        44.0004
        33.2504
  -5096238.70347  -3929792.09845
                  22494468.6644                                   22494462.6764
                                                                        47.0004
        30.0004
  -1586411.17247  -1207876.04743
                  23916285.6254                                   23916282.0234
                                                                        44.0004
        23.2504
 -13264237.99647 -10314561.89545
                  22563210.2194                                   22563206.7154
                                                                        47.0004
        33.5004
  -1360779.90246  -1019076.57043
                  23972219.3134                                   23972216.7974
                                                                        40.5004
        22.5004
 09 10 12  0  9 30.0000000  0  9G02G04G05G13G29G23G30G10G25
 -12649916.37148  -9792889.41047
                  20447197.0394                                   20447191.8204
                                                                        52.5004
        43.0004
  -2608989.01648  -2003064.55946
                  21722065.1334                                   21722062.0084
                                                                        50.0004
        38.0004
  -7594986.16047  -5870811.84045
                  23355546.1724                                   23355543.0354
                                                                        46.2504
        34.0004
 -15071916.33248 -11671069.15246
                  21252290.3134                                   21252285.9844
                                                                        49.5004
        36.5004
 -13370400.25047 -10381148.03545
                  22960131.1094                                   22960127.9614
                                                                        44.2504
        33.2504
  -5114196.78547  -3943785.39545
                  22491051.4454                                   22491045.1884
                                                                        47.5004
        30.5004
  -1579356.85547  -1202379.19944
                  23917628.2274                                   23917625.3754
                                                                        45.0004
        25.5004
 -13448080.86747 -10457816.05545
                  22528226.2274                                   22528222.5904
                                                                        47.2504
        33.7504
  -1527852.53146  -1149262.84043
                  23940426.5084                                   23940423.8874
                                                                        41.0004
        22.2504
 09 10 12  0 10  0.0000000  0  9G02G04G05G13G29G23G30G10G25
 -12731241.02748  -9856259.28547
                  20431721.4774                                   20431716.2584
                                                                        52.7504
        42.5004
  -2612152.38748  -2005529.52346
                  21721462.7894                                   21721459.6524
                                                                        50.0004
        37.7504
  -7784145.08647  -6018208.39545
                  23319550.6024                                   23319546.4804
                                                                        47.0004
        33.2504
 -15169399.89848 -11747030.43746
                  21233739.8674                                   21233735.9454
                                                                        49.5004
        36.5004
 -13526120.19947 -10502488.25045
                  22930498.7274                                   22930495.5784
                                                                        44.5004
        33.5004
  -5131637.82047  -3957375.81245
                  22487732.3674                                   22487726.8014
                                                                        47.0004
        31.0004
  -1571904.67647  -1196572.34844
                  23919046.9844                                   23919043.6334
                                                                        44.2504
        27.0004
 -13631604.68047 -10600821.62945
                  22493302.1414                                   22493298.7384
                                                                        47.0004
        33.7504
  -1694584.60247  -1279183.71543
                  23908698.4384                                   23908695.3364
                                                                        43.0004
        22.0004
 09 10 12  0 10 30.0000000  0  9G02G04G05G13G29G23G30G10G25
 -12811968.93448  -9919164.14547
                  20416359.7894                                   20416354.1454
                                                                        52.5004
        42.7504
  -2614906.27048  -2007675.43446
                  21720939.1094                                   21720936.0274
                                                                        50.0004
        37.5004
  -7973075.12547  -6165426.60945
                  23283598.3524                                   23283594.8834
                                                                        45.7504
        33.0004
 -15266202.84448 -11822461.29346
                  21215319.0474                                   21215314.9734
                                                                        49.2504
        36.2504
 -13681384.64847 -10623473.51245
                  22900952.5394                                   22900949.4224
                                                                        44.5004
        31.7504
  -5148561.73847  -3970563.27745
                  22484512.1254                                   22484505.6524
                                                                        46.5004
        30.7504
  -1564056.75847  -1190457.25444
                  23920540.1484                                   23920537.4654
                                                                        43.5004
        27.0004
 -13814805.59847 -10743575.57045
                  22458440.3834                                   22458437.4104
                                                                        45.5004
        33.2504
  -1860971.48447  -1408835.85543
                  23877036.7114                                   23877032.7274
                                                                        42.7504
        20.5004
 09 10 12  0 11  0.0000000  0  9G02G04G05G13G29G23G30G10G25
 -12892102.21548  -9981605.62547
                  20401110.7974                                   20401105.2194
                                                                        52.0004
        42.7504
  -2617255.71948  -2009506.18446
                  21720492.0394                                   21720488.8594
                                                                        49.7504
        37.2504
  -8161776.70347  -6312466.72745
                  23247689.0704                                   23247686.0944
                                                                        45.0004
        31.7504
 -15362327.75048 -11897363.78546
                  21197026.8134                                   21197022.9884
                                                                        49.2504
        37.0004
 -13836193.21947 -10744103.53145
                  22871493.6644                                   22871490.7584
                                                                        44.2504
        32.7504
  -5164973.39147  -3983351.56645
                  22481389.1954                                   22481382.9734
                                                                        46.2504
        30.5004
  -1555817.55547  -1184037.16844
                  23922107.7194                                   23922105.3524
                                                                        42.2504
        26.5004
 -13997683.32847 -10886077.66045
                  22423639.9924                                   22423637.0554
                                                                        46.0004
        34.0004
  -2027013.13347  -1538219.00843
                  23845439.5004                                   23845435.7304
                                                                        43.0004
        22.2504
 09 10 12  0 11 30.0000000  0  9G02G04G05G13G29G23G30G10G25
 -12971640.35548 -10043583.39847
                  20385975.0784                                   20385969.8834
                                                                        52.5004
        42.5004
  -2619201.37948  -2011022.27046
                  21720121.8204                                   21720118.3014
                                                                        48.2504
        37.5004
  -8350247.52047  -6459327.07445
                  23211824.5474                                   23211820.7854
                                                                        45.7504
        32.5004
 -15457773.40248 -11971737.02346
                  21178864.4144                                   21178860.1954
                                                                        49.0004
        37.0004
 -13990543.54347 -10864376.46145
                  22842121.2274                                   22842118.2934
                                                                        44.2504
        32.2504
  -5180874.37947  -3995741.93445
                  22478363.0314                                   22478357.2304
                                                                        47.0004
        30.7504
  -1547190.08646  -1177314.47344
                  23923749.3914                                   23923747.6524
                                                                        41.0004
        26.5004
 -14180235.30547 -11028325.95345
                  22388901.7664                                   22388898.1884
                                                                        46.0004
        35.0004
  -2192705.58247  -1667329.91443
                  23813909.3984                                   23813905.9144
                                                                        42.7504
        22.5004
 09 10 12  0 12  0.0000000  0  9G02G04G05G13G29G23G30G10G25
 -13050583.46148 -10105097.53947
                  20370952.6564                                   20370946.9144
                                                                        52.0004
        43.0004
  -2620745.85548  -2012225.75846
                  21719827.9614                                   21719825.0824
                                                                        48.7504
        37.5004
  -8538485.00847  -6606005.60245
                  23176004.3834                                   23176000.5784
                                                                        47.0004
        33.5004
 -15552540.07048 -12045581.20746
                  21160830.4224                                   21160826.6844
                                                                        48.5004
        36.7504
 -14144433.33247 -10984290.52745
                  22812837.5864                                   22812834.5004
                                                                        45.0004
        33.5004
  -5196267.34047  -4007736.43045
                  22475434.2194                                   22475428.0274
                                                                        45.5004
        31.5004
  -1538178.06246  -1170292.16043
                  23925463.9064                                   23925462.2344
                                                                        40.7504
        23.0004
 -14362459.82447 -11170319.07845
                  22354225.5864                                   22354221.9344
                                                                        46.5004
        34.5004
  -2358047.07046  -1796167.45743
                  23782446.2584                                   23782442.6954
                                                                        40.2504
        22.5004
 09 10 12  0 12 30.0000000  0  9G02G04G05G13G29G23G30G10G25
 -13128932.99648 -10166149.09047
                  20356043.2814                                   20356037.8014
                                                                        51.7504
        43.2504
  -2621892.88748  -2013119.55546
                  21719609.5784                                   21719606.8404
                                                                        50.5004
        37.2504
  -8726489.36747  -6752502.49245
                  23140228.3594                                   23140224.6294
                                                                        47.7504
        33.5004
 -15646628.56648 -12118896.85546
                  21142926.4144                                   21142922.0664
                                                                        49.5004
        36.5004
 -14297861.64147 -11103845.02745
                  22783640.5554                                   22783637.5274
                                                                        44.5004
        33.5004
  -5211156.15247  -4019338.10945
                  22472600.8834                                   22472594.6374
                                                                        45.7504
        31.2504
  -1528785.87146  -1162973.58243
                  23927251.4304                                   23927249.6334
                                                                        40.2504
        23.7504
 -14544356.08647 -11312056.38345
                  22319612.1484                                   22319608.1844
                                                                        46.7504
        34.5004
  -2523036.62546  -1924730.71143
                  23751048.5864                                   23751046.2624
                                                                        40.2504
        22.5004
 09 10 12  0 13  0.0000000  0  9G02G04G05G13G29G23G30G10G25
 -13206688.74648 -10226738.00047
                  20341246.5864                                   20341241.2544
                                                                        52.0004
        42.7504
  -2622644.29348  -2013705.07846
                  21719466.6414                                   21719463.7304
                                                                        49.7504
        37.0004
  -8914258.84447  -6898816.34045
                  23104496.4064                                   23104493.1254
                                                                        46.5004
        33.7504
 -15740038.81648 -12191684.06246
                  21125151.1094                                   21125146.8094
                                                                        49.5004
        37.0004
 -14450827.04747 -11223038.84845
                  22754532.6884                                   22754529.5744
                                                                        44.7504
        34.0004
  -5225542.82447  -4030548.50045
                  22469863.3674                                   22469857.0664
                                                                        47.2504
        31.0004
  -1519017.46546  -1155361.81244
                  23929110.4534                                   23929107.9454
                                                                        41.5004
        24.2504
 -14725922.47347 -11453536.68745
                  22285060.5704                                   22285057.5354
                                                                        45.7504
        33.7504
  -2687671.10546  -2053017.21143
                  23719720.0314                                   23719717.3954
                                                                        40.0004
        23.7504
 09 10 12  0 13 30.0000000  0  9G02G04G05G13G29G23G30G10G25
 -13283850.83248 -10286864.29347
                  20326563.2814                                   20326557.9024
                                                                        52.0004
        43.2504
  -2623002.25047  -2013984.02046
                  21719398.5164                                   21719395.4694
                                                                        47.5004
        37.0004
  -9101791.79747  -7044945.86345
                  23068810.3444                                   23068807.2894
                                                                        46.7504
        33.7504
 -15832770.96548 -12263942.85946
                  21107504.6564                                   21107500.2934
                                                                        48.7504
        36.5004
 -14603327.23447 -11341870.16445
                  22725512.6644                                   22725510.0984
                                                                        44.7504
        34.0004
  -5239430.36747  -4041369.96545
                  22467220.0394                                   22467214.3284
                                                                        46.7504
        30.5004
  -1508875.74247  -1147459.07443
                  23931040.2814                                   23931037.8554
                                                                        42.5004
        23.7504
 -14907156.82847 -11594758.24245
                  22250572.6884                                   22250569.8284
                                                                        45.7504
        34.5004
  -2851948.47346  -2181025.46143
                  23688459.5164                                   23688456.4264
                                                                        39.5004
        22.7504
 09 10 12  0 14  0.0000000  0  9G02G04G05G13G29G23G30G10G25
 -13360418.43048 -10346527.35547
                  20311993.0704                                   20311987.3634
                                                                        51.5004
        43.0004
  -2622968.28948  -2013957.55546
                  21719405.1724                                   21719401.9264
                                                                        49.7504
        37.0004
  -9289084.89147  -7190888.48445
                  23033169.2504                                   23033166.5514
                                                                        46.7504
        33.7504
 -15924824.14548 -12335672.57846
                  21089987.1414                                   21089983.2934
                                                                        49.7504
        36.2504
 -14755358.78947 -11460336.25045
                  22696582.4064                                   22696579.4064
                                                                        46.7504
        34.7504
  -5252820.31247  -4051803.69945
                  22464671.8444                                   22464666.5204
                                                                        46.0004
        30.0004
  -1498363.03547  -1139267.34443
                  23933040.8054                                   23933037.8914
                                                                        42.5004
        23.5004
 -15088056.05147 -11735718.66045
                  22216149.0864                                   22216145.5664
                                                                        46.5004
        35.2504
  -3015865.60546  -2308753.04043
                  23657267.2584                                   23657263.9654
                                                                        40.2504
        23.0004
 09 10 12  0 14 30.0000000  0  9G02G04G05G13G29G23G30G10G25
 -11860971.93448  -9178127.46947
                  20597328.4454                                   20597322.8984
                                                                        51.5004
        43.5004
  -1047126.94548   -786029.21946
                  22019277.7194                                   22019274.4414
                                                                        48.7504
        37.0004
  -7900713.57848  -6109040.66845
                  23297368.1484                                   23297364.6054
                                                                        48.0004
        34.0004
 -14440777.61748 -11179272.67246
                  21372392.1724                                   21372388.2114
                                                                        49.7504
        36.7504
 -13331498.40647 -10350834.67645
                  22967533.9694                                   22967530.7154
                                                                        46.2504
        34.2504
  -3690296.65647  -2834252.79345
                  22762010.7894                                   22762004.7814
                                                                        46.5004
        30.0004
     87933.71947     96808.15643
                  24234903.3754                                   24234900.1954
                                                                        43.0004
        23.2504
 -13693195.49247 -10648814.32445
