     2.11           OBSERVATION DATA    G (GPS)             RINEX VERSION / TYPE
teqc  2019Feb25                         20221121 12:28:30UTCPGM / RUN BY / DATE
OSX ker:10.11.6|Core i5|gcc 4.3 -m64|OSX ker:10.10+|=+      COMMENT
BIT 2 OF LLI FLAGS DATA COLLECTED UNDER A/S CONDITION       COMMENT
04712920                                                    MARKER NAME
2920                                                        MARKER NUMBER
-Unknown-           -Unknown-                               OBSERVER / AGENCY
0220400471          TRIMBLE R7          2.30                REC # / TYPE / VERS
-Unknown-           TRM39105.00     NONE                    ANT # / TYPE
  1449458.9120 -1709242.1496  5952441.0231                  APPROX POSITION XYZ
        0.0000        0.0000        0.0000                  ANTENNA: DELTA H/E/N
     1     1                                                WAVELENGTH FACT L1/2
    20    L1    L2    L5    L6    L7    L8    C1    P1    C2# / TYPES OF OBSERV
          P2    C5    C6    C7    C8    S1    S2    S5    S6# / TYPES OF OBSERV
          S7    S8                                          # / TYPES OF OBSERV
    30.0000                                                 INTERVAL
    15                                                      LEAP SECONDS
Forced Modulo Decimation to 30 seconds                      COMMENT
 SNR is mapped to RINEX snr flag value [0-9]                COMMENT
  L1 & L2: min(max(int(snr_dBHz/6), 0), 9)                  COMMENT
teqc edited: Beidou # 1 - 37 excluded                       COMMENT
  2009    10    19     0     0    0.0000000     GPS         TIME OF FIRST OBS
                                                            END OF HEADER
 09 10 19  0  0  0.0000000  0  8G02G04G05G10G25G13G23G29
  -9812311.87548  -7591436.96547
                  20671061.1024                                   20671055.2974
                                                                        52.5004
        42.0004
  -1751866.28147  -1347054.96545
                  22520491.8444                                   22520488.5234
                                                                        47.7504
        34.7504
 -17259305.55148 -13436740.45746
                  22721032.5474                                   22721028.5664
                                                                        48.5004
        37.2504
 -19472609.05948 -15088214.15246
                  21909576.5944                                   21909572.9804
                                                                        49.2504
        37.7504
  -9565666.32846  -7410592.28544
                  23509469.7814                                   23509465.8954
                                                                        41.2504
        25.5004
 -11465613.11348  -8872163.35546
                  21374440.0784                                   21374435.6484
                                                                        50.7504
        36.0004
  -3455591.63347  -2666480.97744
                  23148090.1484                                   23148084.1914
                                                                        46.0004
        27.5004
 -16917996.89147 -13105593.80945
                  22616147.9534                                   22616143.9574
                                                                        47.2504
        35.7504
 09 10 19  0  0 30.0000000  0  8G02G04G05G10G25G13G23G29
  -9877874.30148  -7642524.56647
                  20658584.9924                                   20658578.9774
                                                                        52.2504
        42.5004
  -1746925.46948  -1343205.11745
                  22521431.5084                                   22521429.0514
                                                                        48.0004
        34.0004
 -17444553.07048 -13581089.14146
                  22685781.1954                                   22685777.2704
                                                                        48.5004
        37.5004
 -19647362.39848 -15224385.59446
                  21876321.8674                                   21876318.4414
                                                                        50.0004
        37.2504
  -9723913.04747  -7533901.43744
                  23479356.2974                                   23479351.7274
                                                                        42.5004
        25.2504
 -11543519.41048  -8932869.55545
                  21359615.4924                                   21359611.2504
                                                                        50.5004
        35.5004
  -3462081.19947  -2671537.77344
                  23146855.4224                                   23146849.2894
                                                                        45.2504
        28.5004
 -17060956.27048 -13216990.77346
                  22588943.5704                                   22588939.8444
                                                                        48.2504
        36.2504
 09 10 19  0  1  0.0000000  0  8G02G04G05G10G25G13G23G29
  -9942845.94948  -7693151.87947
                  20646221.3524                                   20646215.3834
                                                                        52.5004
        42.2504
  -1741657.25847  -1339100.11745
                  22522434.3914                                   22522431.2154
                                                                        47.5004
        34.0004
 -17629494.29348 -13725199.20346
                  22650587.9774                                   22650584.2424
                                                                        48.5004
        37.5004
 -19821704.61348 -15360236.64146
                  21843145.7194                                   21843142.2934
                                                                        48.5004
        37.7504
  -9881717.57847  -7656866.05544
                  23449327.5084                                   23449323.3054
                                                                        42.7504
        25.5004
 -11620749.98048  -8993049.17646
                  21344918.8134                                   21344914.6254
                                                                        50.5004
        36.2504
  -3468143.98047  -2676262.00444
                  23145701.6804                                   23145695.9224
                                                                        44.5004
        29.5004
 -17203379.08647 -13327969.54346
                  22561840.9924                                   22561837.8484
                                                                        46.0004
        36.5004
 09 10 19  0  1 30.0000000  0  8G02G04G05G10G25G13G23G29
 -10007228.21948  -7743319.87547
                  20633969.8754                                   20633964.0274
                                                                        52.0004
        42.0004
  -1736064.70347  -1334742.37945
                  22523499.2504                                   22523495.5944
                                                                        47.7504
        34.0004
 -17814128.63748 -13869070.06246
                  22615453.2034                                   22615449.5704
                                                                        48.5004
        37.7504
 -19995635.37148 -15495767.10546
                  21810047.7504                                   21810044.1914
                                                                        49.2504
        38.2504
 -10039078.28147  -7779484.75444
                  23419382.5784                                   23419378.6644
                                                                        42.5004
        26.0004
 -11697306.59848  -9052703.71146
                  21330350.3284                                   21330346.4064
                                                                        50.7504
        36.7504
  -3473783.60947  -2680656.52744
                  23144628.0864                                   23144622.8674
                                                                        44.2504
        28.0004
 -17345265.25447 -13438530.14845
                  22534841.2894                                   22534837.9104
                                                                        47.7504
        35.5004
 09 10 19  0  2  0.0000000  0  8G02G04G05G10G25G13G23G29
 -10071023.27348  -7793030.23047
                  20621829.9844                                   20621824.4064
                                                                        52.0004
        42.5004
  -1730152.40648  -1330135.41445
                  22524623.9304                                   22524620.6644
                                                                        48.0004
        34.0004
 -17998455.32048 -14012701.22346
                  22580377.0004                                   22580373.8054
                                                                        48.5004
        37.0004
 -20169153.95348 -15630976.36346
                  21777028.4224                                   21777024.9264
                                                                        49.7504
        37.5004
 -10195995.62947  -7901757.97344
                  23389521.9224                                   23389518.4304
                                                                        42.0004
        26.0004
 -11773192.31248  -9111835.55146
                  21315910.0394                                   21315906.2384
                                                                        50.7504
        36.2504
  -3479005.14547  -2684725.29744
                  23143634.8204                                   23143628.5634
                                                                        43.0004
        27.0004
 -17486613.99247 -13548671.98046
                  22507943.6564                                   22507940.1374
                                                                        47.7504
        36.7504
 09 10 19  0  2 30.0000000  0  8G02G04G05G10G25G13G23G29
 -10134231.68048  -7842283.52047
                  20609801.5944                                   20609796.0824
                                                                        51.5004
        42.2504
  -1723921.73847  -1325280.47345
                  22525809.4304                                   22525806.4144
                                                                        47.2504
        33.7504
 -18182473.08248 -14156091.66846
                  22545359.4304                                   22545355.8094
                                                                        48.2504
        37.2504
 -20342258.90248 -15765863.29746
                  21744087.6414                                   21744083.8404
                                                                        49.5004
        38.0004
 -10352466.02346  -8023682.88344
                  23359745.9304                                   23359743.0474
                                                                        41.0004
        26.0004
 -11848406.56648  -9170444.16446
                  21301597.2194                                   21301592.8054
                                                                        50.0004
        36.2504
  -3483809.55947  -2688469.02344
                  23142720.0704                                   23142714.3594
                                                                        43.5004
        27.2504
 -17627424.10248 -13658394.24646
                  22481148.3914                                   22481145.2664
                                                                        48.0004
        37.2504
 09 10 19  0  3  0.0000000  0  8G02G04G05G10G25G13G23G29
 -10196853.94948  -7891080.01247
                  20597885.0704                                   20597879.3204
                                                                        51.0004
        42.2504
  -1717375.04747  -1320179.11345
                  22527055.3204                                   22527051.8054
                                                                        47.2504
        33.2504
 -18366179.77047 -14299239.70346
                  22510401.1254                                   22510397.3404
                                                                        47.2504
        37.2504
 -20514947.77048 -15900426.04346
                  21711225.9614                                   21711222.3094
                                                                        49.7504
        37.7504
 -10508488.21946  -8145258.53944
                  23330056.1954                                   23330052.9734
                                                                        39.5004
        25.5004
 -11922950.78948  -9228530.68446
                  21287412.0704                                   21287407.7384
                                                                        49.5004
        36.0004
  -3488200.19947  -2691890.31644
                  23141885.3054                                   23141878.8914
                                                                        44.2504
        25.7504
 -17767692.91048 -13767694.68446
                  22454456.1804                                   22454452.8014
                                                                        48.0004
        36.7504
 09 10 19  0  3 30.0000000  0  8G02G04G05G10G25G13G23G29
 -10258887.35948  -7939417.54747
                  20586080.3204                                   20586074.5664
                                                                        50.7504
        42.0004
  -1710511.18447  -1314830.65645
                  22528361.4224                                   22528358.5944
                                                                        47.2504
        34.2504
 -18549570.42648 -14442141.46546
                  22475503.4144                                   22475499.0084
                                                                        48.2504
        37.2504
 -20687215.48048 -16034660.59046
                  21678444.6094                                   21678440.9844
                                                                        49.0004
        38.2504
 -10664056.14546  -8266480.25044
                  23300452.5164                                   23300449.3954
                                                                        40.0004
        26.7504
 -11996822.37548  -9286093.07046
                  21273355.0234                                   21273350.7894
                                                                        50.0004
        36.0004
  -3492176.39547  -2694988.64544
                  23141128.3914                                   23141122.2234
                                                                        44.5004
        27.5004
 -17907416.12148 -13876569.89846
                  22427867.7034                                   22427864.1414
                                                                        48.0004
        36.5004
 09 10 19  0  4  0.0000000  0  8G02G04G05G10G25G13G23G29
 -10320338.09448  -7987301.33647
                  20574386.8284                                   20574380.8754
                                                                        51.0004
        42.2504
  -1703337.56647  -1309240.87545
                  22529726.3984                                   22529723.6564
                                                                        47.5004
        34.0004
 -18732647.96947 -14584799.29746
                  22440664.4064                                   22440660.5864
                                                                        47.5004
        37.2504
 -20859065.50048 -16168569.72346
                  21645742.3524                                   21645738.8914
                                                                        48.7504
        37.5004
 -10819172.96547  -8387350.56644
                  23270935.3054                                   23270931.2974
                                                                        42.0004
        28.2504
 -12070027.06248  -9343135.82046
                  21259425.0004                                   21259420.6334
                                                                        50.5004
        36.5004
  -3495745.65647  -2697769.87144
                  23140449.5234                                   23140443.0274
                                                                        44.5004
        27.5004
 -18046597.13348 -13985022.58246
                  22401382.5004                                   22401378.3794
                                                                        48.0004
        36.0004
 09 10 19  0  4 30.0000000  0  8G02G04G05G10G25G13G23G29
 -10381205.36748  -8034730.41447
                  20562804.2734                                   20562798.2274
                                                                        51.2504
        42.2504
  -1695854.94948  -1303410.19545
                  22531150.7274                                   22531147.4384
                                                                        48.0004
        34.0004
 -18915409.62948 -14727210.98046
                  22405886.0704                                   22405882.5634
                                                                        48.2504
        38.0004
 -21030494.75048 -16302150.88746
                  21613120.4454                                   21613116.8834
                                                                        49.0004
        38.5004
 -10973835.02747  -8507866.51244
                  23241504.3054                                   23241500.4734
                                                                        42.5004
        27.0004
 -12142564.13748  -9399658.14846
                  21245621.4304                                   21245617.2584
                                                                        51.0004
        36.2504
  -3498909.58247  -2700235.25844
                  23139846.8594                                   23139841.3914
                                                                        43.7504
        29.0004
 -18185233.20748 -14093050.70346
                  22375000.6804                                   22374997.0124
                                                                        48.0004
        36.5004
 09 10 19  0  5  0.0000000  0  8G02G04G05G10G25G13G23G29
 -10441490.73048  -8081705.96947
                  20551332.2424                                   20551326.1214
                                                                        51.0004
        42.5004
  -1688066.84448  -1297341.54345
                  22532632.5474                                   22532629.4104
                                                                        48.0004
        33.2504
 -19097853.64548 -14869375.09446
                  22371168.5944                                   22371164.8404
                                                                        48.0004
        38.2504
 -21201501.97348 -16435403.22346
                  21580578.6564                                   21580575.1024
                                                                        49.0004
        37.5004
 -11128041.11747  -8628026.94544
                  23212159.7424                                   23212154.8634
                                                                        44.5004
        25.0004
 -12214436.19548  -9455662.37946
                  21231944.7194                                   21231940.1884
                                                                        50.7504
        36.2504
  -3501672.05547  -2702387.85244
                  23139321.5554                                   23139315.4344
                                                                        42.2504
        27.2504
 -18323322.69148 -14200652.85246
                  22348723.3754                                   22348719.6214
                                                                        48.5004
        36.7504
 09 10 19  0  5 30.0000000  0  8G02G04G05G10G25G13G23G29
 -10501192.62548  -8128226.97747
                  20539971.3204                                   20539965.3404
                                                                        52.0004
        42.7504
  -1679972.71547  -1291034.51245
                  22534172.6804                                   22534169.3164
                                                                        47.5004
        33.5004
 -19279976.58248 -15011289.05946
                  22336511.8754                                   22336508.2974
                                                                        48.7504
        38.5004
 -21372083.45748 -16568323.85946
                  21548118.0084                                   21548114.8484
                                                                        49.5004
        38.0004
 -11281786.51647  -8747828.41844
                  23182901.8754                                   23182897.9184
                                                                        43.5004
        27.0004
 -12285640.79748  -9511146.40646
                  21218394.7274                                   21218390.5664
                                                                        50.2504
        36.2504
  -3504033.32447  -2704227.84444
                  23138871.8674                                   23138865.9964
                                                                        42.5004
        27.0004
 -18460862.64848 -14307826.74646
                  22322550.0704                                   22322546.4344
                                                                        48.7504
        37.2504
 09 10 19  0  6  0.0000000  0  8G02G04G05G10G25G13G23G29
 -10560315.18748  -8174296.70346
                  20528721.1254                                   20528714.9694
                                                                        50.7504
        41.7504
  -1671578.02347  -1284493.21545
                  22535770.2194                                   22535767.1644
                                                                        47.0004
        33.7504
 -19461779.96147 -15152953.97346
                  22301915.2344                                   22301911.5234
                                                                        47.5004
        37.5004
 -21542240.39848 -16700913.68746
                  21515738.4534                                   21515735.1764
                                                                        50.0004
        38.7504
 -11435072.88347  -8867272.25444
                  23153733.1174                                   23153728.9804
                                                                        43.5004
        25.0004
 -12356183.14148  -9566114.55546
                  21204971.1414                                   21204967.0204
                                                                        51.0004
        36.0004
  -3505999.10247  -2705759.64144
                  23138497.5164                                   23138492.0474
                                                                        43.7504
        27.5004
 -18597854.50048 -14414573.61346
                  22296481.5944                                   22296478.0554
                                                                        49.0004
        36.0004
 09 10 19  0  6 30.0000000  0  9G02G04G05G10G25G13G23G29G16
 -10618857.96548  -8219914.41847
                  20517580.3524                                   20517574.6374
                                                                        51.2504
        42.0004
  -1662884.92647  -1277719.32445
                  22537424.7274                                   22537421.2624
                                                                        46.2504
        33.0004
 -19643261.33648 -15294367.98046
                  22267380.6094                                   22267376.6684
                                                                        48.5004
        37.5004
 -21711970.43748 -16833170.82446
                  21483440.0394                                   21483436.6844
                                                                        49.5004
        38.5004
 -11587897.82047  -8986356.73444
                  23124651.1884                                   23124647.3284
                                                                        42.7504
        26.0004
 -12426063.31648  -9620566.63346
                  21191673.4064                                   21191669.3834
                                                                        50.5004
        36.2504
  -3507571.49247  -2706984.92244
                  23138198.9534                                   23138193.1254
                                                                        43.2504
        27.5004
 -18734295.57448 -14520891.30946
                  22270517.6094                                   22270513.5904
                                                                        48.5004
        37.0004
   -203737.40256   -120852.87953
                  24281375.9844                                   24281371.9344
                                                                        39.2504
        21.0004
 09 10 19  0  7  0.0000000  0  9G02G04G05G10G25G13G23G29G16
 -10676823.34048  -8265082.18446
                  20506549.8754                                   20506544.2664
                                                                        51.0004
        41.7504
  -1653895.88747  -1270714.84845
                  22539135.1954                                   22539132.0234
                                                                        47.0004
        32.5004
 -19824420.32448 -15435530.84446
                  22232906.9844                                   22232903.0904
                                                                        49.0004
        37.2504
 -21881272.77048 -16965094.67646
                  21451222.9064                                   21451219.2584
                                                                        50.0004
        38.7504
 -11740259.35247  -9105079.94944
                  23095657.3594                                   23095653.9144
                                                                        42.7504
        26.2504
 -12495283.01648  -9674503.90646
                  21178500.9454                                   21178497.0784
                                                                        50.0004
        36.0004
  -3508754.92647  -2707907.09444
                  23137974.0084                                   23137968.0594
                                                                        44.2504
        27.0004
 -18870186.95748 -14626780.69546
                  22244658.4844                                   22244654.9144
                                                                        48.7504
        36.7504
   -361588.01246   -243853.33643
                  24251338.3444                                   24251334.5084
                                                                        41.0004
        21.0004
 09 10 19  0  7 30.0000000  0  9G02G04G05G10G25G13G23G29G16
 -10734219.15248  -8309806.39147
                  20495628.2194                                   20495622.2304
                                                                        51.2504
        42.5004
  -1644620.60547  -1263487.41445
                  22540900.2344                                   22540897.2624
                                                                        47.0004
        32.7504
 -20005260.66048 -15576445.33646
                  22198494.3984                                   22198490.5514
                                                                        49.0004
        37.5004
 -22050151.71948 -17096688.63746
                  21419086.2584                                   21419082.5944
                                                                        49.7504
        38.2504
 -11892162.44147  -9223445.89144
                  23066751.0474                                   23066748.1094
                                                                        42.5004
        27.2504
 -12563850.33648  -9727932.99645
                  21165453.3134                                   21165448.7664
                                                                        50.0004
        35.7504
  -3509557.86347  -2708532.80144
                  23137821.0474                                   23137814.7504
                                                                        44.5004
        26.7504
 -19005531.76248 -14732244.14846
                  22218902.7664                                   22218899.0234
                                                                        49.2504
        36.2504
   -518979.86746   -366496.36343
                  24221387.2814                                   24221383.3674
                                                                        41.2504
        22.5004
 09 10 19  0  8  0.0000000  0  9G02G04G05G10G25G13G23G29G16
 -10791043.10948  -8354084.93047
                  20484814.9774                                   20484809.1094
                                                                        51.7504
        42.2504
  -1635058.23047  -1256036.16045
                  22542719.6724                                   22542716.3984
                                                                        46.5004
        32.5004
 -20185778.60948 -15717108.62946
                  22164142.9614                                   22164139.0944
                                                                        49.5004
        38.0004
 -22218603.35948 -17227949.64846
                  21387030.6644                                   21387026.9774
                                                                        49.5004
        38.7504
 -12043602.71147  -9341451.24644
                  23037933.5784                                   23037929.9964
                                                                        43.7504
        27.0004
 -12631764.07848  -9780852.83646
                  21152529.4774                                   21152525.0084
                                                                        50.5004
        36.2504
  -3509980.73847  -2708862.35544
                  23137740.3834                                   23137734.7774
                                                                        43.2504
        25.2504
 -19140326.85248 -14837279.31246
                  22193252.3674                                   22193248.8634
                                                                        49.2504
        36.5004
   -675908.85547   -488778.71143
                  24191525.1414                                   24191520.5164
                                                                        42.0004
        22.5004
 09 10 19  0  8 30.0000000  0  9G02G04G05G10G25G13G23G29G16
 -10847292.73848  -8397915.91847
                  20474111.1414                                   20474105.0944
                                                                        51.7504
        42.2504
  -1625207.61347  -1248360.34845
                  22544594.3054                                   22544591.4574
                                                                        47.2504
        32.7504
 -20365969.27348 -15857516.89546
                  22129854.0084                                   22129849.9694
                                                                        49.7504
        38.2504
 -22386623.13748 -17358874.21946
                  21355057.6804                                   21355054.1374
                                                                        50.0004
        38.5004
 -12194574.65647  -9459091.80544
                  23009204.5944                                   23009201.0554
                                                                        44.0004
        27.7504
 -12699021.34448  -9833261.16846
                  21139730.9844                                   21139726.8984
                                                                        50.5004
        36.0004
  -3510022.91447  -2708895.23844
                  23137732.3594                                   23137726.0204
                                                                        43.7504
        27.0004
 -19274567.19148 -14941882.15646
                  22167706.8594                                   22167703.6214
                                                                        48.0004
        36.7504
   -832369.19147   -610695.90643
                  24161752.1094                                   24161747.5634
                                                                        42.2504
        22.7504
 09 10 19  0  9  0.0000000  0  9G02G04G05G10G25G13G23G29G16
  -9327546.63348  -7213697.98447
                  20763309.0314                                   20763303.1134
                                                                        52.2504
        42.0004
    -39651.72347    -12862.32045
                  22846315.8134                                   22846312.5554
                                                                        46.5004
        33.0004
 -18970404.51648 -14770063.83246
                  22395420.7814                                   22395417.1374
                                                                        49.7504
        37.5004
 -20978782.83248 -16261855.79346
                  21622960.9774                                   21622957.1844
                                                                        50.0004
        38.7504
 -10769650.83247  -8348761.39844
                  23280358.7584                                   23280354.8874
                                                                        45.7504
        29.2504
 -11190201.05948  -8657557.08245
                  21426849.9924                                   21426845.6334
                                                                        50.7504
        35.7504
  -1934267.36747  -1481033.72344
                  23437588.9844                                   23437582.9384
                                                                        45.2504
        27.2504
 -17832826.91848 -13818448.20346
                  22442061.4534                                   22442057.6214
                                                                        48.5004
        36.5004
    587066.43446    495357.78543
                  24431861.3914                                   24431857.2504
                                                                        41.2504
        21.2504
 09 10 19  0  9 30.0000000  0  9G02G04G05G10G25G13G23G29G16
  -9382646.09848  -7256632.66846
                  20752823.8364                                   20752818.2934
                                                                        52.0004
        41.5004
    -29227.59847     -4739.64145
                  22848299.2894                                   22848296.4384
                                                                        46.2504
        32.5004
 -19149930.81648 -14909954.53146
                  22361258.1954                                   22361254.1724
                                                                        49.7504
        38.2504
 -21145928.64548 -16392099.35246
                  21591154.1174                                   21591150.8284
                                                                        50.2504
        38.7504
 -10919675.62947  -8465663.98044
                  23251809.9924                                   23251806.2234
                                                                        45.0004
        28.5004
 -11256144.53148  -8708941.59445
                  21414301.1564                                   21414297.1994
                                                                        50.5004
        35.7504
  -1933552.48847  -1480476.77744
                  23437724.9694                                   23437718.9884
                                                                        43.7504
        26.5004
 -17965949.29748 -13922179.91846
                  22416729.0474                                   22416725.3364
                                                                        48.2504
        36.5004
    431553.98046    374179.18843
                  24402267.8914                                   24402264.4184
                                                                        40.0004
        19.0004
 09 10 19  0 10  0.0000000  0  9G02G04G05G10G25G13G23G29G16
  -9437168.40248  -7299117.50446
                  20742448.5394                                   20742442.9454
                                                                        52.7504
        41.7504
    -18516.96147      3606.14545
                  22850337.6254                                   22850334.4024
                                                                        47.0004
        31.7504
 -19329119.13748 -15049581.77046
                  22327159.7344                                   22327155.8284
                                                                        50.5004
        38.2504
 -21312631.77348 -16521997.92646
                  21559431.7424                                   21559428.0824
                                                                        50.0004
        39.0004
 -11069220.25847  -8582192.25444
                  23223352.7734                                   23223348.9104
                                                                        45.0004
        27.5004
 -11321429.68748  -8759813.12545
                  21401878.1094                                   21401874.1214
                                                                        50.5004
        35.7504
  -1932459.93047  -1479625.48444
                  23437932.8054                                   23437927.0944
                                                                        45.0004
        27.0004
 -18098507.54748 -14025472.05946
                  22391504.1334                                   22391500.5004
                                                                        49.0004
        36.2504
    276521.91846    253374.97343
                  24372766.4384                                   24372762.7814
                                                                        40.0004
        20.2504
 09 10 19  0 10 30.0000000  0  9G02G04G05G10G25G13G23G29G16
  -9491106.39148  -7341147.14146
                  20732184.6094                                   20732178.7274
                                                                        52.5004
        41.5004
     -7513.37547     12180.23845
                  22852431.3444                                   22852428.3134
                                                                        47.0004
        32.2504
 -19507958.72348 -15188937.35546
                  22293128.0004                                   22293124.3754
                                                                        49.7504
        38.5004
 -21478881.50048 -16651543.23046
                  21527795.5084                                   21527792.1604
                                                                        50.2504
        40.2504
 -11218275.06647  -8698339.05944
                  23194988.4454                                   23194984.3164
                                                                        44.5004
        25.7504
 -11386049.31248  -8810166.03145
                  21389581.4694                                   21389576.9414
                                                                        50.5004
        35.7504
  -1930983.72747  -1478475.14844
                  23438213.7974                                   23438207.8324
                                                                        44.7504
        26.7504
 -18230491.12548 -14128316.39546
                  22366388.4924                                   22366384.8674
                                                                        49.2504
        36.5004
    121981.50046    132953.92243
                  24343358.3284                                   24343354.4804
                                                                        40.7504
        20.0004
 09 10 19  0 11  0.0000000  0  9G02G04G05G10G25G13G23G29G16
  -9544466.58248  -7382726.54746
                  20722030.3834                                   20722024.3244
                                                                        52.0004
        41.7504
      3775.19947     20976.50845
                  22854579.9064                                   22854576.4494
                                                                        46.5004
        32.7504
 -19686453.80148 -15328024.53946
                  22259161.3594                                   22259157.2934
                                                                        50.5004
        38.7504
 -21644681.71548 -16780738.23846
                  21496244.6564                                   21496240.9774
                                                                        50.7504
        38.7504
 -11366842.94147  -8814106.21944
                  23166717.1884                                   23166712.7234
                                                                        44.7504
        26.5004
 -11450010.50048  -8860005.93446
                  21377409.9774                                   21377405.7234
                                                                        51.0004
        36.0004
  -1929132.41047  -1477032.51644
                  23438565.7584                                   23438559.2464
                                                                        45.5004
        26.5004
 -18361904.27048 -14230716.21946
                  22341381.2584                                   22341377.6484
                                                                        49.0004
        37.0004
    -32070.96146     12913.01643
                  24314043.5004                                   24314038.5984
                                                                        41.5004
        19.5004
 09 10 19  0 11 30.0000000  0  9G02G04G05G10G25G13G23G29G16
  -9597251.17248  -7423857.54746
                  20711985.8674                                   20711980.4344
                                                                        52.0004
        41.7504
     15345.54747     29992.22345
                  22856781.7424                                   22856778.5474
                                                                        45.7504
        32.2504
 -19864604.35248 -15466843.37946
                  22225260.5864                                   22225256.9104
                                                                        50.5004
        38.5004
 -21810032.73048 -16909583.33646
                  21464779.4694                                   21464776.2974
                                                                        50.7504
        39.2504
 -11514922.91447  -8929493.12144
                  23138537.8364                                   23138533.6884
                                                                        45.0004
        27.0004
 -11513315.10948  -8909334.21545
                  21365363.5314                                   21365359.3914
                                                                        50.5004
        35.7504
  -1926910.14147  -1475300.84844
                  23438989.0084                                   23438982.4964
                                                                        44.7504
        26.2504
 -18492747.53148 -14332671.97346
                  22316482.6804                                   22316478.6914
                                                                        49.0004
        36.5004
   -185634.66447   -106747.05543
                  24284821.8054                                   24284816.2304
                                                                        42.0004
        19.0004
 09 10 19  0 12  0.0000000  0 10G02G04G05G10G25G13G23G29G16G07
  -9649461.09448  -7464540.80146
                  20702050.8984                                   20702045.6134
                                                                        52.7504
        41.7504
     27195.07047     39225.51645
                  22859036.3364                                   22859033.5824
                                                                        45.5004
        31.0004
 -20042408.05548 -15605391.93046
                  22191425.7274                                   22191422.2424
                                                                        50.0004
        39.0004
 -21974932.88348 -17038077.32846
                  21433400.3054                                   21433397.1024
                                                                        50.7504
        39.2504
 -11662514.09847  -9044499.34444
                  23110452.0314                                   23110448.0004
                                                                        44.2504
        27.2504
 -11575964.99248  -8958152.34446
                  21353441.3834                                   21353437.5124
                                                                        50.2504
        36.0004
  -1924319.29747  -1473282.05544
                  23439481.6484                                   23439475.7664
                                                                        43.5004
        24.5004
 -18623019.19548 -14434182.34046
                  22291692.7664                                   22291688.9064
                                                                        49.0004
        37.2504
   -338707.77346   -226024.80143
                  24255692.2274                                   24255687.3284
                                                                        41.7504
        19.7504
   1332681.35956   1083539.02053
                  24471573.9924                                   24471570.0784
                                                                        39.2504
        19.7504
 09 10 19  0 12 30.0000000  0 10G02G04G05G10G25G13G23G29G16G07
  -9701100.48448  -7504779.39147
                  20692224.4534                                   20692218.8364
                                                                        52.2504
        42.5004
     39318.63347     48672.42645
                  22861343.7504                                   22861340.6294
                                                                        45.7504
        31.7504
 -20219866.21948 -15743671.43446
                  22157657.2194                                   22157653.7504
                                                                        51.0004
        39.5004
 -22139382.37148 -17166219.87946
                  21402106.5474                                   21402103.1054
                                                                        51.2504
        38.7504
 -11809617.21947  -9159125.18744
                  23082459.0864                                   23082456.1414
                                                                        44.5004
        27.7504
 -11637964.11748  -9006463.25045
                  21341643.7114                                   21341639.7074
                                                                        50.2504
        35.7504
  -1921366.18747  -1470980.93744
                  23440043.5474                                   23440037.6024
                                                                        43.5004
        25.5004
 -18752720.82448 -14535248.52746
                  22267011.1724                                   22267007.6454
                                                                        49.5004
        36.5004
   -491290.85947   -344920.80543
                  24226656.7664                                   24226652.3674
                                                                        42.0004
        20.0004
   1144400.71146    936826.73043
                  24435745.6414                                   24435742.2734
                                                                        40.5004
        21.5004
 09 10 19  0 13  0.0000000  0 10G02G04G05G10G25G13G23G29G16G07
  -9752172.86748  -7544575.98047
                  20682505.6254                                   20682499.5234
                                                                        52.2504
        42.0004
     51711.09047     58328.91445
                  22863701.7504                                   22863698.3524
                                                                        45.5004
        30.7504
 -20396978.67648 -15881680.74246
                  22123953.3054                                   22123950.0904
                                                                        50.0004
        38.5004
 -22303383.05148 -17294012.58646
                  21370898.3984                                   21370894.5664
                                                                        50.7504
        39.2504
 -11956233.17247  -9273371.39144
                  23054559.7504                                   23054556.3914
                                                                        44.7504
        28.5004
 -11699316.96948  -9054270.67645
                  21329968.6724                                   21329963.9224
                                                                        50.2504
        35.7504
  -1918056.05947  -1468401.54344
                  23440673.6954                                   23440667.6564
                                                                        43.7504
        25.0004
 -18881854.23448 -14635871.96146
                  22242437.7194                                   22242434.0824
                                                                        48.7504
        37.5004
   -643384.71147   -463435.50443
                  24197714.3204                                   24197709.8954
                                                                        42.5004
        21.5004
    956374.69946    790312.97343
                  24399964.9614                                   24399962.0164
                                                                        41.5004
        22.7504
 09 10 19  0 13 30.0000000  0 10G02G04G05G10G25G13G23G29G16G07
  -9802681.08248  -7583933.09447
                  20672894.3204                                   20672888.5984
                                                                        52.5004
        42.0004
     64369.15247     68192.41445
                  22866110.4774                                   22866107.4024
                                                                        46.2504
        32.0004
 -20573746.50048 -16019421.64546
                  22090315.4304                                   22090311.7034
                                                                        50.0004
        39.0004
 -22466933.52348 -17421454.06246
                  21339775.6884                                   21339772.0394
                                                                        51.2504
        39.0004
 -12102361.01647  -9387237.15244
                  23026752.3984                                   23026749.0554
                                                                        44.5004
        27.5004
 -11760025.55148  -9101576.01645
                  21318416.4454                                   21318411.8484
                                                                        49.7504
        35.7504
  -1914393.21547  -1465547.31644
                  23441370.8444                                   23441364.3014
                                                                        43.7504
        25.2504
 -19010418.96948 -14736052.27746
                  22217972.8054                                   22217969.5744
                                                                        49.5004
        37.2504
   -794988.46946   -581568.29743
                  24168865.0164                                   24168860.8524
                                                                        41.7504
        22.7504
    768604.96147    643999.17643
                  24364233.9844                                   24364230.0164
                                                                        42.2504
        22.7504
 09 10 19  0 14  0.0000000  0 10G02G04G05G10G25G13G23G29G16G07
  -9852626.57048  -7622851.51247
                  20663390.0084                                   20663383.9654
                                                                        52.5004
        42.0004
     77288.61747     78259.30545
                  22868569.4384                                   22868566.3244
                                                                        46.7504
        31.5004
 -20750169.24248 -16156893.86346
                  22056743.3054                                   22056739.4494
                                                                        49.5004
        39.0004
 -22630034.98448 -17548545.96546
                  21308738.2974                                   21308734.5434
                                                                        51.0004
        39.0004
 -12248000.33247  -9500722.35944
                  22999037.9454                                   22999033.9964
                                                                        45.2504
        28.7504
 -11820092.55948  -9148381.41045
                  21306985.6884                                   21306981.3834
                                                                        49.7504
        35.7504
  -1910381.39847  -1462421.21144
                  23442134.4774                                   23442127.7934
                                                                        43.7504
        25.0004
 -19138415.14848 -14835789.57446
                  22193615.8524                                   22193612.5704
                                                                        49.0004
        37.2504
   -946101.00446   -699318.33243
                  24140109.2274                                   24140105.3954
                                                                        41.0004
        22.7504
    581092.38347    497885.48044
                  24328551.8134                                   24328547.6604
                                                                        42.5004
        26.0004
 09 10 19  0 14 30.0000000  0 10G02G04G05G10G25G13G23G29G16G07
  -9902004.57048  -7661327.80547
                  20653993.3984                                   20653988.0784
                                                                        52.0004
        42.0004
     90474.55947     88534.09045
                  22871078.5944                                   22871075.6644
                                                                        46.2504
        32.2504
 -20926238.03948 -16294090.27346
                  22023238.1644                                   22023234.5204
                                                                        49.7504
        38.7504
 -22792678.84448 -17675281.35546
                  21277788.2274                                   21277784.6024
                                                                        51.2504
        39.0004
 -12393142.69147  -9613820.26244
                  22971418.3914                                   22971414.3754
                                                                        45.0004
        28.0004
 -11879513.27048  -9194683.21545
                  21295677.9614                                   21295673.6024
                                                                        49.7504
        35.5004
  -1906017.11747  -1459020.43744
                  23442964.8284                                   23442958.5314
                                                                        44.5004
        26.7504
 -19265835.22348 -14935077.91046
                  22169368.7894                                   22169365.5164
                                                                        49.7504
        37.7504
  -1096714.25446   -816679.33243
                  24111448.5084                                   24111444.2974
                                                                        40.7504
        22.7504
    393846.93847    351979.87144
                  24292919.9774                                   24292916.2034
                                                                        43.0004
        26.5004
 09 10 19  0 15  0.0000000  0 10G02G04G05G10G25G13G23G29G16G07
  -9950811.87148  -7699359.35946
                  20644705.5704                                   20644699.8364
                                                                        52.2504
        41.7504
    103928.80147     99018.08245
                  22873638.6414                                   22873635.6844
                                                                        46.5004
        32.0004
 -21101947.20348 -16431006.45746
                  21989802.2664                                   21989797.8484
                                                                        49.2504
        38.7504
 -22954858.73048 -17801655.25046
                  21246926.4844                                   21246922.5784
                                                                        51.5004
        39.2504
 -12537782.27047  -9726526.33644
                  22943894.2974                                   22943890.5234
                                                                        44.0004
        28.0004
 -11938284.60948  -9240479.00846
                  21284494.1884                                   21284489.7584
                                                                        48.7504
        36.0004
  -1901298.71947  -1455343.76244
                  23443862.0864                                   23443856.4064
                                                                        42.5004
        26.7504
