     2.11           OBSERVATION DATA    G (GPS)             RINEX VERSION / TYPE
teqc  2019Feb25                         20221121 12:28:25UTCPGM / RUN BY / DATE
OSX ker:10.11.6|Core i5|gcc 4.3 -m64|OSX ker:10.10+|=+      COMMENT
BIT 2 OF LLI FLAGS DATA COLLECTED UNDER A/S CONDITION       COMMENT
04712890                                                    MARKER NAME
2890                                                        MARKER NUMBER
-Unknown-           -Unknown-                               OBSERVER / AGENCY
0220400471          TRIMBLE R7          2.30                REC # / TYPE / VERS
-Unknown-           TRM39105.00     NONE                    ANT # / TYPE
  1449461.0608 -1709241.3446  5952438.7350                  APPROX POSITION XYZ
        0.0000        0.0000        0.0000                  ANTENNA: DELTA H/E/N
     1     1                                                WAVELENGTH FACT L1/2
    20    L1    L2    L5    L6    L7    L8    C1    P1    C2# / TYPES OF OBSERV
          P2    C5    C6    C7    C8    S1    S2    S5    S6# / TYPES OF OBSERV
          S7    S8                                          # / TYPES OF OBSERV
    30.0000                                                 INTERVAL
    15                                                      LEAP SECONDS
Forced Modulo Decimation to 30 seconds                      COMMENT
 SNR is mapped to RINEX snr flag value [0-9]                COMMENT
  L1 & L2: min(max(int(snr_dBHz/6), 0), 9)                  COMMENT
teqc edited: Beidou # 1 - 37 excluded                       COMMENT
  2009    10    16     0     0    0.0000000     GPS         TIME OF FIRST OBS
                                                            END OF HEADER
 09 10 16  0  0  0.0000000  0  9G02G04G29G05G13G10G23G25G30
 -10359512.63748  -8046690.86347
                  20462457.8984                                   20462452.2504
                                                                        51.5004
        42.2504
  -1990762.80148  -1543073.57846
                  21956186.9144                                   21956183.7154
                                                                        48.5004
        36.7504
 -16841853.83247 -13109102.45745
                  22771215.1024                                   22771211.5984
                                                                        45.0004
        33.5004
 -11827802.39547  -9202105.15245
                  23066101.8594                                   23066098.6954
                                                                        47.2504
        33.5004
 -12230151.55948  -9500407.34045
                  21227853.3054                                   21227849.2154
                                                                        49.5004
        35.7504
 -17832813.87547 -13880310.65645
                  22230339.7664                                   22230336.6454
                                                                        47.5004
        34.5004
  -3927246.37147  -3046236.02344
                  22661982.7194                                   22661977.0004
                                                                        46.2504
        29.7504
  -5139089.07446  -3969353.31243
                  23725531.4694                                   23725528.5554
                                                                        39.7504
        22.0004
  -1051808.44146   -810700.93744
                  24163014.5004                                   24163012.4574
                                                                        41.5004
        24.0004
 09 10 16  0  0 30.0000000  0  9G02G04G29G05G13G10G23G25G30
 -10428014.16848  -8100068.67247
                  20449422.5084                                   20449416.5664
                                                                        51.5004
        42.5004
  -1983286.14548  -1537247.61746
                  21957609.6254                                   21957605.9654
                                                                        48.7504
        36.7504
 -16986093.00047 -13221496.60245
                  22743767.4694                                   22743764.4344
                                                                        45.7504
        34.2504
 -12008638.69547  -9343016.56645
                  23031689.6954                                   23031686.6994
                                                                        46.5004
        34.0004
 -12313377.80948  -9565258.98046
                  21212015.7194                                   21212012.0474
                                                                        50.0004
        36.0004
 -18006137.77747 -14015368.26645
                  22197357.4614                                   22197354.0704
                                                                        47.2504
        34.7504
  -3933303.62547  -3050955.94945
                  22660830.2664                                   22660823.9024
                                                                        46.7504
        30.0004
  -5295983.03546  -4091608.31643
                  23695675.5234                                   23695672.8714
                                                                        40.0004
        22.2504
  -1034352.63346   -797098.94144
                  24166336.6884                                   24166333.9414
                                                                        41.5004
        24.0004
 09 10 16  0  1  0.0000000  0  9G02G04G29G05G13G10G23G25G30
 -10495885.18048  -8152955.14547
                  20436507.0004                                   20436501.5044
                                                                        51.2504
        42.5004
  -1975397.01248  -1531100.23846
                  21959110.9694                                   21959107.5394
                                                                        49.5004
        36.0004
 -17129812.91047 -13333486.15245
                  22716417.9924                                   22716415.0594
                                                                        46.5004
        34.0004
 -12189184.90247  -9483701.87945
                  22997333.4534                                   22997329.8524
                                                                        47.0004
        34.0004
 -12395888.33648  -9629552.92646
                  21196314.8834                                   21196310.3524
                                                                        50.0004
        36.5004
 -18179071.39148 -14150121.72745
                  22164449.1484                                   22164445.6484
                                                                        48.2504
        35.0004
  -3938842.04747  -3055271.59444
                  22659776.3914                                   22659769.8554
                                                                        46.0004
        29.7504
  -5452462.81246  -4213540.57044
                  23665898.3984                                   23665895.4774
                                                                        41.5004
        24.5004
  -1016512.30947   -783197.27044
                  24169731.6954                                   24169729.2154
                                                                        44.0004
        25.0004
 09 10 16  0  1 30.0000000  0  8G02G04G29G05G13G10G23G25
 -10563128.35948  -8205352.44147
                  20423711.0704                                   20423705.1334
                                                                        52.5004
        42.0004
  -1967100.02048  -1524635.05546
                  21960689.4454                                   21960686.4614
                                                                        50.0004
        36.2504
 -17273013.66847 -13445071.17245
                  22689167.7274                                   22689165.1454
                                                                        46.0004
        33.7504
 -12369441.30947  -9624161.39545
                  22963031.7584                                   22963028.1764
                                                                        47.7504
        34.7504
 -12477685.45748  -9693290.95746
                  21180749.7034                                   21180745.3754
                                                                        49.5004
        37.0004
 -18351615.50447 -14284571.64545
                  22131615.0634                                   22131612.2504
                                                                        47.0004
        35.5004
  -3943865.90647  -3059186.28944
                  22658820.8204                                   22658813.9494
                                                                        46.5004
        28.7504
  -5608527.98446  -4335149.76244
                  23636200.5944                                   23636197.1174
                                                                        41.0004
        25.2504
 09 10 16  0  2  0.0000000  0  8G02G04G29G05G13G10G23G25
 -10629739.57448  -8257257.30947
                  20411035.3754                                   20411029.7584
                                                                        51.5004
        43.0004
  -1958392.74248  -1517850.16446
                  21962347.0004                                   21962342.8794
                                                                        50.0004
        36.5004
 -17415688.60547 -13556246.44945
                  22662017.9064                                   22662014.5554
                                                                        45.5004
        34.5004
 -12549401.85948  -9764390.43445
                  22928786.0784                                   22928783.0594
                                                                        48.0004
        34.7504
 -12558764.89148  -9756469.73046
                  21165320.2814                                   21165316.1994
                                                                        48.7504
        37.0004
 -18523763.61747 -14418712.98846
                  22098856.1884                                   22098853.3284
                                                                        47.7504
        36.0004
  -3948373.10547  -3062698.37545
                  22657962.8754                                   22657956.5274
                                                                        45.7504
        30.0004
  -5764171.92647  -4456430.72744
                  23606582.5004                                   23606579.5004
                                                                        42.5004
        25.7504
 09 10 16  0  2 30.0000000  0  8G02G04G29G05G13G10G23G25
 -10695719.46148  -8308670.22347
                  20398479.7734                                   20398474.2274
                                                                        52.5004
        42.5004
  -1949278.23448  -1510747.94546
                  21964080.7114                                   21964077.5434
                                                                        49.5004
        36.0004
 -17557836.21947 -13667010.87945
                  22634968.2274                                   22634964.8324
                                                                        46.2504
        34.7504
 -12729065.43747  -9904388.07445
                  22894597.7274                                   22894594.0864
                                                                        47.5004
        34.5004
 -12639127.14548  -9819089.64146
                  21150027.7344                                   21150024.2704
                                                                        49.0004
        36.0004
 -18695514.04348 -14552544.50845
                  22066173.5084                                   22066170.0474
                                                                        48.2504
        35.5004
  -3952366.87547  -3065810.40244
                  22657202.8834                                   22657197.1174
                                                                        45.0004
        29.5004
  -5919392.57047  -4577381.85244
                  23577045.1174                                   23577041.4964
                                                                        43.0004
        25.5004
 09 10 16  0  3  0.0000000  0  8G02G04G29G05G13G10G23G25
 -10761067.33648  -8359590.64147
                  20386044.4844                                   20386038.7074
                                                                        52.5004
        42.5004
  -1939757.44548  -1503329.18046
                  21965892.6564                                   21965889.7344
                                                                        48.0004
        36.5004
 -17699453.85547 -13777362.31245
                  22608019.0704                                   22608015.8324
                                                                        46.7504
        33.7504
 -12908428.97747 -10044151.90245
                  22860465.5164                                   22860462.2034
                                                                        47.0004
        34.7504
 -12718771.91048  -9881150.47746
                  21134872.2734                                   21134868.0634
                                                                        49.0004
        36.2504
 -18866864.11747 -14686064.10545
                  22033566.6954                                   22033563.1804
                                                                        46.7504
        35.0004
  -3955848.85247  -3068523.65645
                  22656540.0164                                   22656534.3794
                                                                        46.0004
        30.0004
  -6074186.65247  -4698000.61744
                  23547588.5004                                   23547585.1054
                                                                        43.2504
        24.5004
 09 10 16  0  3 30.0000000  0  8G02G04G29G05G13G10G23G25
 -10825786.12148  -8410020.89547
                  20373728.7814                                   20373723.1024
                                                                        51.7504
        42.5004
  -1929835.14848  -1495597.53546
                  21967780.7974                                   21967777.7624
                                                                        48.5004
        36.0004
 -17840542.39847 -13887301.43745
                  22581170.7424                                   22581167.9734
                                                                        46.5004
        34.0004
 -13087493.55947 -10183682.76645
                  22826390.9924                                   22826387.2734
                                                                        47.7504
        34.7504
 -12797701.82448  -9942654.30546
                  21119852.2584                                   21119848.4264
                                                                        49.2504
        36.7504
 -19037814.87147 -14819272.52345
                  22001035.7664                                   22001032.5314
                                                                        47.5004
        35.5004
  -3958824.49247  -3070842.35944
                  22655973.8204                                   22655968.3244
                                                                        44.2504
        29.2504
  -6228554.46547  -4818287.22343
                  23518213.9614                                   23518209.4844
                                                                        43.2504
        23.7504
 09 10 16  0  4  0.0000000  0  8G02G04G29G05G13G10G23G25
 -10889880.12948  -8459964.27747
                  20361532.3984                                   20361526.7464
                                                                        51.7504
        42.7504
  -1919517.94148  -1487558.17246
                  21969744.2584                                   21969741.4574
                                                                        48.7504
        36.2504
 -17981103.70747 -13996829.71945
                  22554422.7114                                   22554419.9694
                                                                        46.5004
        34.2504
 -13266261.34448 -10322982.39145
                  22792372.6024                                   22792369.1804
                                                                        48.2504
        35.5004
 -12875921.23448 -10003604.48446
                  21104967.5474                                   21104963.4654
                                                                        49.2504
        36.2504
 -19208368.30147 -14952171.34845
                  21968580.4614                                   21968576.9144
                                                                        47.5004
        35.5004
  -3961300.09447  -3072771.40644
                  22655502.4224                                   22655497.0274
                                                                        44.5004
        28.5004
  -6382497.64546  -4938242.92643
                  23488918.3984                                   23488915.5514
                                                                        41.7504
        23.5004
 09 10 16  0  4 30.0000000  0  8G02G04G29G05G13G10G23G25
 -10953353.20748  -8509423.82847
                  20349453.6484                                   20349448.5004
                                                                        51.5004
        43.0004
  -1908811.45348  -1479215.47746
                  21971781.7814                                   21971778.0164
                                                                        49.5004
        36.0004
 -18121139.24247 -14105948.32045
                  22527774.8754                                   22527772.3524
                                                                        46.5004
        34.0004
 -13444733.60247 -10462051.73445
                  22758410.8054                                   22758407.3364
                                                                        47.7504
        35.5004
 -12953433.93448 -10064003.98046
                  21090217.1414                                   21090213.1484
                                                                        48.0004
        36.5004
 -19378525.21947 -15084761.13746
                  21936200.8594                                   21936197.5784
                                                                        46.5004
        36.2504
  -3963282.09047  -3074315.82044
                  22655125.8834                                   22655119.2894
                                                                        45.0004
        29.0004
  -6536017.50046  -5057868.77343
                  23459704.7734                                   23459701.4304
                                                                        41.0004
        22.7504
 09 10 16  0  5  0.0000000  0  8G02G04G29G05G13G10G23G25
 -11016207.06648  -8558400.92647
                  20337493.1094                                   20337487.6914
                                                                        51.5004
        42.5004
  -1897718.98448  -1470572.01245
                  21973892.3914                                   21973889.4614
                                                                        48.5004
        35.5004
 -18260648.46147 -14214656.78545
                  22501226.9304                                   22501224.6644
                                                                        47.0004
        34.0004
 -13622910.41447 -10600890.80546
                  22724504.5474                                   22724501.3014
                                                                        47.5004
        36.0004
 -13030241.79748 -10123854.23046
                  21075601.3134                                   21075597.1024
                                                                        49.5004
        36.5004
 -19548286.16447 -15217042.43045
                  21903896.2734                                   21903892.9614
                                                                        47.5004
        35.5004
  -3964774.30147  -3075478.58244
                  22654841.4614                                   22654835.6454
                                                                        45.0004
        28.7504
  -6689112.85246  -5177163.79343
                  23430571.7814                                   23430568.5984
                                                                        41.5004
        22.7504
 09 10 16  0  5 30.0000000  0  8G02G04G29G05G13G10G23G25
  -9503021.31648  -7379295.21147
                  20625442.9694                                   20625437.2974
                                                                        52.0004
        43.0004
   -310824.53547   -234030.87545
                  22275868.5084                                   22275865.0044
                                                                        47.0004
        35.5004
 -16824206.79747 -13095351.58645
                  22774573.0864                                   22774570.0704
                                                                        47.2504
        34.2504
 -12225365.37147  -9511894.59846
                  22990448.6804                                   22990445.2344
                                                                        45.5004
        36.0004
 -11530923.58648  -8955554.31646
                  21360912.1564                                   21360907.9924
                                                                        48.7504
        37.0004
 -18142224.46548 -14121409.94546
                  22171461.3054                                   22171457.8484
                                                                        48.0004
        36.2504
  -2390360.65247  -1848662.74245
                  22954442.8674                                   22954436.4344
                                                                        45.5004
        30.0004
  -5266357.39147  -4068523.12944
                  23701313.4924                                   23701309.6844
                                                                        43.0004
        25.5004
 09 10 16  0  6  0.0000000  0  8G02G04G29G05G13G10G23G25
  -9564639.96148  -7427309.78147
                  20613717.2664                                   20613711.4104
                                                                        51.2504
        42.7504
   -298969.15248   -224792.94146
                  22278124.4144                                   22278121.3754
                                                                        49.5004
        36.0004
 -16962660.40648 -13203237.49645
                  22748225.9694                                   22748223.8244
                                                                        48.0004
        35.5004
 -12402947.80547  -9650270.50445
                  22956655.3284                                   22956652.2734
                                                                        46.0004
        34.7504
 -11606324.62948  -9014308.39846
                  21346563.8364                                   21346559.6684
                                                                        50.2504
        36.5004
 -18311188.51248 -14253070.22746
                  22139308.1094                                   22139305.3524
                                                                        48.7504
        37.0004
  -2390883.07447  -1849069.82044
                  22954343.6724                                   22954337.0984
                                                                        45.0004
        28.5004
  -5418598.64847  -4187152.64844
                  23672342.8204                                   23672339.0514
                                                                        42.7504
        24.5004
 09 10 16  0  6 30.0000000  0  8G02G04G29G05G13G10G23G25
  -9625641.66848  -7474843.60247
                  20602109.0004                                   20602103.6644
                                                                        51.7504
        42.2504
   -286735.68748   -215260.38345
                  22280452.4614                                   22280449.1844
                                                                        48.7504
        35.5004
 -17100583.60247 -13310710.09845
                  22721980.2504                                   22721977.6484
                                                                        47.5004
        35.2504
 -12580230.60547  -9788412.94945
                  22922919.7344                                   22922916.2114
                                                                        45.5004
        34.5004
 -11681022.85548  -9072514.80946
                  21332349.0944                                   21332344.8204
                                                                        50.0004
        36.5004
 -18479751.46948 -14384417.96946
                  22107231.8834                                   22107228.5824
                                                                        48.0004
        36.5004
  -2390924.51647  -1849102.11744
                  22954335.6254                                   22954329.0984
                                                                        45.0004
        28.7504
  -5570409.49647  -4305446.80144
                  23643454.7194                                   23643450.8754
                                                                        42.0004
        26.5004
 09 10 16  0  7  0.0000000  0  8G02G04G29G05G13G10G23G25
  -9686027.88348  -7521897.81247
                  20590617.6804                                   20590612.1804
                                                                        51.2504
        42.5004
   -274127.72348   -205435.97745
                  22282851.7344                                   22282848.4184
                                                                        48.5004
        35.5004
 -17237975.69147 -13417768.87145
                  22695835.8054                                   22695832.8524
                                                                        47.0004
        35.0004
 -12757212.85947  -9926321.18745
                  22889241.6484                                   22889237.5314
                                                                        46.7504
        34.5004
 -11755019.98048  -9130174.91446
                  21318268.2584                                   21318263.9534
                                                                        50.7504
        36.5004
 -18647912.98448 -14515452.91046
                  22075231.5864                                   22075228.2774
                                                                        48.5004
        36.0004
  -2390489.10247  -1848762.82844
                  22954418.5864                                   22954411.9654
                                                                        45.2504
        28.2504
  -5721789.03947  -4423404.85944
                  23614647.9454                                   23614643.8444
                                                                        42.5004
        26.5004
 09 10 16  0  7 30.0000000  0  8G02G04G29G05G13G10G23G25
  -9745799.54348  -7568473.14547
                  20579243.5634                                   20579238.2934
                                                                        52.0004
        42.2504
   -261147.89548   -195321.85245
                  22285321.7274                                   22285318.9804
                                                                        48.7504
        35.2504
 -17374834.57048 -13524412.14545
                  22669792.1724                                   22669789.3914
                                                                        48.0004
        34.7504
 -12933892.60247 -10063993.68045
                  22855620.2814                                   22855616.7814
                                                                        47.0004
        35.5004
 -11828316.83248  -9187289.37546
                  21304320.0864                                   21304315.6844
                                                                        50.0004
        36.2504
 -18815671.56648 -14646173.89146
                  22043308.1334                                   22043304.6604
                                                                        49.0004
        36.2504
  -2389579.60947  -1848054.12944
                  22954590.9304                                   22954584.5944
                                                                        44.5004
        27.5004
  -5872735.23047  -4541025.24644
                  23585923.3674                                   23585919.7424
                                                                        42.2504
        24.5004
 09 10 16  0  8  0.0000000  0  8G02G04G29G05G13G10G23G25
  -9804952.99648  -7614566.75847
                  20567987.3054                                   20567981.5984
                                                                        51.7504
        42.2504
   -247793.94948   -184916.20345
                  22287862.9694                                   22287859.7544
                                                                        49.5004
        35.5004
 -17511154.82047 -13630635.71145
                  22643850.8284                                   22643847.9344
                                                                        47.7504
        34.7504
 -13110265.19147 -10201426.85546
                  22822057.4924                                   22822054.0944
                                                                        46.5004
        36.0004
 -11900909.52048  -9243855.11346
                  21290506.2034                                   21290501.8594
                                                                        50.5004
        36.0004
 -18983020.72748 -14776575.79345
                  22011462.6174                                   22011458.6844
                                                                        49.0004
        35.5004
  -2388194.48847  -1846974.82444
                  22954854.9774                                   22954848.5394
                                                                        45.5004
        27.5004
  -6023241.35246  -4658302.71544
                  23557283.1884                                   23557279.3134
                                                                        41.2504
        26.5004
 09 10 16  0  8 30.0000000  0  8G02G04G29G05G13G10G23G25
  -9863489.85948  -7660179.88347
                  20556848.2664                                   20556842.3164
                                                                        51.5004
        42.5004
   -234069.87948   -174222.15645
                  22290474.5394                                   22290471.6724
                                                                        49.0004
        35.7504
 -17646935.82447 -13736439.05945
                  22618012.7274                                   22618009.6804
                                                                        47.5004
        34.2504
 -13286329.73447 -10338619.98845
                  22788553.6954                                   22788550.5354
                                                                        46.0004
        35.0004
 -11972800.16048  -9299873.80146
                  21276825.8364                                   21276821.3674
                                                                        51.0004
        36.0004
 -19149959.99248 -14906658.35946
                  21979695.4224                                   21979691.5944
                                                                        48.7504
        36.5004
  -2386337.85247  -1845528.08244
                  22955208.3134                                   22955202.2074
                                                                        45.7504
        28.7504
  -6173306.84046  -4775236.80543
                  23528725.8524                                   23528723.1724
                                                                        40.0004
        22.7504
 09 10 16  0  9  0.0000000  0  8G02G04G29G05G13G10G23G25
  -9921412.40248  -7705314.33247
                  20545825.8984                                   20545819.9884
                                                                        51.0004
        42.5004
   -219979.22748   -163242.44145
                  22293155.8984                                   22293152.4104
                                                                        49.5004
        34.5004
 -17782177.68047 -13841822.29345
                  22592276.7974                                   22592274.0824
                                                                        47.0004
        34.7504
 -13462085.84047 -10475572.80545
                  22755108.3594                                   22755104.6604
                                                                        45.7504
        35.7504
 -12043990.71548  -9355346.94146
                  21263278.8284                                   21263274.6844
                                                                        50.5004
        36.5004
 -19316489.43048 -15036421.59846
                  21948005.9844                                   21948002.2974
                                                                        48.5004
        36.5004
  -2384013.73447  -1843717.09044
                  22955650.1724                                   22955644.7074
                                                                        46.0004
        29.5004
  -6322930.86346  -4891826.91043
                  23500253.4614                                   23500250.2894
                                                                        39.0004
        22.7504
 09 10 16  0  9 30.0000000  0  8G02G04G29G05G13G10G23G25
  -9978719.27348  -7749969.04347
                  20534920.3284                                   20534914.9694
                                                                        51.5004
        42.2504
   -205522.32047   -151977.34845
                  22295906.9224                                   22295903.5234
                                                                        47.5004
        35.0004
 -17916876.73847 -13946782.59845
                  22566644.8134                                   22566641.4574
                                                                        45.7504
        35.0004
 -13637530.12947 -10612282.64146
                  22721722.3444                                   22721719.1024
                                                                        47.0004
        36.0004
 -12114480.31248  -9410273.89846
                  21249865.0784                                   21249860.4774
                                                                        50.7504
        36.0004
 -19482605.05948 -15165862.39146
                  21916395.2734                                   21916392.0664
                                                                        48.0004
        37.2504
  -2381223.16047  -1841542.62944
                  22956181.9454                                   22956174.9844
                                                                        45.7504
        29.0004
  -6472109.15646  -5008069.68743
                  23471865.8364                                   23471862.0004
                                                                        40.0004
        23.2504
 09 10 16  0 10  0.0000000  0  8G02G04G29G05G13G10G23G25
 -10035411.02748  -7794144.40647
                  20524132.3594                                   20524126.9804
                                                                        51.7504
        42.0004
   -190701.94948   -140429.02745
                  22298726.8524                                   22298723.7664
                                                                        49.0004
        35.0004
 -18051031.02047 -14051318.38345
                  22541116.2504                                   22541113.0594
                                                                        47.0004
        35.0004
 -13812660.90247 -10748748.19945
                  22688396.1254                                   22688392.8204
                                                                        47.5004
        35.5004
 -12184269.18748  -9464654.84046
                  21236584.7344                                   21236580.4264
                                                                        50.7504
        36.5004
 -19648305.27348 -15294979.53146
                  21884863.7424                                   21884859.8324
                                                                        49.5004
        36.2504
  -2377968.84447  -1839006.82444
                  22956800.7664                                   22956794.9614
                                                                        45.5004
        29.2504
  -6620839.80946  -5123963.68044
                  23443563.5004                                   23443559.9384
                                                                        41.0004
        24.5004
 09 10 16  0 10 30.0000000  0  8G02G04G29G05G13G10G23G25
 -10091491.52348  -7837843.50047
                  20513460.7584                                   20513455.1294
                                                                        53.0004
        42.0004
   -175523.12948   -128601.40645
                  22301615.5164                                   22301612.4024
                                                                        48.5004
        34.2504
 -18184642.29747 -14155431.05145
                  22515690.6334                                   22515687.6564
                                                                        47.2504
        35.0004
 -13987479.46547 -10884970.51246
                  22655129.5234                                   22655125.7464
                                                                        47.5004
        36.2504
 -12253361.27048  -9518492.84046
                  21223436.5864                                   21223432.8984
                                                                        50.7504
        36.2504
 -19813591.50448 -15423774.02346
                  21853410.7424                                   21853407.4224
                                                                        49.2504
        37.2504
  -2374256.50447  -1836114.09044
                  22957507.6254                                   22957501.0634
                                                                        46.0004
        28.2504
  -6769123.53947  -5239509.44144
                  23415346.3204                                   23415342.1094
                                                                        42.2504
        25.0004
 09 10 16  0 11  0.0000000  0  8G02G04G29G05G13G10G23G25
 -10146956.91448  -7881063.28947
                  20502906.1174                                   20502900.3164
                                                                        52.5004
        42.2504
   -159984.00048   -116493.00845
                  22304572.4844                                   22304569.0164
                                                                        48.2504
        34.5004
 -18317703.98447 -14259115.44545
                  22490369.8134                                   22490366.8594
                                                                        45.7504
        35.2504
 -14161979.43047 -11020944.49646
                  22621923.3134                                   22621919.7034
                                                                        47.2504
        36.5004
 -12321753.03548  -9571785.12946
                  21210422.2814                                   21210417.8634
                                                                        50.7504
        36.2504
 -19978457.17248 -15552240.83646
                  21822037.5704                                   21822034.6374
                                                                        48.7504
        37.0004
  -2370084.85547  -1832863.45344
                  22958300.9304                                   22958294.6024
                                                                        45.2504
        27.5004
  -6916954.00846  -5354702.00044
                  23387214.8054                                   23387211.7034
                                                                        41.0004
        25.7504
 09 10 16  0 11 30.0000000  0  8G02G04G29G05G13G10G23G25
 -10201809.79748  -7923805.75447
                  20492467.5634                                   20492461.9264
                                                                        52.7504
        42.2504
   -144089.13748   -104107.42645
                  22307597.4924                                   22307594.0634
                                                                        48.7504
        34.0004
 -18450216.88747 -14362372.23045
                  22465153.2504                                   22465150.7894
                                                                        47.0004
        35.5004
 -14336161.18048 -11156670.60245
                  22588777.4224                                   22588773.6644
                                                                        48.7504
        35.7504
 -12389447.39148  -9624533.98446
                  21197540.5234                                   21197535.6174
                                                                        51.5004
        36.2504
 -20142902.75448 -15680380.27046
                  21790744.7194                                   21790741.1994
                                                                        49.0004
        37.2504
  -2365458.60247  -1829258.58244
                  22959180.7974                                   22959175.1334
                                                                        44.7504
        26.2504
  -7064331.27746  -5469541.42644
                  23359169.7734                                   23359165.6484
                                                                        41.2504
        25.5004
 09 10 16  0 12  0.0000000  0  8G02G04G29G05G13G10G23G25
 -10256049.95348  -7966070.78547
                  20482146.1174                                   20482140.6684
                                                                        52.0004
        42.2504
   -127839.38348    -91445.30545
                  22310689.5084                                   22310686.6174
                                                                        49.0004
        34.2504
 -18582178.41447 -14465199.36346
                  22440041.7734                                   22440039.4304
                                                                        47.5004
        36.2504
 -14510022.08248 -11292146.63345
                  22555692.7344                                   22555688.9844
                                                                        48.2504
        35.5004
 -12456443.81248  -9676739.00046
                  21184791.3984                                   21184787.4654
                                                                        50.7504
        36.5004
 -20306925.73448 -15808190.39846
                  21759532.2894                                   21759528.7854
                                                                        49.5004
        36.5004
  -2360379.24247  -1825300.64844
                  22960147.5004                                   22960141.7664
                                                                        44.7504
        27.2504
  -7211251.84446  -5584024.95344
                  23331212.0084                                   23331208.2504
                                                                        41.7504
        26.0004
 09 10 16  0 12 30.0000000  0  8G02G04G29G05G13G10G23G25
 -10309678.89848  -8007859.50846
                  20471940.6804                                   20471935.3674
                                                                        52.5004
        41.7504
   -111238.27747    -78509.39545
                  22313849.0394                                   22313846.0124
                                                                        47.7504
        34.0004
 -18713587.70747 -14567596.24645
                  22415035.5394                                   22415033.1644
                                                                        46.5004
        35.2504
 -14683562.02748 -11427372.64146
                  22522669.6724                                   22522665.5634
                                                                        48.2504
        36.5004
 -12522743.84848  -9728401.37146
                  21172174.8834                                   21172170.8054
                                                                        51.0004
        36.2504
 -20470524.81248 -15935670.14146
                  21728400.3594                                   21728397.2624
                                                                        49.2504
        36.5004
  -2354850.64847  -1820992.65244
                  22961200.1024                                   22961193.8444
                                                                        45.5004
        27.7504
  -7357714.53946  -5698151.73444
                  23303340.8364                                   23303337.4024
                                                                        40.2504
        24.7504
 09 10 16  0 13  0.0000000  0  8G02G04G29G05G13G10G23G25
 -10362696.42648  -8049171.77347
                  20461851.8674                                   20461845.8954
                                                                        52.2504
        42.0004
    -94287.17647    -65300.75845
                  22317074.3284                                   22317071.6024
                                                                        47.7504
        34.5004
 -18844441.92247 -14669560.54346
                  22390134.8914                                   22390131.9734
                                                                        46.2504
        36.0004
 -14856777.65248 -11562345.84046
                  22489707.4924                                   22489704.1024
                                                                        48.2504
        36.7504
 -12588347.66048  -9779521.25846
                  21159690.7504                                   21159686.6914
                                                                        50.5004
        36.7504
 -20633697.55948 -16062817.75046
                  21697349.7424                                   21697346.0664
                                                                        48.5004
        37.0004
  -2348874.62547  -1816336.01644
                  22962337.3914                                   22962331.2344
                                                                        45.5004
        28.5004
  -7503716.45746  -5811919.42644
                  23275557.2734                                   23275553.9454
                                                                        39.7504
        25.2504
 09 10 16  0 13 30.0000000  0  8G02G04G29G05G13G10G23G25
 -10415103.20348  -8090008.18747
                  20451879.2734                                   20451873.6914
                                                                        51.7504
        42.0004
    -76988.18047    -51821.02345
                  22320366.0314                                   22320362.8834
                                                                        47.0004
        33.5004
 -18974739.55547 -14771091.13746
                  22365340.2034                                   22365337.5514
                                                                        46.5004
        36.2504
 -15029667.12148 -11697064.89546
                  22456807.8834                                   22456804.4144
                                                                        48.5004
        37.0004
 -12653255.65648  -9830098.95346
                  21147339.5864                                   21147335.2234
                                                                        49.7504
        36.0004
 -20796441.93748 -16189631.57846
                  21666380.4924                                   21666377.1914
                                                                        48.7504
        37.2504
  -2342453.79747  -1811332.76244
                  22963559.1884                                   22963553.2664
                                                                        45.2504
        27.7504
  -7649255.25046  -5925326.27044
                  23247862.2584                                   23247859.0394
                                                                        40.0004
        26.0004
 09 10 16  0 14  0.0000000  0  8G02G04G29G05G13G10G23G25
 -10466897.70748  -8130367.55146
                  20442023.0864                                   20442017.4924
                                                                        51.5004
        41.5004
    -59341.24647    -38070.16045
                  22323724.0784                                   22323721.1994
                                                                        47.2504
        33.5004
 -19104476.21147 -14872184.55946
                  22340652.1254                                   22340649.1484
                                                                        47.7504
        37.0004
 -15202226.29348 -11831526.50446
                  22423970.9454                                   22423967.4024
                                                                        48.0004
        37.0004
 -12717466.45348  -9880133.35245
                  21135120.4924                                   21135116.3524
                                                                        50.2504
        35.7504
 -20958753.55548 -16316108.08646
                  21635493.5004                                   21635489.9414
                                                                        48.5004
        37.0004
  -2335588.57847  -1805983.25044
                  22964865.5864                                   22964859.8674
                                                                        44.5004
        28.5004
  -7794326.32846  -6038368.60544
                  23220255.9454                                   23220252.9304
                                                                        41.2504
        25.5004
 09 10 16  0 14 30.0000000  0  8G02G04G29G05G13G10G23G25
 -10518081.30548  -8170250.86747
                  20432283.0084                                   20432277.6724
                                                                        51.7504
        42.5004
    -41349.70347    -24050.77045
                  22327148.0004                                   22327144.6954
                                                                        47.7504
        34.0004
 -19233651.88348 -14972840.92245
                  22316070.5474                                   22316068.1604
                                                                        48.2504
        35.7504
 -15374454.57448 -11965730.30946
                  22391196.8674                                   22391193.8054
                                                                        48.2504
        37.2504
 -12780982.05148  -9929626.01245
                  21123034.0864                                   21123029.7774
                                                                        50.5004
        35.7504
 -21120631.92648 -16442246.98846
                  21604688.9144                                   21604685.4924
                                                                        49.5004
        37.5004
  -2328282.62147  -1800290.29344
                  22966255.1804                                   22966249.8754
                                                                        44.0004
        27.5004
  -7938928.69147  -6151045.75844
                  23192739.6414                                   23192735.9454
                                                                        42.0004
        26.0004
 09 10 16  0 15  0.0000000  0  8G02G04G29G05G13G10G23G25
 -10568657.00048  -8209660.52347
                  20422659.0394                                   20422653.5664
                                                                        50.7504
        42.5004
    -23017.89148     -9766.21945
                  22330636.5234                                   22330633.3524
                                                                        48.0004
        34.2504
 -19362267.59447 -15073060.97346
                  22291596.0864                                   22291593.0204
                                                                        47.2504
        36.0004
 -15546352.42648 -12099676.63346
                  22358485.7344                                   22358482.0594
                                                                        48.2504
        37.2504
 -12843805.55548  -9978579.47345
                  21111079.0864                                   21111074.9884
                                                                        49.5004
        35.5004
 -21282077.35948 -16568048.52746
                  21573967.0314                                   21573963.6484
                                                                        48.7504
        37.2504
  -2320540.93447  -1794257.81644
                  22967728.8364                                   22967722.9694
                                                                        42.5004
        27.5004
  -8083062.27047  -6263357.62944
                  23165312.2344                                   23165308.1914
                                                                        42.5004
        27.0004
 09 10 16  0 15 30.0000000  0  8G02G04G29G05G13G10G23G25
 -10618624.53148  -8248596.27347
                  20413150.5314                                   20413144.7274
                                                                        50.7504
        42.2504
     -4347.05548      4782.47345
                  22334189.3364                                   22334185.8714
                                                                        48.2504
        33.0004
 -19490319.89847 -15172841.98046
                  22267228.3984                                   22267225.3244
                                                                        46.7504
        36.0004
 -15717917.42647 -12233363.63346
                  22325838.0704                                   22325834.3054
                                                                        46.7504
        36.7504
 -12905936.39148 -10026993.14845
                  21099255.9774                                   21099251.7154
                                                                        50.0004
        35.5004
 -21443087.44948 -16693510.90246
                  21543327.8284                                   21543324.5784
                                                                        48.2504
        37.0004
  -2312365.21947  -1787887.14544
                  22969284.6564                                   22969278.6174
                                                                        42.0004
        27.5004
  -8226723.69947  -6375301.55944
                  23137974.4384                                   23137970.2894
                                                                        43.0004
        26.2504
 09 10 16  0 16  0.0000000  0  8G02G04G29G05G13G10G23G25
  -9092564.95748  -7059458.96547
                  20703550.3444                                   20703544.6054
                                                                        51.5004
        42.2504
   1590077.55947   1247191.25045
                  22637598.2274                                   22637595.2734
                                                                        47.2504
        33.2504
 -18042384.46548 -14044580.57846
                  22542761.7114                                   22542758.1884
                                                                        48.0004
        36.5004
 -14313723.53947 -11139186.53546
                  22593047.0004                                   22593043.5634
                                                                        47.0004
        36.5004
 -11391955.80148  -8847268.13345
                  21387357.1724                                   21387353.0784
                                                                        50.5004
        35.7504
 -20028236.47348 -15591029.55546
                  21812564.8594                                   21812561.5084
                                                                        49.2504
        37.5004
   -728340.45347   -553582.12944
                  23270714.9454                                   23270708.9064
                                                                        45.2504
        27.5004
  -6794488.68047  -5259274.23844
                  23410519.1414                                   23410515.1844
                                                                        42.0004
        24.5004
 09 10 16  0 16 30.0000000  0  8G02G04G29G05G13G10G23G25
  -9141322.02048  -7097451.50447
                  20694271.8054                                   20694266.6054
                                                                        51.2504
        42.0004
   1609415.55547   1262259.79345
                  22641278.2734                                   22641275.4654
                                                                        47.5004
        33.0004
 -18169308.77748 -14143482.63746
