     2.11           OBSERVATION DATA    G (GPS)             RINEX VERSION / TYPE
teqc  2019Feb25                         20221121 12:28:10UTCPGM / RUN BY / DATE
OSX ker:10.11.6|Core i5|gcc 4.3 -m64|OSX ker:10.10+|=+      COMMENT
BIT 2 OF LLI FLAGS DATA COLLECTED UNDER A/S CONDITION       COMMENT
04712821                                                    MARKER NAME
2821                                                        MARKER NUMBER
-Unknown-           -Unknown-                               OBSERVER / AGENCY
0220400471          TRIMBLE R7          2.30                REC # / TYPE / VERS
-Unknown-           TRM39105.00     NONE                    ANT # / TYPE
  1449460.7878 -1709240.5840  5952443.2521                  APPROX POSITION XYZ
        0.0000        0.0000        0.0000                  ANTENNA: DELTA H/E/N
     1     1                                                WAVELENGTH FACT L1/2
    20    L1    L2    L5    L6    L7    L8    C1    P1    C2# / TYPES OF OBSERV
          P2    C5    C6    C7    C8    S1    S2    S5    S6# / TYPES OF OBSERV
          S7    S8                                          # / TYPES OF OBSERV
    30.0000                                                 INTERVAL
    15                                                      LEAP SECONDS
Forced Modulo Decimation to 30 seconds                      COMMENT
 SNR is mapped to RINEX snr flag value [0-9]                COMMENT
  L1 & L2: min(max(int(snr_dBHz/6), 0), 9)                  COMMENT
teqc edited: Beidou # 1 - 37 excluded                       COMMENT
  2009    10     9    23    10    0.0000000     GPS         TIME OF FIRST OBS
                                                            END OF HEADER
 09 10  9 23 10  0.0000000  0  8G02G04G12G13G20G23G30G31
   -263983.73458   -136198.34856
                  21465887.6564                                   21465882.1954
                                                                        53.0004
        41.5004
   -132342.74658    -71590.38757
                  20594690.6414                                   20594687.4574
                                                                        51.0004
        42.2504
    -39033.62157    -21262.38355
                  23281311.0944                                   23281306.8634
                                                                        45.7504
        33.0004
   -300964.87557   -155933.16055
                  22799826.0634                                   22799822.2304
                                                                        47.5004
        30.7504
     17679.48456      6612.44554
                  23477600.6484                                   23477596.5824
                                                                        41.5004
        25.2504
   -176754.25058    -91806.69155
                  21920430.7034                                   21920424.2814
                                                                        48.5004
        35.5004
   -128379.31657    -66792.41855
                  22586526.7344                                   22586524.3404
                                                                        46.2504
        32.0004
   -133721.66057    -69534.02354
                  23704476.9614                                   23704472.5004
                                                                        42.5004
        28.2504
 09 10  9 23 10 30.0000000  0  8G02G04G12G13G20G23G30G31
   -428374.02348   -264294.67646
                  21434605.3134                                   21434599.5084
                                                                        53.0004
        41.0004
   -216418.07048   -137103.62947
                  20578691.4534                                   20578688.2734
                                                                        51.5004
        42.5004
    -66001.96947    -42276.68745
                  23276179.2584                                   23276175.0634
                                                                        46.5004
        33.0004
   -487952.36348   -301637.68445
                  22764243.4924                                   22764239.6334
                                                                        48.0004
        31.0004
     25566.29346     12757.96144
                  23479101.3284                                   23479096.9344
                                                                        41.5004
        25.7504
   -288029.66848   -178514.81245
                  21899256.0634                                   21899249.7154
                                                                        49.5004
        35.5004
   -209591.43447   -130074.60245
                  22571072.3834                                   22571069.7384
                                                                        47.5004
        31.0004
   -218284.09847   -135426.84444
                  23688385.2664                                   23688380.8284
                                                                        43.5004
        28.0004
 09 10  9 23 11  0.0000000  0  8G02G04G12G13G20G23G30G31
   -593099.85548   -392652.46546
                  21403259.0164                                   21403253.2934
                                                                        53.0004
        40.7504
   -300678.87148   -202761.39547
                  20562657.1414                                   20562653.9804
                                                                        51.5004
        42.0004
    -93249.48847    -63508.53145
                  23270993.9304                                   23270990.0394
                                                                        46.5004
        33.7504
   -675283.96147   -447610.36345
                  22728595.3364                                   22728591.8524
                                                                        46.2504
        30.5004
     32948.56346     18510.38744
                  23480506.5474                                   23480501.6884
                                                                        41.5004
        24.0004
   -399428.31248   -265318.96945
                  21878057.4064                                   21878051.2304
                                                                        49.2504
        35.0004
   -290879.59447   -193416.02345
                  22555603.5314                                   22555601.3204
                                                                        47.0004
        31.7504
   -303000.46547   -201439.61744
                  23672263.9454                                   23672259.7934
                                                                        43.2504
        29.2504
 09 10  9 23 11 30.0000000  0  8G02G04G12G13G20G23G30G31
   -757870.99648   -521045.56646
                  21371904.1484                                   21371898.8754
                                                                        53.5004
        41.5004
   -384837.17248   -268339.27047
                  20546642.4614                                   20546638.8754
                                                                        50.0004
        42.5004
   -120490.73847    -84735.50045
                  23265810.3204                                   23265806.2424
                                                                        46.5004
        33.2504
   -862668.04747   -593623.91045
                  22692937.5864                                   22692933.6334
                                                                        47.2504
        30.0004
     40112.59446     24092.73843
                  23481869.4924                                   23481865.0944
                                                                        40.7504
        22.7504
   -510661.19548   -351993.94945
                  21856890.2114                                   21856884.4844
                                                                        49.5004
        35.2504
   -371956.23447   -256592.63345
                  22540175.5944                                   22540172.6374
                                                                        43.0004
        30.5004
   -387582.68447   -267347.84844
                  23656168.7034                                   23656164.6174
                                                                        43.2504
        29.0004
 09 10  9 23 12  0.0000000  0  8G02G04G12G13G20G23G30G31
   -922538.14848   -649357.63746
                  21340568.7114                                   21340563.1804
                                                                        53.0004
        40.5004
   -468745.94948   -333722.73847
                  20530675.0004                                   20530671.8524
                                                                        52.2504
        42.5004
   -147580.05547   -105844.06645
                  23260655.0864                                   23260651.8204
                                                                        46.7504
        33.5004
  -1049954.80547   -739561.65245
                  22657298.0164                                   22657293.8094
                                                                        47.0004
        30.7504
     47203.09446     29617.81343
                  23483218.3984                                   23483214.1724
                                                                        40.5004
        22.5004
   -621580.77048   -438424.80146
                  21835783.1954                                   21835777.2774
                                                                        49.5004
        36.0004
   -452674.64147   -319490.11345
                  22524815.4144                                   22524812.3674
                                                                        47.5004
        31.0004
   -471883.85947   -333037.08244
                  23640126.8364                                   23640122.5824
                                                                        43.7504
        28.5004
 09 10  9 23 12 30.0000000  0  8G02G04G12G13G20G23G30G31
  -1087010.86348   -777518.19146
                  21309270.4064                                   21309265.2304
                                                                        52.5004
        41.2504
   -552316.87148   -398842.93047
                  20514772.0394                                   20514768.7814
                                                                        52.5004
        42.0004
   -174432.04747   -126767.72745
                  23255545.7814                                   23255541.8284
                                                                        45.5004
        33.2504
  -1237052.47747   -885352.08245
                  22621695.0084                                   22621690.6094
                                                                        46.2504
        30.7504
     54306.64546     35153.00843
                  23484569.6954                                   23484566.1334
                                                                        39.5004
        22.5004
   -732097.55548   -524541.77746
                  21814752.3134                                   21814746.3164
                                                                        49.5004
        36.0004
   -532946.99647   -382040.00445
                  22509539.7034                                   22509537.3134
                                                                        47.2504
        30.7504
   -555815.89547   -398438.68745
                  23624155.0554                                   23624151.1174
                                                                        44.2504
        30.2504
 09 10  9 23 13  0.0000000  0  8G02G04G12G13G20G23G30G31
  -1251224.47748   -905476.84846
                  21278021.8914                                   21278016.4964
                                                                        52.0004
        41.5004
   -635487.76248   -463651.42247
                  20498944.9844                                   20498941.3714
                                                                        51.2504
        42.7504
   -200985.98447   -147459.12145
                  23250492.4304                                   23250488.8094
                                                                        46.5004
        33.5004
  -1423895.64547  -1030944.19945
                  22586139.1804                                   22586135.3324
                                                                        47.0004
        30.2504
     61483.55146     40745.36744
                  23485936.2664                                   23485931.9454
                                                                        41.5004
        25.7504
   -842148.44947   -610295.73845
                  21793810.8524                                   21793804.5434
                                                                        47.5004
        35.2504
   -612711.25047   -444193.97745
                  22494361.3914                                   22494358.3364
                                                                        47.5004
        31.0004
   -639316.05147   -463503.75845
                  23608265.6174                                   23608261.6884
                                                                        44.0004
        30.0004
 09 10  9 23 13 30.0000000  0  8G02G04G12G13G20G23G30G31
  -1415137.58648  -1033201.34046
                  21246830.1644                                   21246824.5044
                                                                        51.7504
        40.5004
   -718219.53948   -528117.74647
                  20483201.6954                                   20483198.2304
                                                                        52.0004
        42.0004
   -227204.91047   -167889.47745
                  23245502.9924                                   23245499.5784
                                                                        45.7504
        34.2504
  -1610441.87947  -1176304.93445
                  22550641.5234                                   22550636.8134
                                                                        47.2504
        30.7504
     68770.46946     46423.45744
                  23487322.8364                                   23487318.5784
                                                                        41.7504
        25.7504
   -951693.71948   -695655.71145
                  21772965.1954                                   21772958.6334
                                                                        49.5004
        35.5004
   -691929.11747   -505922.18745
                  22479286.5084                                   22479283.7934
                                                                        47.0004
        31.5004
   -722346.05147   -528202.48844
                  23592465.7194                                   23592461.4884
                                                                        44.5004
        29.0004
 09 10  9 23 14  0.0000000  0  8G02G04G12G13G20G23G30G31
  -1578726.07848  -1160672.89146
                  21215700.4614                                   21215695.0784
                                                                        52.5004
        41.0004
   -800490.12148   -592224.68747
                  20467546.3054                                   20467543.0864
                                                                        52.2504
        42.2504
   -253069.06247   -188043.37545
                  23240581.5784                                   23240577.9024
                                                                        45.7504
        33.5004
  -1796665.48047  -1321414.18445
                  22515203.8674                                   22515200.2034
                                                                        46.5004
        32.0004
     76188.24647     52203.52344
                  23488734.8594                                   23488730.2034
                                                                        43.7504
        25.2504
  -1060709.78148   -780603.30945
                  21752219.7664                                   21752213.5394
                                                                        50.0004
        35.7504
   -770578.62547   -567207.53945
                  22464320.2034                                   22464317.3714
                                                                        47.0004
        30.7504
   -804883.43047   -592517.35944
                  23576759.2034                                   23576755.1374
                                                                        44.2504
        29.0004
 09 10  9 23 14 30.0000000  0  8G02G04G12G13G20G23G30G31
  -1741957.41448  -1287866.14146
                  21184638.6954                                   21184633.0204
                                                                        52.5004
        41.0004
   -882269.30948   -655948.74247
                  20451984.1564                                   20451980.7934
                                                                        52.7504
        42.2504
   -278549.96147   -207898.63345
                  23235732.7664                                   23235728.7074
                                                                        47.0004
        34.0004
  -1982533.18047  -1466246.10545
                  22479834.3364                                   22479830.1684
                                                                        47.0004
        32.2504
     83764.91047     58107.41043
                  23490175.6174                                   23490171.9494
                                                                        42.5004
        22.7504
  -1169165.78148   -865114.48445
                  21731581.1644                                   21731575.0044
                                                                        50.0004
        35.5004
   -848629.67647   -628026.54345
                  22449467.2274                                   22449464.7424
                                                                        47.7504
        30.2504
   -886897.99247   -656424.81644
                  23561152.0784                                   23561147.9304
                                                                        43.2504
        28.5004
 09 10  9 23 15  0.0000000  0  8G02G04G12G13G20G23G30G31
  -1904810.46948  -1414764.62546
                  21153648.5314                                   21153643.0984
                                                                        52.5004
        41.5004
   -963538.73048   -719275.56647
                  20436518.9614                                   20436515.9384
                                                                        52.2504
        42.2504
   -303631.41047   -227442.62145
                  23230959.9304                                   23230956.1954
                                                                        46.5004
        33.0004
  -2168023.05147  -1610783.66045
                  22444536.6174                                   22444532.9884
                                                                        47.2504
        31.0004
     91516.98846     64147.95343
                  23491651.0784                                   23491647.3204
                                                                        39.2504
        21.5004
  -1277042.32448   -949174.13345
                  21711053.0004                                   21711047.0124
                                                                        50.0004
        35.7504
   -926064.63347   -688365.46945
                  22434732.0234                                   22434729.0904
                                                                        45.2504
        30.5004
   -968371.77747   -719910.90244
                  23545647.7194                                   23545644.6524
                                                                        43.2504
        29.0004
 09 10  9 23 15 30.0000000  0  8G02G04G12G13G20G23G30G31
  -2067266.09448  -1541353.42646
                  21122734.4064                                   21122728.8244
                                                                        52.0004
        41.0004
  -1044281.22348   -782191.78947
                  20421154.2814                                   20421150.9654
                                                                        51.0004
        42.2504
   -328298.30547   -246663.59445
                  23226265.9304                                   23226261.8794
                                                                        47.2504
        32.7504
  -2353114.78547  -1755010.95345
                  22409314.8364                                   22409311.0124
                                                                        47.5004
        30.2504
     99459.59846     70336.99243
                  23493162.1094                                   23493157.7194
                                                                        38.7504
        21.0004
  -1384321.53548  -1032768.35245
                  21690638.6334                                   21690632.1254
                                                                        48.0004
        35.5004
  -1002866.90247   -748211.40245
                  22420117.6804                                   22420114.1454
                                                                        47.0004
        30.2504
  -1049287.65247   -782962.24244
                  23530249.7974                                   23530246.6914
                                                                        43.0004
        27.5004
 09 10  9 23 16  0.0000000  0  8G02G04G12G13G20G23G30G31
  -2229307.65248  -1667619.57046
                  21091899.0084                                   21091893.1094
                                                                        52.2504
        41.7504
  -1124482.64148   -844686.39547
                  20405892.3204                                   20405889.4144
                                                                        52.5004
        42.0004
   -352538.05947   -265551.71945
                  23221653.1724                                   23221649.0704
                                                                        46.7504
        32.2504
  -2537791.00847  -1898914.50045
                  22374172.3834                                   22374168.5744
                                                                        47.2504
        31.5004
    107604.93446     76683.98043
                  23494712.4384                                   23494708.0514
                                                                        39.0004
        21.5004
  -1490988.58648  -1115885.53545
                  21670340.7424                                   21670334.4184
                                                                        50.2504
        35.7504
  -1079022.35247   -807553.30945
                  22405625.4144                                   22405622.4614
                                                                        47.0004
        31.2504
  -1129631.59047   -845567.92244
                  23514961.6094                                   23514957.6454
                                                                        42.0004
        29.0004
 09 10  9 23 16 30.0000000  0  8G02G04G12G13G20G23G30G31
   -815499.57048   -565950.94146
                  21360937.5084                                   21360931.7624
                                                                        52.2504
        41.5004
    371287.31648    320848.64146
                  20690527.9304                                   20690524.4384
                                                                        53.0004
        41.7504
   1199075.20747    943497.57045
                  23516915.4694                                   23516911.2734
                                                                        46.7504
        31.5004
  -1146614.55547   -814880.88745
                  22638904.5704                                   22638900.0984
                                                                        47.5004
        30.7504
   1691378.91446   1310793.57844
                  23796095.2894                                   23796090.8674
                                                                        40.5004
        24.5004
    -21611.25048     29083.81646
                  21949953.8204                                   21949947.5474
                                                                        49.5004
        36.0004
    420898.75847    361216.37545
                  22691051.0474                                   22691047.7664
                                                                        46.5004
        30.0004
    366026.81347    319880.16844
                  23799575.6724                                   23799571.9344
                                                                        43.0004
        27.7504
 09 10  9 23 17  0.0000000  0  8G02G04G12G13G20G23G30G31
   -976679.09048   -691545.37546
                  21330266.2974                                   21330260.6724
                                                                        51.5004
        41.5004
    292195.14148    259218.37547
                  20675477.1644                                   20675473.8634
                                                                        51.7504
        42.0004
   1175709.71147    925290.69545
                  23512469.3364                                   23512464.7234
                                                                        46.0004
        31.7504
  -1330422.48047   -958107.85245
                  22603926.7814                                   22603923.2424
                                                                        47.5004
        32.2504
   1699952.11746   1317473.97344
                  23797726.1094                                   23797722.3874
                                                                        40.7504
        26.0004
   -127023.82848    -53055.86745
                  21929894.3364                                   21929888.1334
                                                                        50.2504
        35.5004
    346062.30547    302902.25045
                  22676810.2034                                   22676807.3014
                                                                        44.5004
        30.0004
    286853.61347    258186.76644
                  23784509.3054                                   23784505.8914
                                                                        43.5004
        27.5004
 09 10  9 23 17 30.0000000  0  8G02G04G12G13G20G23G30G31
  -1137410.51248   -816790.64146
                  21299679.9144                                   21299674.5824
                                                                        51.0004
        41.2504
    213670.94548    198030.69147
                  20660534.4614                                   20660531.0474
                                                                        51.5004
        42.0004
   1152792.06647    907432.78545
                  23508107.7664                                   23508104.1094
                                                                        46.7504
        31.2504
  -1513778.02047  -1100982.29345
                  22569034.9224                                   22569031.5554
                                                                        47.5004
        31.7504
   1708749.72347   1324329.22344
                  23799400.6484                                   23799396.2934
                                                                        42.0004
        25.5004
   -231794.63748   -134695.47345
                  21909957.1644                                   21909951.0784
                                                                        49.2504
        35.7504
    271898.32047    245112.13745
                  22662697.2114                                   22662694.1524
                                                                        44.5004
        30.7504
    208279.10947    196959.87144
                  23769557.4064                                   23769553.5234
                                                                        43.0004
        28.5004
 09 10  9 23 18  0.0000000  0  8G02G04G12G13G20G23G30G31
  -1297685.09448   -941679.93046
                  21269180.5634                                   21269175.2934
                                                                        51.5004
        41.0004
    135720.88748    137290.38747
                  20645701.0474                                   20645697.4654
                                                                        53.0004
        42.5004
   1130326.23047    889926.92245
                  23503832.3134                                   23503829.4304
                                                                        46.5004
        32.5004
  -1696671.23847  -1243496.47745
                  22534231.9384                                   22534228.0434
                                                                        47.2504
        31.7504
   1717776.20746   1331362.81644
                  23801117.9144                                   23801114.5084
                                                                        40.7504
        24.2504
   -335916.58648   -215829.47345
                  21890143.1484                                   21890137.2384
                                                                        48.5004
        35.5004
    198412.42247    187850.39345
                  22648713.2114                                   22648709.9964
                                                                        46.7504
        31.0004
    130309.05147    136203.91444
                  23754719.9614                                   23754716.8134
                                                                        43.5004
        28.7504
 09 10  9 23 18 30.0000000  0  8G02G04G12G13G20G23G30G31
  -1457495.34048  -1066207.38347
                  21238769.6414                                   21238764.3244
                                                                        51.2504
        42.0004
     58350.60248     77001.84846
                  20630977.9224                                   20630974.7344
                                                                        52.5004
        41.7504
   1108315.74247    872775.86345
                  23499644.4844                                   23499640.5744
                                                                        46.5004
        33.2504
  -1879093.29348  -1385643.47745
                  22499518.4144                                   22499513.8014
                                                                        48.0004
        32.5004
   1727035.42246   1338577.75043
                  23802879.8284                                   23802876.0004
                                                                        39.2504
        21.7504
   -439383.09848   -296452.73845
                  21870454.2274                                   21870448.2384
                                                                        48.5004
        35.5004
    125609.50047    131120.84845
                  22634859.0704                                   22634855.6414
                                                                        46.7504
        30.5004
     52948.87947     75923.25844
                  23739998.8594                                   23739994.7384
                                                                        43.0004
        28.5004
 09 10  9 23 19  0.0000000  0  8G02G04G12G13G20G23G30G31
  -1616833.39148  -1190366.90247
                  21208448.7194                                   21208443.5354
                                                                        50.7504
        42.0004
    -18434.96148     17168.93846
                  20616366.1484                                   20616363.1214
                                                                        53.5004
        41.7504
   1086763.74647    855982.09045
                  23495543.3914                                   23495539.7074
                                                                        47.7504
        33.5004
  -2061036.07448  -1527417.05545
                  22464895.5634                                   22464891.2274
                                                                        48.0004
        31.5004
   1736530.87946   1345976.76643
                  23804686.4694                                   23804682.6724
                                                                        39.0004
        20.0004
   -542188.56248   -376560.91445
                  21850891.2274                                   21850885.1844
                                                                        48.7504
        35.5004
     53494.28947     74927.17245
                  22621136.2114                                   22621133.1254
                                                                        45.5004
        30.5004
    -23796.21147     16121.90644
                  23725394.3914                                   23725391.0474
                                                                        44.0004
        28.0004
 09 10  9 23 19 30.0000000  0  8G02G04G12G13G20G23G30G31
  -1775689.55948  -1314150.93746
                  21178219.4224                                   21178213.8954
                                                                        51.0004
        41.2504
    -94628.28948    -42202.48047
                  20601867.0634                                   20601864.0784
                                                                        52.7504
        42.5004
   1065675.54748    839549.68445
                  23491530.7274                                   23491526.9774
                                                                        48.0004
        33.2504
  -2242488.64548  -1668808.65245
                  22430365.9774                                   22430362.1914
                                                                        48.0004
        31.5004
   1746268.17246   1353564.27043
                  23806539.2504                                   23806535.4104
                                                                        40.5004
        19.5004
   -644324.76647   -456147.56245
                  21831455.2424                                   21831449.1764
                                                                        47.7504
        35.5004
    -17926.27747     19274.76645
                  22607545.5784                                   22607542.4494
                                                                        45.5004
        30.7504
    -99919.33647    -43194.83244
                  23710908.9454                                   23710905.1804
                                                                        43.5004
        28.7504
 09 10  9 23 20  0.0000000  0  8G02G04G12G13G20G23G30G31
  -1934056.58648  -1437553.82446
                  21148083.6094                                   21148078.1214
                                                                        52.0004
        41.7504
   -170224.43048   -101108.55947
                  20587481.6954                                   20587478.5124
                                                                        53.5004
        42.5004
   1045054.48048    823481.32445
                  23487606.5084                                   23487602.8674
                                                                        49.0004
        34.0004
  -2423442.23047  -1809811.43045
                  22395932.1884                                   22395928.0704
                                                                        47.5004
        32.0004
   1756250.79747   1361342.96943
                  23808439.4614                                   23808435.0044
                                                                        43.5004
        22.0004
   -745785.57048   -535207.93745
                  21812147.8834                                   21812141.4924
                                                                        49.2504
        35.7504
    -88647.57447    -35832.73845
                  22594087.8984                                   22594084.2504
                                                                        45.2504
        31.0004
   -175415.12547   -102022.72744
                  23696542.9454                                   23696539.3244
                                                                        44.7504
        29.0004
 09 10  9 23 20 30.0000000  0  8G02G04G12G13G20G23G30G31
  -2091934.65248  -1560575.69146
                  21118040.1644                                   21118034.9574
                                                                        51.5004
        41.5004
   -245226.12948   -159551.44547
                  20573209.2894                                   20573206.1254
                                                                        53.7504
        42.0004
   1024895.37147    807772.91845
                  23483769.9064                                   23483766.5744
                                                                        47.5004
        32.5004
  -2603896.75048  -1950425.31245
                  22361592.2504                                   22361588.9884
                                                                        48.2504
        31.5004
   1766473.78547   1369308.93444
                  23810385.4454                                   23810381.4104
                                                                        43.7504
        24.0004
   -846573.46548   -613743.95746
                  21792968.4694                                   21792962.3164
                                                                        49.0004
        36.0004
   -158673.37947    -90398.31245
                  22580762.0474                                   22580758.1804
                                                                        46.2504
        30.5004
   -250287.04747   -160364.48844
                  23682295.2894                                   23682291.5474
                                                                        44.5004
        29.5004
 09 10  9 23 21  0.0000000  0  8G02G04G12G13G20G23G30G31
  -2249318.79748  -1683212.68447
                  21088090.9774                                   21088085.6994
                                                                        51.7504
        42.0004
   -319630.97348   -217529.24246
                  20559050.7114                                   20559047.3594
                                                                        53.5004
        41.7504
   1005198.93447    792425.05145
                  23480021.7344                                   23480017.8204
                                                                        47.5004
        32.2504
  -2783846.02348  -2090645.51245
                  22327349.3444                                   22327345.6454
                                                                        49.0004
        32.2504
   1776938.32847   1377463.09044
                  23812376.9774                                   23812373.1764
                                                                        45.0004
        26.0004
   -946684.97348   -691752.93045
                  21773918.1024                                   21773912.0864
                                                                        49.0004
        35.5004
   -228001.75447   -144420.41045
                  22567569.6644                                   22567566.0784
                                                                        45.2504
        31.0004
   -324532.82847   -218218.34444
                  23668167.0394                                   23668162.3554
                                                                        44.5004
        29.5004
 09 10  9 23 21 30.0000000  0  8G02G04G12G13G20G23G30G31
  -2406204.22348  -1805461.06646
                  21058236.3914                                   21058231.1454
                                                                        50.7504
        41.7504
   -393436.55148   -275040.08647
                  20545005.9304                                   20545002.7464
                                                                        53.7504
        42.5004
    985965.50847    777437.97345
                  23476361.9304                                   23476358.5084
                                                                        47.7504
        32.5004
  -2963284.22348  -2230467.46945
                  22293203.3284                                   22293198.9964
                                                                        48.5004
        32.2504
   1787645.43047   1385806.26243
                  23814413.9454                                   23814410.1644
                                                                        42.0004
        22.2504
  -1046116.82447   -769232.30546
                  21754996.7814                                   21754991.0124
                                                                        47.5004
        36.5004
   -296630.76647   -197897.56645
                  22554509.5394                                   22554506.5354
                                                                        45.5004
        30.0004
   -398149.92247   -275582.30944
                  23654157.9224                                   23654154.3284
                                                                        44.5004
        28.2504
 09 10  9 23 22  0.0000000  0  8G02G04G12G13G20G23G30G31
  -2562588.98048  -1927319.31246
                  21028477.4384                                   21028472.3094
                                                                        51.5004
        41.7504
   -466643.36748   -332084.36347
                  20531075.1484                                   20531072.0474
                                                                        52.7504
        42.5004
    967192.46947    762809.61345
                  23472789.6094                                   23472785.9454
                                                                        47.0004
        31.5004
  -3142208.91847  -2369889.31645
                  22259154.9534                                   22259151.2664
                                                                        47.7504
        32.5004
   1798592.59846   1394336.41443
                  23816495.5234                                   23816493.4804
                                                                        38.5004
        19.2504
  -1144868.85548   -846181.93045
                  21736205.0704                                   21736198.7154
                                                                        49.2504
        35.5004
   -364561.36347   -250830.50445
                  22541582.9454                                   22541579.4384
                                                                        44.5004
        31.0004
   -471139.17247   -332457.04744
                  23640268.6484                                   23640264.2424
                                                                        45.0004
        29.5004
 09 10  9 23 22 30.0000000  0  8G02G04G12G13G20G23G30G31
  -2718469.04748  -2048784.29347
                  20998814.3134                                   20998808.7814
                                                                        52.0004
        42.0004
   -539249.66448   -388660.68747
                  20517258.5164                                   20517255.6094
                                                                        53.5004
        42.0004
    948880.11347    748540.21145
                  23469304.6724                                   23469301.2734
                                                                        47.0004
        30.5004
  -3320614.60948  -2508906.69545
                  22225205.2114                                   22225201.2814
                                                                        48.0004
        32.0004
   1809779.76646   1403053.66843
                  23818626.0234                                   23818622.2464
                                                                        41.2504
        21.5004
  -1242938.63748   -922599.94146
                  21717542.7504                                   21717537.0394
                                                                        48.5004
        36.0004
   -431792.18447   -303218.15645
                  22528789.6804                                   22528786.4534
                                                                        45.7504
        30.2504
   -543499.29347   -388841.56644
                  23626499.3594                                   23626494.9614
                                                                        44.5004
        28.2504
 09 10  9 23 23  0.0000000  0  8G02G04G12G13G20G23G30G31
  -2873841.86348  -2169854.01646
                  20969248.2894                                   20969242.7544
                                                                        51.7504
        41.5004
   -611255.42248   -444769.07047
                  20503556.0314                                   20503552.8364
                                                                        53.5004
        42.0004
    931025.59447    734627.59045
                  23465907.5634                                   23465903.7154
                                                                        47.5004
        30.7504
  -3498497.61347  -2647516.79345
                  22191355.7584                                   22191351.4344
                                                                        47.7504
        32.5004
   1821206.05947   1411957.24243
                  23820800.2504                                   23820796.2854
                                                                        42.5004
        22.0004
  -1340324.95348   -998485.38746
                  21699010.7734                                   21699004.8204
                                                                        48.7504
        36.0004
   -498324.24647   -355061.33645
                  22516128.5234                                   22516125.6374
                                                                        45.7504
        31.5004
   -615230.21547   -444735.80544
                  23612849.0704                                   23612844.8324
                                                                        44.0004
        28.2504
 09 10  9 23 23 30.0000000  0  8G02G04G12G13G20G23G30G31
  -3028705.13348  -2290526.68447
                  20939778.3284                                   20939772.9224
                                                                        51.7504
        42.0004
   -682661.00848   -500409.78947
                  20489968.1564                                   20489964.9804
                                                                        52.7504
        42.0004
    913627.75047    721070.83645
                  23462596.8364                                   23462592.7424
                                                                        47.7504
        32.2504
  -3675855.08648  -2785717.42245
                  22157605.6414                                   22157601.3714
                                                                        48.7504
        31.7504
   1832869.05947   1421045.26243
                  23823019.8674                                   23823015.3984
                                                                        44.0004
        22.2504
  -1437028.10248  -1073838.48845
                  21680608.6954                                   21680602.9654
                                                                        48.7504
        35.0004
   -564157.99647   -406360.35945
                  22503600.4694                                   22503597.9304
                                                                        45.0004
        30.0004
   -686332.60947   -500140.28544
                  23599318.3134                                   23599314.8244
                                                                        45.0004
        28.5004
 09 10  9 23 24  0.0000000  0  8G02G04G12G13G20G23G30G31
  -3183055.41448  -2410799.62947
                  20910406.7034                                   20910401.3914
                                                                        52.0004
        42.2504
   -753465.46548   -555582.09447
                  20476494.5234                                   20476491.5634
                                                                        53.2504
        42.0004
    896685.32447    707868.91445
                  23459372.5944                                   23459368.7274
                                                                        47.7504
        32.5004
  -3852682.43448  -2923504.92645
                  22123956.4694                                   22123952.2304
                                                                        48.7504
        32.0004
   1844768.59046   1430317.66843
                  23825284.0474                                   23825279.7544
                                                                        41.2504
        21.0004
  -1533045.71148  -1148657.38345
                  21662337.2894                                   21662331.2304
                                                                        48.0004
        35.5004
   -629293.22747   -457115.09445
                  22491205.7974                                   22491203.2584
                                                                        45.0004
        31.0004
   -756805.50047   -555054.23444
                  23585908.0164                                   23585904.0634
                                                                        44.5004
        28.7504
 09 10  9 23 24 30.0000000  0  8G02G04G12G13G20G23G30G31
  -3336888.64848  -2530669.67646
                  20881133.0784                                   20881127.6564
                                                                        52.0004
        41.7504
   -823667.23048   -610284.77047
                  20463135.6644                                   20463132.4224
                                                                        53.2504
        42.2504
    880197.88347    695021.55945
                  23456235.8054                                   23456231.0944
                                                                        47.5004
        32.5004
  -4028975.44148  -3060876.06645
                  22090408.7814                                   22090404.3524
                                                                        48.5004
        32.5004
   1856904.49646   1439774.18043
                  23827592.8984                                   23827589.7774
                                                                        39.5004
        20.7504
  -1628376.24648  -1222940.90645
                  21644196.6334                                   21644190.5004
                                                                        49.0004
        35.7504
   -693728.79747   -507324.64544
                  22478944.3134                                   22478941.1994
                                                                        45.5004
        29.7504
   -826647.58247   -609476.64844
                  23572617.7814                                   23572613.7194
                                                                        44.5004
        29.0004
 09 10  9 23 25  0.0000000  0  8G02G04G12G13G20G23G30G31
  -1914775.77048  -1422529.77047
                  21151752.2814                                   21151746.4454
                                                                        52.0004
        42.0004
    682157.71548    563085.31647
                  20749684.4774                                   20749681.4734
                                                                        53.0004
        42.0004
   2439584.94547   1910128.35245
                  23752977.4064                                   23752973.2154
                                                                        47.0004
        33.0004
  -2629302.30148  -1970221.66445
                  22356757.7034                                   22356753.4264
                                                                        48.7504
        32.5004
   3444696.70746   2677014.80943
                  24129739.4304                                   24129736.2774
                                                                        39.0004
        20.7504
   -147593.48048    -69084.21145
                  21925980.1484                                   21925974.3164
                                                                        49.0004
        35.5004
    817957.71147    670612.88345
                  22766608.6024                                   22766605.9414
                                                                        44.5004
        30.5004
    679564.55547    564195.14144
                  23859240.3674                                   23859236.0784
                                                                        45.0004
        28.5004
 09 10  9 23 25 30.0000000  0  8G02G04G12G13G20G23G30G31
  -2067567.72348  -1541588.43747
                  21122676.7344                                   21122671.1214
                                                                        52.0004
        42.0004
    613160.88748    509321.55947
                  20736554.7664                                   20736552.0554
                                                                        52.7504
        42.5004
   2424000.75447   1897984.82045
                  23750010.8914                                   23750007.4414
                                                                        47.0004
        31.7504
  -2804515.49248  -2106751.38745
                  22323415.7734                                   22323411.7424
                                                                        48.0004
        32.0004
   3457300.59846   2686836.01643
                  24132138.5084                                   24132135.3324
                                                                        41.0004
        21.7504
   -241547.21948   -142294.93045
                  21908101.0004                                   21908095.4614
                                                                        49.2504
        35.5004
    754918.47747    621491.39145
                  22754612.6254                                   22754609.9654
                                                                        45.5004
        31.2504
    610982.52747    510754.60244
                  23846189.5164                                   23846185.4064
                                                                        43.7504
        28.5004
 09 10  9 23 26  0.0000000  0  8G02G04G12G13G20G23G30G31
  -2219836.56248  -1660239.47747
                  21093701.1484                                   21093695.7034
                                                                        51.5004
        42.2504
    544765.58648    456026.52047
                  20723539.5084                                   20723536.3954
                                                                        52.7504
        42.5004
   2408864.35947   1886190.19945
                  23747130.4614                                   23747127.6214
                                                                        45.7504
        31.5004
  -2979184.79348  -2242857.32045
                  22290176.8204                                   22290173.4184
                                                                        48.5004
        32.5004
   3470135.27746   2696837.02343
                  24134581.1174                                   24134577.5704
                                                                        40.0004
        22.0004
   -334812.61348   -214969.27045
                  21890353.2274                                   21890347.0354
                                                                        49.0004
        35.7504
    692575.51647    572912.46145
                  22742749.2894                                   22742746.8834
                                                                        45.2504
        31.0004
    543029.30147    457804.02044
                  23833258.6804                                   23833254.2774
                                                                        45.0004
        27.7504
 09 10  9 23 26 30.0000000  0  8G02G04G12G13G20G23G30G31
  -2371588.46148  -1778487.71547
                  21064823.7734                                   21064817.8284
                                                                        52.0004
        42.2504
    476963.05148    403193.37147
                  20710637.0084                                   20710634.0164
                                                                        52.7504
        42.5004
   2394165.07047   1874736.16045
                  23744333.3364                                   23744330.3484
                                                                        46.0004
        31.0004
  -3153315.08648  -2378543.23445
                  22257041.6564                                   22257037.5634
                                                                        49.2504
        33.0004
   3483190.87146   2707010.20343
                  24137065.2584                                   24137062.0864
                                                                        39.5004
        21.2504
   -427397.59848   -287113.41446
                  21872735.4454                                   21872729.2504
