     2.11           OBSERVATION DATA    G (GPS)             RINEX VERSION / TYPE
teqc  2019Feb25                         20221121 12:28:20UTCPGM / RUN BY / DATE
OSX ker:10.11.6|Core i5|gcc 4.3 -m64|OSX ker:10.10+|=+      COMMENT
BIT 2 OF LLI FLAGS DATA COLLECTED UNDER A/S CONDITION       COMMENT
04712870                                                    MARKER NAME
2870                                                        MARKER NUMBER
-Unknown-           -Unknown-                               OBSERVER / AGENCY
0220400471          TRIMBLE R7          2.30                REC # / TYPE / VERS
-Unknown-           TRM39105.00     NONE                    ANT # / TYPE
  1449460.7064 -1709241.9096  5952444.3786                  APPROX POSITION XYZ
        0.0000        0.0000        0.0000                  ANTENNA: DELTA H/E/N
     1     1                                                WAVELENGTH FACT L1/2
    20    L1    L2    L5    L6    L7    L8    C1    P1    C2# / TYPES OF OBSERV
          P2    C5    C6    C7    C8    S1    S2    S5    S6# / TYPES OF OBSERV
          S7    S8                                          # / TYPES OF OBSERV
    30.0000                                                 INTERVAL
    15                                                      LEAP SECONDS
Forced Modulo Decimation to 30 seconds                      COMMENT
 SNR is mapped to RINEX snr flag value [0-9]                COMMENT
  L1 & L2: min(max(int(snr_dBHz/6), 0), 9)                  COMMENT
teqc edited: Beidou # 1 - 37 excluded                       COMMENT
  2009    10    14     0     0    0.0000000     GPS         TIME OF FIRST OBS
                                                            END OF HEADER
 09 10 14  0  0  0.0000000  0  9G02G04G05G13G29G23G30G10G25
 -11078860.87148  -8577506.07047
                  20474811.1564                                   20474806.0004
                                                                        52.5004
        43.2504
  -2596809.17648  -2000421.07046
                  21718682.4064                                   21718678.6644
                                                                        51.0004
        38.5004
  -8609326.56247  -6663368.40645
                  23428023.6334                                   23428020.1094
                                                                        44.0004
        31.2504
 -13073082.44548 -10123995.98046
                  21288207.0554                                   21288202.6804
                                                                        49.7504
        36.5004
 -14128642.83247 -10972309.41045
                  23020252.3834                                   23020248.4884
                                                                        43.2504
        32.5004
  -4677057.30147  -3613687.11745
                  22481848.6564                                   22481842.8164
                                                                        47.2504
        33.0004
  -1701594.75047  -1305058.64143
                  23900961.9694                                   23900959.7544
                                                                        43.0004
        22.5004
 -14343609.57847 -11129761.79345
                  22584694.9224                                   22584691.6334
                                                                        46.5004
        33.0004
  -2570348.32046  -1963907.56644
                  24008743.3594                                   24008740.0474
                                                                        41.2504
        24.7504
 09 10 14  0  0 30.0000000  0  9G02G04G05G13G29G23G30G10G25
 -11155409.55548  -8637154.40647
                  20460244.4534                                   20460238.6094
                                                                        52.7504
        43.0004
  -2594415.22348  -1998555.67246
                  21719137.9774                                   21719134.4384
                                                                        50.0004
        38.2504
  -8792569.32447  -6806154.94545
                  23393154.6024                                   23393150.6454
                                                                        45.2504
        33.0004
 -13165885.50448 -10196310.04346
                  21270547.2664                                   21270543.0824
                                                                        50.0004
        36.5004
 -14279024.73847 -11089490.10545
                  22991635.9064                                   22991632.3204
                                                                        44.2504
        32.2504
  -4689616.94148  -3623473.86745
                  22479458.6884                                   22479452.8984
                                                                        48.0004
        31.7504
  -1688761.57447  -1295058.77343
                  23903404.0554                                   23903401.5594
                                                                        42.7504
        21.7504
 -14521210.91447 -11268152.44145
                  22550899.0164                                   22550895.6644
                                                                        47.5004
        33.5004
  -2731520.13346  -2089495.91043
                  23978072.4694                                   23978069.4964
                                                                        40.5004
        22.7504
 09 10 14  0  1  0.0000000  0  9G02G04G05G13G29G23G30G10G25
 -11231341.81648  -8696322.41447
                  20445795.1564                                   20445789.5554
                                                                        52.5004
        43.5004
  -2591587.87548  -1996352.57046
                  21719675.8834                                   21719672.2894
                                                                        50.0004
        37.5004
  -8975567.41447  -6948750.82845
                  23358330.8984                                   23358326.8954
                                                                        45.5004
        33.7504
 -13257989.46148 -10268079.37946
                  21253020.5784                                   21253015.7114
                                                                        50.0004
        36.5004
 -14428936.35547 -11206304.34845
                  22963108.5314                                   22963104.4774
                                                                        43.7504
        33.0004
  -4701632.81647  -3632836.89145
                  22477172.1414                                   22477165.9774
                                                                        47.2504
        30.7504
  -1675503.80947  -1284728.04743
                  23905927.7274                                   23905923.7734
                                                                        42.5004
        22.7504
 -14698471.78547 -11406277.80945
                  22517167.1644                                   22517163.6954
                                                                        46.5004
        34.0004
  -2892333.57846  -2214805.02043
                  23947471.3594                                   23947468.1134
                                                                        41.2504
        22.7504
 09 10 14  0  1 30.0000000  0  9G02G04G05G13G29G23G30G10G25
 -11306660.02048  -8755011.90647
                  20431462.6174                                   20431456.7974
                                                                        52.5004
        42.5004
  -2588331.33248  -1993815.07846
                  21720295.8284                                   21720291.9494
                                                                        50.5004
        37.5004
  -9158320.92247  -7091156.14145
                  23323554.4774                                   23323550.8484
                                                                        45.0004
        33.0004
 -13349395.50448 -10339304.85546
                  21235626.4614                                   21235621.8794
                                                                        50.5004
        36.5004
 -14578377.67647 -11322752.14545
                  22934670.3754                                   22934666.9414
                                                                        43.7504
        32.0004
  -4713109.51247  -3641779.72345
                  22474988.3134                                   22474981.9614
                                                                        47.5004
        31.7504
  -1661826.77047  -1274070.57443
                  23908530.5554                                   23908526.7074
                                                                        43.7504
        23.5004
 -14875392.55147 -11544138.12545
                  22483499.9224                                   22483497.0234
                                                                        46.5004
        33.5004
  -3052788.04346  -2339834.49643
                  23916937.6564                                   23916934.3134
                                                                        41.2504
        22.5004
 09 10 14  0  2  0.0000000  0  9G02G04G05G13G29G23G30G10G25
 -11381362.58648  -8813221.64547
                  20417247.2584                                   20417241.3444
                                                                        52.7504
        42.7504
  -2584646.34448  -1990943.68446
                  21720996.8364                                   21720993.6524
                                                                        50.7504
        37.5004
  -9340826.95747  -7233368.63745
                  23288823.7974                                   23288820.0314
                                                                        45.0004
        33.2504
 -13440102.62548 -10409985.72346
                  21218365.1644                                   21218360.8094
                                                                        50.0004
        37.0004
 -14727344.95747 -11438830.54745
                  22906323.4694                                   22906319.5824
                                                                        44.0004
        32.0004
  -4724048.40247  -3650303.53545
                  22472906.5474                                   22472900.4344
                                                                        47.0004
        31.2504
  -1647732.62947  -1263088.13343
                  23911212.2274                                   23911208.8914
                                                                        44.0004
        22.7504
 -15051970.16447 -11681731.02745
                  22449898.6804                                   22449895.4184
                                                                        44.7504
        33.7504
  -3212879.62947  -2464581.16443
                  23886473.3914                                   23886469.3164
                                                                        42.5004
        22.5004
 09 10 14  0  2 30.0000000  0  9G02G04G05G13G29G23G30G10G25
 -11455449.37148  -8870951.47347
                  20403148.8204                                   20403143.1334
                                                                        52.5004
        42.5004
  -2580534.88348  -1987739.98046
                  21721779.3754                                   21721776.2734
                                                                        50.0004
        37.7504
  -9523083.38747  -7375386.62945
                  23254141.2504                                   23254137.8324
                                                                        44.5004
        30.5004
 -13530110.30148 -10480121.56246
                  21201237.5164                                   21201232.9184
                                                                        50.0004
        37.0004
 -14875836.30947 -11554538.09445
                  22878066.2034                                   22878062.4734
                                                                        43.2504
        31.7504
  -4734451.84847  -3658410.09445
                  22470926.5634                                   22470920.5824
                                                                        46.5004
        31.0004
  -1633224.50847  -1251783.14844
                  23913973.0474                                   23913969.8554
                                                                        42.2504
        24.5004
 -15228202.48447 -11819054.87145
                  22416362.5784                                   22416359.3874
                                                                        46.2504
        33.7504
  -3372605.91447  -2589043.18043
                  23856078.4144                                   23856074.6134
                                                                        42.7504
        22.0004
 09 10 14  0  3  0.0000000  0  9G02G04G05G13G29G23G30G10G25
 -11528921.86748  -8928202.76647
                  20389167.4454                                   20389161.6914
                                                                        52.0004
        42.5004
  -2576000.22748  -1984206.44146
                  21722642.6564                                   21722638.9494
                                                                        50.0004
        37.5004
  -9705089.86747  -7517209.85545
                  23219506.7504                                   23219503.0744
                                                                        45.2504
        31.0004
 -13619419.62948 -10549713.23446
                  21184242.6024                                   21184238.5394
                                                                        49.2504
        37.0004
 -15023850.15247 -11669873.52345
                  22849899.5784                                   22849896.1954
                                                                        43.0004
        32.0004
  -4744323.07447  -3666101.94545
                  22469048.0704                                   22469041.8404
                                                                        46.2504
        30.2504
  -1618306.41046  -1240158.68443
                  23916811.6564                                   23916809.2734
                                                                        41.5004
        22.5004
 -15404088.31647 -11956108.79745
                  22382892.7274                                   22382889.0124
                                                                        47.2504
        35.0004
  -3531965.34447  -2713219.34843
                  23825753.3754                                   23825749.6414
                                                                        42.5004
        22.5004
 09 10 14  0  3 30.0000000  0  9G02G04G05G13G29G23G30G10G25
 -11601779.42248  -8984974.96147
                  20375303.0084                                   20375297.1024
                                                                        52.2504
        42.5004
  -2571043.98848  -1980344.42646
                  21723585.3364                                   21723582.2624
                                                                        50.0004
        38.0004
  -9886843.36747  -7658835.96945
                  23184920.8984                                   23184916.9534
                                                                        47.0004
        33.0004
 -13708029.80548 -10618760.12946
                  21167380.5944                                   21167376.2114
                                                                        49.2504
        37.2504
 -15171384.19547 -11784835.07845
                  22821824.7424                                   22821821.8094
                                                                        44.2504
        32.0004
  -4753664.14847  -3673380.68745
                  22467270.6094                                   22467265.1024
                                                                        46.0004
        30.7504
  -1602981.68746  -1228217.36343
                  23919728.3834                                   23919725.1174
                                                                        41.5004
        22.7504
 -15579625.36747 -12092890.96545
                  22349489.3444                                   22349485.9144
                                                                        46.5004
        33.7504
  -3690955.00446  -2837107.39544
                  23795498.9694                                   23795495.0354
                                                                        41.5004
        24.5004
 09 10 14  0  4  0.0000000  0  9G02G04G05G13G29G23G30G10G25
 -11674021.66048  -9041267.63747
                  20361556.0864                                   20361550.2274
                                                                        52.5004
        42.7504
  -2565668.47348  -1976155.73046
                  21724608.6484                                   21724604.7344
                                                                        49.0004
        37.5004
 -10068343.01247  -7800264.27745
                  23150382.7734                                   23150378.3524
                                                                        47.0004
        32.7504
 -13795940.62148 -10687262.06246
                  21150651.2814                                   21150647.0784
                                                                        49.0004
        36.7504
 -15318436.53147 -11899421.26245
                  22793841.7584                                   22793838.3554
                                                                        44.2504
        33.0004
  -4762477.27347  -3680248.05545
                  22465593.7734                                   22465587.8364
                                                                        47.5004
        31.7504
  -1587253.47746  -1215961.66044
                  23922720.8754                                   23922718.3324
                                                                        41.5004
        24.7504
 -15754811.57447 -12229399.68045
                  22316152.5004                                   22316148.8204
                                                                        46.2504
        34.2504
  -3849572.40246  -2960705.31643
                  23765314.6644                                   23765311.6644
                                                                        40.0004
        22.5004
 09 10 14  0  4 30.0000000  0  9G02G04G05G13G29G23G30G10G25
 -11745650.00848  -9097081.98847
                  20347925.3524                                   20347919.5394
                                                                        51.7504
        42.2504
  -2559876.59048  -1971642.57846
                  21725710.2734                                   21725707.1094
                                                                        48.7504
        37.5004
 -10249587.57847  -7941493.80945
                  23115893.1954                                   23115888.8364
                                                                        47.0004
        34.2504
 -13883153.03548 -10755219.79746
                  21134055.5704                                   21134051.1214
                                                                        49.5004
        37.2504
 -15465006.23047 -12013631.40245
                  22765950.4774                                   22765946.9774
                                                                        44.2504
        33.7504
  -4770765.91447  -3686706.72745
                  22464017.2034                                   22464010.4614
                                                                        46.5004
        31.5004
  -1571126.59046  -1203395.30943
                  23925789.7814                                   23925787.3094
                                                                        41.2504
        22.2504
 -15929645.76247 -12365634.07845
                  22282882.7974                                   22282878.8364
                                                                        46.0004
        33.5004
  -4007815.97346  -3084011.94144
                  23735201.8594                                   23735198.5904
                                                                        39.7504
        24.0004
 09 10 14  0  5  0.0000000  0  9G02G04G05G13G29G23G30G10G25
 -11816664.44948  -9152417.86347
                  20334412.0634                                   20334406.2154
                                                                        52.2504
        42.7504
  -2553671.07048  -1966807.15246
                  21726891.5164                                   21726887.7424
                                                                        49.7504
        37.2504
 -10430575.50847  -8082523.32445
                  23081451.5234                                   23081448.3554
                                                                        47.2504
        33.5004
 -13969667.37148 -10822633.55546
                  21117592.5084                                   21117588.3794
                                                                        49.5004
        36.5004
 -15611091.75847 -12127464.28145
                  22738151.6954                                   22738148.1994
                                                                        45.0004
        33.7504
  -4778533.06647  -3692759.04345
                  22462538.5394                                   22462532.5394
                                                                        46.5004
        31.5004
  -1554604.10247  -1190520.66043
                  23928934.2894                                   23928930.8364
                                                                        42.0004
        23.2504
 -16104126.71547 -12501593.21545
                  22249679.4454                                   22249676.6454
                                                                        46.5004
        34.0004
  -4165683.84446  -3207025.82843
                  23705160.8284                                   23705157.2894
                                                                        41.2504
        22.5004
 09 10 14  0  5 30.0000000  0  9G02G04G05G13G29G23G30G10G25
 -11887066.84848  -9207276.85947
                  20321014.7034                                   20321009.0944
                                                                        51.7504
        42.7504
  -2547055.56248  -1961652.25046
                  21728150.2734                                   21728146.5434
                                                                        48.5004
        36.5004
 -10611306.73847  -8223352.82445
                  23047059.3754                                   23047055.9804
                                                                        45.7504
        32.2504
 -14055485.34848 -10889504.70346
                  21101262.0234                                   21101257.5864
                                                                        49.2504
        37.2504
 -15756692.03147 -12240919.02345
                  22710444.9924                                   22710441.2034
                                                                        44.7504
        34.2504
  -4785782.64147  -3698408.05945
                  22461159.3444                                   22461153.1644
                                                                        47.2504
        31.2504
  -1537691.35547  -1177341.87544
                  23932152.9534                                   23932149.3324
                                                                        42.5004
        25.5004
 -16278254.04747 -12637276.87545
                  22216544.3284                                   22216541.3244
                                                                        46.2504
        34.5004
  -4323174.73846  -3329745.95744
                  23675190.8674                                   23675187.8164
                                                                        40.2504
        24.5004
 09 10 14  0  6  0.0000000  0  9G02G04G05G13G29G23G30G10G25
 -11956857.44148  -9261659.18447
                  20307734.0474                                   20307728.1684
                                                                        51.0004
        42.5004
  -2540032.07048  -1956179.38746
                  21729486.6954                                   21729483.5354
                                                                        48.7504
        37.7504
 -10791779.50447  -8363980.94945
                  23012716.9224                                   23012713.1564
                                                                        46.5004
        33.0004
 -14140606.09448 -10955832.55146
                  21085064.0164                                   21085059.8594
                                                                        49.7504
        36.7504
 -15901805.08647 -12353994.11345
                  22682830.6804                                   22682827.2504
                                                                        45.7504
        33.5004
  -4792517.19947  -3703655.77045
                  22459877.5554                                   22459871.5124
                                                                        46.5004
        30.7504
  -1520391.73047  -1163861.60943
                  23935444.5944                                   23935441.7384
                                                                        43.5004
        23.0004
 -16452025.68747 -12772683.36745
                  22183477.0394                                   22183473.6914
                                                                        46.5004
        34.7504
  -4480286.44947  -3452170.63744
                  23645293.5784                                   23645290.1644
                                                                        42.2504
        24.0004
 09 10 14  0  6 30.0000000  0  9G02G04G05G13G29G23G30G10G25
 -10450614.25448  -8087963.25047
                  20594362.6484                                   20594357.0664
                                                                        52.0004
        42.0004
   -957183.42248   -722790.82846
                  22030693.2814                                   22030689.6294
                                                                        50.0004
        37.5004
  -9396566.23047  -7276801.78545
                  23278217.4454                                   23278213.3754
                                                                        46.5004
        34.0004
 -12649607.68048  -9794015.60546
                  21368791.2894                                   21368787.3054
                                                                        49.0004
        36.7504
 -14471004.79347 -11239084.78145
                  22955103.1024                                   22955099.7424
                                                                        44.5004
        33.0004
  -3223319.18747  -2480904.07845
                  22758485.7814                                   22758479.6414
                                                                        46.2504
        31.2504
     72710.27047     77516.58243
                  24238601.8284                                   24238598.7504
                                                                        42.5004
        22.2504
 -15050014.09047 -11680206.77045
                  22450271.0234                                   22450267.7894
                                                                        46.7504
        34.7504
  -3061591.50046  -2346694.05944
                  23915262.6414                                   23915258.4924
                                                                        41.7504
        26.5004
 09 10 14  0  7  0.0000000  0  9G02G04G05G13G29G23G30G10G25
 -10519184.08648  -8141394.35247
                  20581314.1884                                   20581308.6454
                                                                        51.7504
        42.0004
   -949353.83248   -716689.88746
                  22032182.7584                                   22032179.3524
                                                                        49.2504
        37.2504
  -9576519.34447  -7417025.06245
                  23243973.6724                                   23243969.5864
                                                                        47.2504
        33.2504
 -12733337.81248  -9859259.86746
                  21352858.5394                                   21352853.7504
                                                                        49.5004
        36.0004
 -14615140.62547 -11351398.41045
                  22927674.7814                                   22927670.5864
                                                                        44.7504
        31.5004
  -3229033.60947  -2485356.88345
                  22757398.2584                                   22757392.5354
                                                                        46.0004
        30.0004
     90770.43447     91589.44543
                  24242038.3984                                   24242034.6454
                                                                        42.5004
        22.7504
 -15223071.18047 -11815056.40245
                  22417339.5864                                   22417335.5314
                                                                        47.5004
        34.5004
  -3217940.20346  -2468524.20343
                  23885510.5634                                   23885505.8094
                                                                        41.7504
        22.5004
 09 10 14  0  7 30.0000000  0  9G02G04G05G13G29G23G30G10G25
 -10587141.72348  -8194348.35947
                  20568382.2584                                   20568376.4494
                                                                        51.2504
        42.7504
   -941122.16448   -710275.60946
                  22033749.0234                                   22033746.0744
                                                                        49.7504
        36.7504
  -9756208.46547  -7557042.62145
                  23209780.4304                                   23209775.7074
                                                                        47.5004
        34.2504
 -12816370.71148  -9923960.83246
                  21337057.8134                                   21337053.0554
                                                                        50.7504
        37.0004
 -14758782.83647 -11463327.40245
                  22900340.3284                                   22900336.5824
                                                                        44.2504
        32.0004
  -3234239.73047  -2489413.60545
                  22756407.4064                                   22756401.6454
                                                                        45.2504
        30.0004
    109207.84846    105956.27043
                  24245546.3674                                   24245544.1334
                                                                        41.5004
        21.7504
 -15395766.13747 -11949623.84445
                  22384476.3914                                   22384472.9614
                                                                        47.5004
        34.7504
  -3373901.71947  -2590052.61743
                  23855832.0394                                   23855827.7974
                                                                        42.0004
        22.5004
 09 10 14  0  8  0.0000000  0  9G02G04G05G13G29G23G30G10G25
 -10654489.69548  -8246827.31247
                  20555566.4534                                   20555560.6484
                                                                        51.5004
        42.2504
   -932493.17248   -703551.72746
                  22035391.3364                                   22035388.0944
                                                                        49.5004
        36.7504
  -9935633.42247  -7696854.27745
                  23175636.1254                                   23175632.5044
                                                                        47.5004
        33.0004
 -12898708.68048  -9988120.30946
                  21321389.2814                                   21321384.9844
                                                                        49.7504
        37.0004
 -14901931.79747 -11574872.04345
                  22873099.9774                                   22873096.0274
                                                                        44.5004
        32.2504
  -3238942.41447  -2493078.01645
                  22755513.0554                                   22755506.5474
                                                                        46.0004
        30.2504
    128016.72746    120612.48843
                  24249125.6954                                   24249123.4694
                                                                        40.7504
        22.5004
 -15568099.37148 -12083909.47745
                  22351682.1564                                   22351678.8204
                                                                        48.0004
        34.5004
  -3529475.71546  -2711279.03944
                  23826226.5234                                   23826223.2974
                                                                        40.2504
        24.5004
 09 10 14  0  8 30.0000000  0  9G02G04G05G13G29G23G30G10G25
 -10721227.78548  -8298831.03147
                  20542866.6254                                   20542861.2114
                                                                        51.0004
        42.5004
   -923468.50048   -696519.52046
                  22037108.6644                                   22037105.0944
                                                                        49.5004
        37.5004
 -10114792.53947  -7836458.89545
                  23141543.3134                                   23141539.9844
                                                                        47.2504
        34.0004
 -12980351.73448 -10051738.26646
                  21305853.3674                                   21305848.6134
                                                                        50.2504
        37.2504
 -15044584.95347 -11686030.34445
                  22845954.5784                                   22845950.4344
                                                                        45.0004
        32.5004
  -3243143.85547  -2496351.84444
                  22754713.5394                                   22754706.8794
                                                                        47.0004
        29.7504
    147194.39546    135556.02343
                  24252775.0944                                   24252772.8484
                                                                        41.0004
        21.5004
 -15740068.82447 -12217911.64845
                  22318957.9924                                   22318953.8634
                                                                        47.5004
        34.5004
  -3684659.89846  -2832201.70344
                  23796695.4064                                   23796692.6374
                                                                        40.2504
        25.0004
 09 10 14  0  9  0.0000000  0  9G02G04G05G13G29G23G30G10G25
 -10787354.90648  -8350358.64547
                  20530283.0474                                   20530277.7034
                                                                        52.0004
        42.7504
   -914049.05948   -689179.67246
                  22038900.8674                                   22038897.8484
                                                                        49.5004
        37.0004
 -10293682.39147  -7975853.60945
                  23107501.6644                                   23107497.9844
                                                                        47.0004
        33.5004
 -13061298.00048 -10114813.26646
                  21290449.0944                                   21290445.0784
                                                                        50.0004
        37.0004
 -15186739.11347 -11796799.80945
                  22818903.2344                                   22818899.5664
                                                                        45.0004
        34.0004
  -3246845.53947  -2499236.27344
                  22754009.1884                                   22754002.7704
                                                                        45.7504
        29.5004
    166738.32046    150785.00044
                  24256494.4694                                   24256492.2974
                                                                        41.7504
        24.2504
 -15911670.91047 -12351627.66845
                  22286302.5704                                   22286299.5084
                                                                        47.5004
        35.0004
  -3839450.29746  -2952817.49643
                  23767240.1254                                   23767237.0634
                                                                        41.0004
        23.7504
 09 10 14  0  9 30.0000000  0  9G02G04G05G13G29G23G30G10G25
 -10852873.11348  -8401411.83247
                  20517815.2584                                   20517809.9844
                                                                        51.7504
        42.5004
   -904238.78548   -681535.30546
                  22040767.8914                                   22040764.6024
                                                                        49.7504
        36.7504
 -10472302.69947  -8115038.27045
                  23073511.8204                                   23073507.8284
                                                                        47.7504
        33.7504
 -13141549.74648 -10177347.11346
                  21275177.8674                                   21275173.5784
                                                                        50.0004
        36.0004
 -15328394.04347 -11907180.27045
                  22791947.1954                                   22791943.3284
                                                                        46.2504
        33.2504
  -3250051.04347  -2501734.05945
                  22753398.7894                                   22753392.3714
                                                                        47.0004
        30.2504
    186643.64847    166295.60544
                  24260282.4534                                   24260280.0474
                                                                        43.5004
        25.5004
 -16082905.08647 -12485056.88345
                  22253718.3674                                   22253714.3324
                                                                        47.2504
        34.7504
  -3993846.14146  -3073125.85944
                  23737859.5394                                   23737856.7774
                                                                        41.5004
        25.5004
 09 10 14  0 10  0.0000000  0  8G02G04G05G13G29G23G10G25
 -10917781.37548  -8451989.68047
                  20505463.9384                                   20505458.0044
                                                                        51.7504
        42.7504
   -894039.07848   -673587.46946
                  22042708.6174                                   22042705.6914
                                                                        49.0004
        36.5004
 -10650651.25448  -8254011.20345
                  23039572.9224                                   23039569.0314
                                                                        48.2504
        34.5004
 -13221106.20748 -10239339.16846
                  21260039.0784                                   21260034.7114
                                                                        49.2504
        36.7504
 -15469547.07847 -12017169.64845
                  22765086.4844                                   22765082.8164
                                                                        45.7504
        34.0004
  -3252762.25447  -2503846.69945
                  22752883.1334                                   22752876.7974
                                                                        46.0004
        30.0004
 -16253769.18047 -12618197.78545
                  22221203.7424                                   22221200.0944
                                                                        47.5004
        34.7504
  -4147844.08247  -3193124.15644
                  23708555.0084                                   23708551.5044
                                                                        42.5004
        25.2504
 09 10 14  0 10 30.0000000  0  8G02G04G05G13G29G23G10G25
 -10982079.25048  -8502091.91047
                  20493228.1564                                   20493222.7034
                                                                        52.2504
        42.5004
   -883451.48848   -665337.43746
                  22044723.8524                                   22044720.1484
                                                                        49.2504
        36.7504
 -10828725.34047  -8392770.23045
                  23005686.7344                                   23005682.7704
                                                                        47.7504
        34.0004
 -13299967.03548 -10300789.17646
                  21245032.3204                                   21245028.0784
                                                                        49.0004
        36.5004
 -15610195.36747 -12126765.71145
                  22738322.3284                                   22738318.6334
                                                                        45.5004
        34.2504
  -3254981.33247  -2505575.83245
                  22752460.8834                                   22752454.5234
                                                                        45.2504
        30.5004
 -16424260.30147 -12751047.99646
                  22188760.4614                                   22188757.3674
                                                                        46.7504
        36.0004
  -4301441.43047  -3312810.32444
                  23679326.5944                                   23679322.4884
                                                                        43.2504
        26.0004
 09 10 14  0 11  0.0000000  0  8G02G04G05G13G29G23G10G25
 -11045764.50448  -8551716.72347
                  20481109.3204                                   20481103.6214
                                                                        52.0004
        43.0004
   -872475.39148   -656784.63346
                  22046812.5314                                   22046808.6914
                                                                        49.7504
        36.7504
 -11006520.35947  -8531311.77045
                  22971853.3054                                   22971849.8364
                                                                        47.0004
        34.2504
 -13378129.90648 -10361695.31646
                  21230158.2734                                   21230154.0554
                                                                        49.5004
        37.2504
 -15750334.21947 -12235964.80945
                  22711654.7814                                   22711651.4064
                                                                        46.2504
        33.7504
  -3256708.19147  -2506921.44544
                  22752131.9844                                   22752125.8094
                                                                        44.2504
        28.7504
 -16594374.02347 -12883604.16845
                  22156389.1334                                   22156385.4734
                                                                        47.2504
        35.5004
  -4454632.67647  -3432180.09444
                  23650174.9774                                   23650171.0514
                                                                        43.0004
        26.7504
 09 10 14  0 11 30.0000000  0  8G02G04G05G13G29G23G10G25
 -11108838.02348  -8600864.89847
                  20469106.8594                                   20469101.3164
                                                                        52.2504
        43.0004
   -861113.27048   -647931.01646
                  22048974.4924                                   22048971.2274
                                                                        48.2504
        36.5004
 -11184035.16847  -8669634.99245
                  22938073.1484                                   22938069.5864
                                                                        47.5004
        34.0004
 -13455594.88748 -10422057.65646
                  21215417.5004                                   21215412.9414
                                                                        49.0004
        37.2504
 -15889962.09047 -12344765.74645
                  22685084.5234                                   22685080.8484
                                                                        46.0004
        34.0004
  -3257945.32447  -2507885.44145
                  22751896.9534                                   22751890.6564
                                                                        44.2504
        30.0004
 -16764108.54347 -13015864.83245
                  22124089.4614                                   22124085.9844
                                                                        46.5004
        35.5004
  -4607415.93447  -3551231.93444
                  23621101.3134                                   23621097.3594
                                                                        43.0004
        25.0004
 09 10 14  0 12  0.0000000  0  8G02G04G05G13G29G23G10G25
 -11171301.81248  -8649537.97347
                  20457220.7734                                   20457214.6764
                                                                        53.0004
        43.0004
   -849369.23048   -638779.83246
                  22051209.2974                                   22051205.6644
                                                                        49.2504
        36.0004
 -11361269.57047  -8807739.71945
                  22904346.7584                                   22904342.9534
                                                                        47.7504
        34.5004
 -13532364.16048 -10481877.87546
                  21200808.7894                                   21200804.5044
                                                                        49.0004
        36.5004
 -16029078.79347 -12453168.37145
                  22658610.9224                                   22658607.9574
                                                                        46.0004
        33.7504
  -3258697.26647  -2508471.36744
                  22751753.2274                                   22751747.4804
                                                                        45.7504
        29.5004
 -16933463.49647 -13147829.66845
                  22091862.4224                                   22091858.8754
                                                                        47.5004
        35.2504
  -4759790.72747  -3669965.52744
                  23592105.6254                                   23592101.0124
                                                                        43.5004
        25.0004
 09 10 14  0 12 30.0000000  0  8G02G04G05G13G29G23G10G25
 -11233158.11748  -8697737.71947
                  20445449.9304                                   20445443.8554
                                                                        52.7504
        42.5004
   -837247.44548   -629334.29746
                  22053515.7664                                   22053512.3984
                                                                        48.5004
        36.5004
 -11538223.92248  -8945626.19945
                  22870673.6334                                   22870670.0554
                                                                        48.0004
        34.7504
 -13608440.11348 -10541157.85546
                  21186331.8754                                   21186327.6884
                                                                        48.5004
        36.5004
 -16167684.55547 -12561172.84845
                  22632235.4064                                   22632232.1094
                                                                        44.7504
        34.5004
  -3258968.71147  -2508682.89545
                  22751701.9064                                   22751695.7934
                                                                        45.2504
        30.2504
 -17102439.42247 -13279499.22745
                  22059707.2424                                   22059703.2774
                                                                        47.0004
        34.7504
  -4911756.54746  -3788380.43444
                  23563187.0704                                   23563183.2974
                                                                        41.2504
        24.0004
 09 10 14  0 13  0.0000000  0  8G02G04G05G13G29G23G10G25
 -11294411.10248  -8745467.32447
                  20433793.7894                                   20433788.0664
                                                                        52.2504
        42.2504
   -824754.30548   -619599.39145
                  22055893.5704                                   22055890.2194
                                                                        49.0004
        35.5004
 -11714900.28148  -9083296.05545
                  22837053.0704                                   22837049.4694
                                                                        48.0004
        35.5004
 -13683827.10248 -10599901.02046
                  21171986.5474                                   21171982.0434
                                                                        49.5004
        37.2504
 -16305781.48847 -12668780.84445
                  22605956.5864                                   22605953.1414
                                                                        46.7504
        34.0004
  -3258766.21547  -2508525.10945
                  22751740.7424                                   22751734.3134
                                                                        45.0004
        30.2504
 -17271038.60547 -13410875.20745
                  22027624.0944                                   22027620.3164
                                                                        47.7504
        35.5004
  -5063315.14546  -3906477.97344
                  23534346.0394                                   23534342.9654
                                                                        41.5004
        24.0004
 09 10 14  0 13 30.0000000  0  8G02G04G05G13G29G23G10G25
 -11355063.22748  -8792728.69147
                  20422252.0554                                   20422246.2074
                                                                        52.5004
        42.7504
   -811893.75047   -609578.18446
                  22058340.4774                                   22058337.5234
                                                                        47.7504
        36.2504
 -11891299.05147  -9220749.62545
                  22803485.4534                                   22803481.7854
                                                                        47.0004
        34.5004
 -13758527.40648 -10658109.04346
                  21157771.1724                                   21157767.0084
                                                                        48.5004
        36.5004
 -16443369.90247 -12775992.59845
                  22579774.1564                                   22579770.3984
                                                                        46.5004
        33.5004
  -3258094.38747  -2508001.60245
                  22751868.3984                                   22751862.0744
                                                                        45.5004
        30.0004
 -17439260.91848 -13541957.56245
                  21995612.3364                                   21995608.8834
                                                                        48.0004
        35.7504
  -5214466.14147  -4024257.95344
                  23505583.1414                                   23505579.7154
                                                                        42.2504
        25.2504
 09 10 14  0 14  0.0000000  0  8G02G04G05G13G29G23G10G25
 -11415115.00848  -8839522.27747
                  20410824.2504                                   20410818.7384
                                                                        52.0004
        42.5004
   -798668.46147   -599272.78945
                  22060857.5634                                   22060853.9734
                                                                        47.7504
        35.5004
 -12067418.36347  -9357985.43745
                  22769970.7504                                   22769967.8364
                                                                        46.7504
        35.5004
 -13832541.60248 -10715782.43046
                  21143686.7424                                   21143682.5904
                                                                        49.0004
        36.5004
 -16580447.61747 -12882806.40645
                  22553689.3204                                   22553685.4614
                                                                        46.5004
        33.5004
  -3256955.92647  -2507114.48844
                  22752085.1024                                   22752078.7154
                                                                        45.0004
        28.7504
 -17607104.27048 -13672744.59845
                  21963672.4454                                   21963669.0004
                                                                        48.0004
        35.5004
  -5365207.39147  -4141718.64844
                  23476898.2894                                   23476894.3324
                                                                        43.0004
        25.5004
 09 10 14  0 14 30.0000000  0  8G02G04G05G13G29G23G10G25
 -11474565.23448  -8885847.15647
                  20399511.0314                                   20399505.5354
                                                                        52.0004
        42.2504
   -785078.52348   -588683.23046
                  22063443.7894                                   22063439.9104
                                                                        48.7504
        36.5004
 -12243254.67647  -9495000.71945
                  22736510.1954                                   22736506.7704
                                                                        46.0004
        35.2504
 -13905868.03548 -10772919.88746
                  21129733.2274                                   21129728.5904
                                                                        49.0004
        37.0004
 -16717011.11747 -12989219.52045
                  22527701.9774                                   22527698.4264
                                                                        46.7504
        34.2504
  -3255351.57447  -2505864.32444
                  22752390.7424                                   22752384.2504
                                                                        46.2504
        28.7504
 -17774565.10547 -13803233.53146
                  21931805.7584                                   21931802.6644
                                                                        47.7504
        36.5004
  -5515534.64547  -4258856.73044
                  23448292.1484                                   23448288.2704
                                                                        43.2504
        26.5004
 09 10 14  0 15  0.0000000  0  8G02G04G05G13G29G23G10G25
 -11533417.53548  -8931706.06247
                  20388312.1564                                   20388306.6484
                                                                        51.0004
        42.2504
   -771130.05948   -577814.32046
                  22066098.0394                                   22066094.7664
                                                                        49.2504
        36.2504
 -12418809.72747  -9631796.83245
                  22703103.2424                                   22703099.7114
                                                                        45.2504
        35.0004
 -13978510.93448 -10829524.78146
                  21115909.8834                                   21115904.9534
                                                                        51.0004
        36.7504
 -16853062.10247 -13095233.27745
                  22501812.5314                                   22501808.4534
                                                                        46.2504
        34.0004
  -3253287.25847  -2504255.76244
                  22752783.2034                                   22752776.6604
                                                                        46.0004
        28.7504
 -17941645.20348 -13933425.82846
                  21900011.9144                                   21900008.5084
                                                                        48.5004
        36.7504
  -5665449.08647  -4375673.14844
                  23419764.2504                                   23419760.4884
                                                                        42.7504
        26.5004
 09 10 14  0 15 30.0000000  0  8G02G04G05G13G29G23G10G25
 -11591673.91848  -8977100.68447
                  20377225.9774                                   20377220.4654
                                                                        51.5004
        42.5004
   -756826.33648   -566668.55146
                  22068819.8284                                   22068816.3134
