     2.11           OBSERVATION DATA    G (GPS)             RINEX VERSION / TYPE
teqc  2019Feb25                         20221121 12:28:35UTCPGM / RUN BY / DATE
OSX ker:10.11.6|Core i5|gcc 4.3 -m64|OSX ker:10.10+|=+      COMMENT
BIT 2 OF LLI FLAGS DATA COLLECTED UNDER A/S CONDITION       COMMENT
04712941                                                    MARKER NAME
2941                                                        MARKER NUMBER
-Unknown-           -Unknown-                               OBSERVER / AGENCY
0220400471          TRIMBLE R7          2.30                REC # / TYPE / VERS
-Unknown-           TRM39105.00     NONE                    ANT # / TYPE
  1449460.3534 -1709242.7113  5952443.4037                  APPROX POSITION XYZ
        0.0000        0.0000        0.0000                  ANTENNA: DELTA H/E/N
     1     1                                                WAVELENGTH FACT L1/2
    20    L1    L2    L5    L6    L7    L8    C1    P1    C2# / TYPES OF OBSERV
          P2    C5    C6    C7    C8    S1    S2    S5    S6# / TYPES OF OBSERV
          S7    S8                                          # / TYPES OF OBSERV
    30.0000                                                 INTERVAL
    15                                                      LEAP SECONDS
Forced Modulo Decimation to 30 seconds                      COMMENT
 SNR is mapped to RINEX snr flag value [0-9]                COMMENT
  L1 & L2: min(max(int(snr_dBHz/6), 0), 9)                  COMMENT
teqc edited: Beidou # 1 - 37 excluded                       COMMENT
  2009    10    21    23    11    0.0000000     GPS         TIME OF FIRST OBS
                                                            END OF HEADER
 09 10 21 23 11  0.0000000  0  9G02G04G05G10G13G23G29G30G31
   -211724.03958   -131686.41457
                  20601377.8754                                   20601371.6024
                                                                        52.0004
        43.2504
    -53311.33658    -34157.64156
                  21360442.3984                                   21360438.1094
                                                                        51.2504
        39.7504
   -383764.48457   -244291.45355
                  24134839.0704                                   24134834.8984
                                                                        42.5004
        31.2504
   -377557.80557   -236183.62955
                  23207618.2274                                   23207613.4884
                                                                        44.2504
        30.0004
   -245596.56258   -153256.11356
                  21519387.8524                                   21519383.0704
                                                                        51.2504
        36.2504
    -91029.96558    -57598.54755
                  22190412.7814                                   22190405.7584
                                                                        48.5004
        33.5004
   -336064.96157   -209445.32855
                  23559982.8444                                   23559979.0864
                                                                        44.5004
        31.2504
    -36164.13357    -23429.64854
                  23456061.8524                                   23456059.1804
                                                                        45.0004
        28.5004
    -50794.07856    -29452.16854
                  24476085.1804                                   24476081.2464
                                                                        38.5004
        25.5004
 09 10 21 23 11 30.0000000  0  9G02G04G05G10G13G23G29G30G31
   -328099.33248   -222368.46547
                  20579232.2734                                   20579226.0084
                                                                        52.2504
        43.7504
    -84737.31648    -58645.46146
                  21354462.1804                                   21354458.2424
                                                                        51.5004
        39.7504
   -593226.57046   -407508.71544
                  24094979.8754                                   24094975.4304
                                                                        41.7504
        28.2504
   -583548.63747   -396695.94144
                  23168419.1484                                   23168415.3134
                                                                        45.0004
        28.5004
   -380083.35248   -258050.98846
                  21493795.6414                                   21493790.7734
                                                                        51.5004
        36.0004
   -142633.12948    -97808.84045
                  22180593.2734                                   22180585.8484
                                                                        48.7504
        32.5004
   -519621.74247   -352476.58645
                  23525053.1804                                   23525049.0084
                                                                        45.0004
        31.2504
    -58242.01247    -40633.40244
                  23451860.5474                                   23451858.1174
                                                                        45.0004
        28.0004
    -81158.89846    -53113.02344
                  24470305.9144                                   24470302.9884
                                                                        39.2504
        25.5004
 09 10 21 23 12  0.0000000  0  9G02G04G05G10G13G23G29G30G31
   -444511.26648   -313079.05547
                  20557080.3674                                   20557073.3364
                                                                        52.5004
        43.0004
   -116307.66448    -83245.75846
                  21348454.4454                                   21348450.4344
                                                                        51.7504
        40.0004
   -803138.82446   -571076.79344
                  24055033.7974                                   24055029.9024
                                                                        41.2504
        27.2504
   -789894.40047   -557484.90645
                  23129153.6484                                   23129149.1454
                                                                        46.5004
        32.0004
   -514533.82848   -362817.57046
                  21468210.6254                                   21468205.9454
                                                                        51.2504
        36.5004
   -194262.12148   -138039.27345
                  22170768.6254                                   22170761.8954
                                                                        48.5004
        33.0004
   -703417.38747   -495694.05145
                  23490077.5634                                   23490074.2304
                                                                        43.7504
        31.0004
    -80431.25447    -57923.81644
                  23447638.1954                                   23447635.5984
                                                                        43.5004
        29.0004
   -111672.04746    -76889.59844
                  24464500.4614                                   24464496.8874
                                                                        39.7504
        26.0004
 09 10 21 23 12 30.0000000  0  9G02G04G05G10G13G23G29G30G31
   -560726.46948   -403636.35547
                  20534964.8204                                   20534958.4804
                                                                        53.2504
        43.2504
   -147791.48048   -107778.60546
                  21342463.4694                                   21342459.2234
                                                                        51.7504
        40.0004
  -1013267.00846   -734813.19144
                  24015048.4924                                   24015044.5314
                                                                        41.0004
        27.5004
   -996360.02047   -718367.17245
                  23089864.1414                                   23089860.3834
                                                                        46.2504
        31.7504
   -648714.20748   -467373.73846
                  21442676.6954                                   21442672.0124
                                                                        51.2504
        37.0004
   -245686.08648   -178109.88745
                  22160983.0704                                   22160975.7194
                                                                        49.5004
        33.0004
   -887217.49247   -638915.02744
                  23455101.1954                                   23455098.3754
                                                                        43.2504
        29.5004
   -102502.88747    -75122.56244
                  23443437.5864                                   23443435.2194
                                                                        43.7504
        27.2504
   -142104.00446   -100602.81244
                  24458709.8134                                   24458705.4964
                                                                        39.2504
        25.7504
 09 10 21 23 13  0.0000000  0  9G02G04G05G10G13G23G29G30G31
   -676617.30148   -493940.91447
                  20512911.8444                                   20512905.1414
                                                                        53.0004
        43.5004
   -179063.70748   -132146.59446
                  21336512.5084                                   21336508.3834
                                                                        51.0004
        39.2504
  -1223481.50847   -898616.57045
                  23975046.9774                                   23975042.8634
                                                                        44.5004
        30.2504
  -1202816.48047   -879242.29745
                  23050576.7734                                   23050573.2034
                                                                        45.7504
        32.0004
   -782496.36748   -571619.67246
                  21417219.1884                                   21417214.4344
                                                                        51.0004
        36.5004
   -296779.90648   -217923.22745
                  22151260.1644                                   22151253.4454
                                                                        49.0004
        32.7504
  -1070892.19947   -782038.17245
                  23420149.3594                                   23420145.9454
                                                                        43.5004
        30.0004
   -124332.90247    -92133.00844
                  23439283.9144                                   23439280.7584
                                                                        43.2504
        26.5004
   -172329.75846   -124155.49644
                  24452957.4844                                   24452954.0704
                                                                        40.5004
        27.5004
 09 10 21 23 13 30.0000000  0  9G02G04G05G10G13G23G29G30G31
   -792107.59048   -583933.32447
                  20490934.6174                                   20490928.2624
                                                                        52.7504
        43.0004
   -210051.07448   -156292.62146
                  21330615.7814                                   21330611.9654
                                                                        51.7504
        39.2504
  -1433705.17647  -1062427.13745
                  23935042.3134                                   23935038.2464
                                                                        44.2504
        32.7504
  -1409186.56647  -1040050.23045
                  23011305.3364                                   23011302.3444
                                                                        45.7504
        32.2504
   -915803.81648   -675495.70346
                  21391851.7114                                   21391847.0164
                                                                        50.7504
        36.2504
   -347469.96148   -257421.96545
                  22141614.5394                                   22141607.3554
                                                                        49.2504
        32.7504
  -1254363.53947   -925002.88745
                  23385236.5784                                   23385232.8014
                                                                        44.0004
        31.5004
   -145848.35247   -108898.32844
                  23435189.9534                                   23435186.5354
                                                                        45.2504
        27.7504
   -202275.96547   -147490.25844
                  24447259.4304                                   24447255.2704
                                                                        42.7504
        26.2504
 09 10 21 23 14  0.0000000  0  9G02G04G05G10G13G23G29G30G31
   -907135.73848   -673565.69547
                  20469045.6884                                   20469039.3554
                                                                        52.2504
        43.2504
   -240693.96948   -180170.21946
                  21324784.8134                                   21324780.6564
                                                                        51.5004
        40.2504
  -1643874.98447  -1226195.72345
                  23895048.5784                                   23895044.2814
                                                                        45.5004
        32.5004
  -1615406.36747  -1200740.97745
                  22972064.0084                                   22972059.8164
                                                                        44.7504
        31.5004
  -1048574.32048   -778953.34045
                  21366586.6884                                   21366581.6294
                                                                        51.0004
        35.5004
   -397697.39848   -296560.20745
                  22132056.4534                                   22132049.5044
                                                                        49.0004
        33.5004
  -1437567.99647  -1067759.65245
                  23350373.3674                                   23350370.3914
                                                                        42.7504
        32.0004
   -166991.08647   -125373.20744
                  23431166.7504                                   23431163.1024
                                                                        43.5004
        25.5004
   -231884.47747   -170561.98044
                  24441625.2814                                   24441620.7384
                                                                        43.0004
        25.2504
 09 10 21 23 14 30.0000000  0  9G02G04G05G10G13G23G29G30G31
  -1021661.37148   -762806.48047
                  20447251.9454                                   20447245.6954
                                                                        52.2504
        43.5004
   -270954.66448   -203749.99646
                  21319026.2734                                   21319022.5554
                                                                        52.0004
        39.5004
  -1853950.22747  -1389890.65245
                  23855072.1484                                   23855068.3914
                                                                        44.5004
        32.2504
  -1821434.87147  -1361282.66845
                  22932857.5784                                   22932853.2304
                                                                        45.2504
        31.5004
  -1180766.83648   -881960.55546
                  21341431.1414                                   21341426.3794
                                                                        51.0004
        36.0004
   -447424.29348   -335308.45745
                  22122593.6644                                   22122586.5044
                                                                        49.2504
        32.7504
  -1620463.72347  -1210275.81645
                  23315569.0234                                   23315566.2384
                                                                        43.0004
        31.2504
   -187725.19547   -141529.61344
                  23427221.0554                                   23427217.6604
                                                                        44.5004
        27.7504
   -261117.35947   -193340.75043
                  24436062.7194                                   24436057.7544
                                                                        43.7504
        23.7504
 09 10 21 23 15  0.0000000  0  9G02G04G05G10G13G23G29G30G31
  -1135656.02348   -851633.48847
                  20425559.2584                                   20425553.1174
                                                                        52.2504
        44.0004
   -300807.25048   -227011.76646
                  21313345.5704                                   21313341.3794
                                                                        51.5004
        39.2504
  -2063900.97347  -1553488.59845
                  23815119.6254                                   23815115.3284
                                                                        45.2504
        30.0004
  -2027242.40647  -1521652.23445
                  22893693.8984                                   22893689.8324
                                                                        45.0004
        30.7504
  -1312352.95348   -984495.31645
                  21316391.2504                                   21316386.2074
                                                                        51.5004
        35.7504
   -496623.93448   -373645.77345
                  22113230.9534                                   22113223.7424
                                                                        48.2504
        32.5004
  -1803020.98447  -1352528.16845
                  23280830.5164                                   23280826.5824
                                                                        44.2504
        31.5004
   -208025.48047   -157347.95744
                  23423358.2504                                   23423354.9454
                                                                        42.2504
        26.0004
   -289949.99247   -215807.70744
                  24430575.7814                                   24430570.7974
                                                                        42.2504
        25.5004
 09 10 21 23 15 30.0000000  0  9G02G04G05G10G13G23G29G30G31
  -1249093.54348   -940026.39847
                  20403973.1254                                   20403966.1254
                                                                        52.2504
        43.5004
   -330228.39148   -249937.35546
                  21307747.1484                                   21307743.0784
                                                                        51.5004
        39.0004
  -2273699.35947  -1716967.86344
                  23775195.5944                                   23775191.6334
                                                                        43.5004
        28.0004
  -2232800.68747  -1681827.52745
                  22854577.1884                                   22854573.3634
                                                                        44.5004
        32.0004
  -1443306.02348  -1086536.67246
                  21291471.7194                                   21291466.5864
                                                                        51.2504
        36.5004
   -545273.69148   -411554.67245
                  22103972.8834                                   22103966.1374
                                                                        49.0004
        32.5004
  -1985211.56647  -1494494.89545
                  23246160.4924                                   23246156.3324
                                                                        44.2504
        31.7504
   -227869.41847   -172810.77344
                  23419581.5084                                   23419578.6684
                                                                        42.7504
        26.2504
   -318359.20346   -237944.71543
                  24425169.5164                                   24425164.8284
                                                                        41.2504
        23.0004
 09 10 21 23 16  0.0000000  0  9G02G04G05G10G13G23G29G30G31
  -1361965.42648  -1027978.52747
                  20382494.2814                                   20382487.8674
                                                                        52.2504
        43.2504
   -359211.46148   -272521.61346
                  21302231.4144                                   21302227.6374
                                                                        52.2504
        39.5004
  -2483335.88747  -1880320.90244
                  23735303.3524                                   23735299.0474
                                                                        44.5004
        29.5004
  -2438099.88347  -1841800.93745
                  22815510.1564                                   22815506.0554
                                                                        44.5004
        31.5004
  -1573616.28948  -1188077.08246
                  21266674.4384                                   21266669.3554
                                                                        51.2504
        37.0004
   -593366.62548   -449029.67245
                  22094821.5394                                   22094814.3404
                                                                        48.7504
        33.2504
  -2167025.71547  -1636168.25845
                  23211562.3204                                   23211558.4414
                                                                        44.2504
        31.7504
   -247252.42247   -187914.49644
                  23415893.1804                                   23415890.5904
                                                                        42.2504
        27.0004
   -346339.28946   -259747.37543
                  24419844.5704                                   24419840.3204
                                                                        40.7504
        22.7504
 09 10 21 23 16 30.0000000  0  9G02G04G05G10G13G23G29G30G31
  -1474268.05948  -1115487.10247
                  20361123.5944                                   20361117.3324
                                                                        52.2504
        43.0004
   -387756.07448   -294764.25846
                  21296799.8284                                   21296796.0824
                                                                        51.0004
        39.0004
  -2692805.97347  -2043544.28945
                  23695442.5864                                   23695438.6564
                                                                        44.0004
        31.2504
  -2643134.80947  -2001568.35245
                  22776493.4614                                   22776490.0514
                                                                        44.2504
        32.0004
  -1703281.13348  -1289114.60946
                  21242000.1174                                   21241995.3324
                                                                        51.5004
        36.5004
   -640902.59847   -486070.66845
                  22085775.5084                                   22085768.4654
                                                                        47.7504
        32.5004
  -2348457.38747  -1777543.52345
                  23177036.5234                                   23177033.3244
                                                                        43.2504
        31.2504
   -266174.29347   -202658.91444
                  23412292.2034                                   23412290.1054
                                                                        43.0004
        26.7504
   -373890.06646   -281215.35543
                  24414601.1334                                   24414597.4614
                                                                        39.2504
        21.7504
 09 10 21 23 17  0.0000000  0  9G02G04G05G10G13G23G29G30G31
  -1585982.94148  -1202537.61747
                  20339865.2424                                   20339858.6054
                                                                        52.7504
        43.2504
   -415845.73848   -316652.42246
                  21291454.8204                                   21291450.5434
                                                                        51.0004
        39.0004
  -2902089.70347  -2206622.47745
                  23655617.3594                                   23655613.4104
                                                                        45.0004
        31.7504
  -2847885.82447  -2161114.59845
                  22737530.8754                                   22737526.6994
                                                                        44.5004
        32.7504
  -1832280.59848  -1389633.55545
                  21217452.1884                                   21217447.2584
                                                                        50.5004
        35.5004
   -687864.82847   -522664.60545
                  22076839.0084                                   22076832.0474
                                                                        47.7504
        32.5004
  -2529486.89547  -1918605.46945
                  23142588.1094                                   23142584.5904
                                                                        43.7504
        31.5004
   -284620.41447   -217032.57844
                  23408782.3674                                   23408779.6254
                                                                        44.2504
        27.2504
   -400996.40246   -302337.23843
                  24409442.6884                                   24409439.5274
                                                                        38.2504
        21.5004
 09 10 21 23 17 30.0000000  0  9G02G04G05G10G13G23G29G30G31
  -1697098.90248  -1289121.52747
                  20318720.5314                                   20318714.0084
                                                                        52.7504
        43.0004
   -443471.62948   -338179.10246
                  21286197.4614                                   21286193.3914
                                                                        50.7504
        39.5004
  -3111174.25047  -2369545.46945
                  23615830.0314                                   23615826.0394
                                                                        44.5004
        32.5004
  -3052339.52047  -2320429.11745
                  22698624.3444                                   22698620.1804
                                                                        46.0004
        33.5004
  -1960603.64848  -1489625.45746
                  21193032.9534                                   21193027.9144
                                                                        50.7504
        36.5004
   -734245.14548   -558805.12145
                  22068013.2504                                   22068006.3594
                                                                        48.2504
        32.7504
  -2710100.79747  -2059343.48845
                  23108218.6954                                   23108215.0944
                                                                        44.5004
        32.5004
   -302582.57447   -231029.00844
                  23405364.4144                                   23405361.7424
                                                                        44.2504
        29.0004
   -427649.92646   -323106.27343
                  24404371.9614                                   24404367.9924
                                                                        39.0004
        21.5004
 09 10 21 23 18  0.0000000  0  9G02G04G05G10G13G23G29G30G31
   -232182.52048   -147628.27047
                  20597484.7114                                   20597478.4774
                                                                        53.0004
        43.5004
   1104794.38348    868261.94146
                  21580822.8524                                   21580818.7154
                                                                        50.7504
        39.2504
  -1744621.96147  -1304699.52745
                  23875876.1954                                   23875872.2344
                                                                        44.5004
        32.5004
  -1681058.89847  -1251898.77045
                  22959569.8364                                   22959566.4384
                                                                        45.7504
        33.2504
   -512816.36348   -361479.64846
                  21468537.9224                                   21468532.9734
                                                                        50.5004
        36.5004
    795385.67248    633115.02045
                  22359091.8524                                   22359085.3364
                                                                        48.5004
        32.5004
  -1314862.07847   -972144.44545
                  23373723.5164                                   23373720.0554
                                                                        44.7504
        33.5004
   1255365.08647    982956.13744
                  23701831.8524                                   23701829.5084
                                                                        44.0004
        28.0004
   1121577.07446    884083.63344
                  24699179.7584                                   24699175.9104
                                                                        41.5004
        26.2504
 09 10 21 23 18 30.0000000  0  9G02G04G05G10G13G23G29G30G31
   -342074.89848   -233258.70347
                  20576572.9694                                   20576566.6564
                                                                        52.5004
        43.2504
   1078113.95348    847471.93846
                  21575745.7504                                   21575742.0474
                                                                        51.0004
        38.7504
  -1953279.07847  -1467289.48845
                  23836169.7734                                   23836165.8284
                                                                        43.2504
        32.0004
  -1884888.76247  -1410727.17245
                  22920782.7424                                   22920778.7154
                                                                        45.7504
        32.2504
   -639759.81648   -460396.56646
                  21444381.0474                                   21444376.4494
                                                                        51.0004
        36.5004
    750187.84848    597895.91445
                  22350491.2814                                   22350484.3754
                                                                        48.2504
        31.7504
  -1494614.39847  -1112211.09445
                  23339517.8364                                   23339514.1484
                                                                        45.2504
        32.7504
   1238384.50847    969724.44544
                  23698600.9534                                   23698597.9064
                                                                        43.0004
        29.0004
   1095845.91847    864033.47344
                  24694282.9694                                   24694279.6094
                                                                        42.0004
        26.0004
 09 10 21 23 19  0.0000000  0  9G02G04G05G10G13G23G29G30G31
   -451343.47748   -318403.08247
                  20555779.9694                                   20555773.4184
                                                                        52.7504
        43.2504
   1051914.56648    827056.78546
                  21570760.3914                                   21570755.8914
                                                                        50.5004
        39.2504
  -2161708.14547  -1629701.76645
                  23796506.8754                                   23796503.3914
                                                                        43.0004
        30.5004
  -2088391.98447  -1569301.06645
                  22882056.9534                                   22882053.3094
                                                                        45.0004
        32.5004
   -766000.96548   -558766.20746
                  21420358.2894                                   21420353.3674
                                                                        51.0004
        36.5004
    705589.58248    563144.05145
                  22342004.2974                                   22341997.5984
                                                                        48.2504
        32.2504
  -1673920.82047  -1251930.30145
                  23305396.8284                                   23305393.4024
                                                                        45.2504
        32.2504
   1221901.71547    956880.59444
                  23695464.0704                                   23695461.2194
                                                                        42.7504
        26.5004
   1070583.44547    844348.41044
                  24689476.7344                                   24689472.4144
                                                                        42.2504
        26.2504
 09 10 21 23 19 30.0000000  0  9G02G04G05G10G13G23G29G30G31
   -559983.02748   -403057.30947
                  20535106.3674                                   20535100.1484
                                                                        52.7504
        43.2504
   1026199.71548    807019.25046
                  21565866.7344                                   21565863.1414
                                                                        49.5004
        39.0004
  -2369903.68047  -1791932.06645
                  23756888.9384                                   23756884.6094
                                                                        44.2504
        31.5004
  -2291562.25047  -1727615.50845
                  22843394.8594                                   22843390.8054
                                                                        46.2504
        32.5004
   -891533.47748   -656583.71946
                  21396470.3754                                   21396465.4924
                                                                        50.7504
        36.7504
    661593.94148    528861.75845
                  22333632.5084                                   22333625.2854
                                                                        48.5004
        32.2504
  -1852775.40247  -1391297.48445
                  23271361.8914                                   23271358.3284
                                                                        45.5004
        32.2504
   1205917.19547    944425.12144
                  23692422.5864                                   23692419.4654
                                                                        43.7504
        25.2504
   1045791.05946    825029.71144
                  24684758.6254                                   24684754.3444
                                                                        40.7504
        27.0004
 09 10 21 23 20  0.0000000  0  9G02G04G05G10G13G23G29G30G31
   -667992.76648   -487220.76247
                  20514552.9144                                   20514546.6684
                                                                        52.0004
        43.0004
   1000966.48448    787356.95346
                  21561065.4614                                   21561061.0594
                                                                        49.5004
        39.0004
  -2577862.37547  -1953977.82045
                  23717315.3834                                   23717311.3714
                                                                        44.7504
        31.5004
  -2494397.02747  -1885668.52045
                  22804797.1954                                   22804792.5984
                                                                        46.2504
        32.2504
  -1016357.67248   -753849.32446
                  21372716.7664                                   21372712.0234
                                                                        50.2504
        37.0004
    618198.43848    495047.10545
                  22325374.8284                                   22325367.5704
                                                                        48.7504
        32.0004
  -2031174.50447  -1530309.82845
                  23237413.5634                                   23237410.1134
                                                                        45.5004
        34.2504
   1190429.69947    932356.97744
                  23689475.0864                                   23689472.0634
                                                                        42.0004
        25.5004
   1021467.37547    806076.21144
                  24680130.1094                                   24680125.9344
                                                                        42.7504
        26.7504
 09 10 21 23 20 30.0000000  0  9G02G04G05G10G13G23G29G30G25
   -775369.59048   -570890.98047
                  20494119.6644                                   20494113.4774
                                                                        52.2504
        43.2504
    976216.55548    768071.24246
                  21556355.3444                                   21556351.2344
                                                                        50.2504
        39.2504
  -2785580.02047  -2115835.74245
                  23677788.6564                                   23677784.4964
                                                                        45.2504
        32.0004
  -2696890.98847  -2043456.00845
                  22766263.2734                                   22766259.9774
                                                                        46.2504
        32.2504
  -1140469.16448   -850559.55146
                  21349099.2974                                   21349094.6174
                                                                        50.5004
        37.2504
    575404.16848    461700.93845
                  22317231.1024                                   22317224.0084
                                                                        48.5004
        32.5004
  -2209113.34847  -1668963.52345
                  23203553.0554                                   23203549.1524
                                                                        45.5004
        32.5004
   1175438.04747    920675.13344
                  23686622.4534                                   23686619.1564
                                                                        43.0004
        25.5004
   1264123.23856    998656.54753
                  24232844.5634                                   24232840.9804
                                                                        41.5004
        21.5004
 09 10 21 23 21  0.0000000  0  9G02G04G05G10G13G23G29G30G25
   -882117.69148   -654071.35547
                  20473806.2194                                   20473799.6804
                                                                        52.0004
        43.5004
    951943.15648    749156.88746
                  21551736.1094                                   21551732.1914
                                                                        50.7504
        38.7504
  -2993059.31647  -2277507.88345
                  23638306.3204                                   23638302.0594
                                                                        44.5004
        32.0004
  -2899047.34847  -2200980.36745
                  22727794.2274                                   22727790.5044
                                                                        45.5004
        33.0004
  -1263872.00848   -946717.70746
                  21325616.4064                                   21325611.4774
                                                                        49.7504
        37.0004
    533204.77348    428818.31345
                  22309200.5084                                   22309194.1254
                                                                        48.5004
        32.5004
  -2386594.33647  -1807260.45745
                  23169779.4614                                   23169775.9064
                                                                        45.0004
        31.7504
   1160933.95346    909373.14544
                  23683862.0394                                   23683859.9264
                                                                        41.0004
        24.2504
   1077016.78146    852859.35943
                  24197239.1954                                   24197235.3714
                                                                        39.7504
        21.2504
 09 10 21 23 21 30.0000000  0  9G02G04G05G10G13G23G29G30G25
   -988231.95348   -736757.87947
                  20453613.6414                                   20453607.2894
                                                                        52.5004
        43.5004
    928148.85948    730615.87946
                  21547208.2814                                   21547204.8794
                                                                        50.5004
        39.0004
  -3200293.72747  -2438989.20345
                  23598870.6564                                   23598866.4454
                                                                        45.5004
        32.0004
  -3100859.14547  -2358236.21945
                  22689390.7974                                   22689387.0394
                                                                        46.5004
        33.2504
  -1386561.22348  -1042319.75846
                  21302269.7664                                   21302264.9304
                                                                        50.0004
        37.0004
    491602.21548    396400.71145
                  22301283.7814                                   22301276.8634
                                                                        48.0004
        32.2504
  -2563610.37547  -1945194.98045
                  23136094.6884                                   23136090.8444
                                                                        45.0004
        31.5004
   1146919.71946    898452.93444
                  23681195.4844                                   23681192.8874
                                                                        41.2504
        26.0004
    890255.49646    707331.05143
                  24161699.9844                                   24161695.7304
                                                                        40.7504
        20.0004
 09 10 21 23 22  0.0000000  0  9G02G04G05G10G13G23G29G30G25
  -1093702.36748   -818942.62547
                  20433543.2664                                   20433536.7894
                                                                        52.7504
        43.5004
    904841.27748    712454.14546
                  21542773.0234                                   21542769.4924
                                                                        50.7504
        38.5004
  -3407271.85547  -2600270.85245
                  23559483.6954                                   23559480.1684
                                                                        45.5004
        32.5004
  -3302314.78947  -2515214.60245
                  22651055.0314                                   22651051.6484
                                                                        47.0004
        34.2504
  -1508525.66848  -1137357.02046
                  21279060.4774                                   21279055.7974
                                                                        50.5004
        37.0004
    450604.17247    364454.18045
                  22293482.1804                                   22293475.2304
                                                                        47.5004
        31.2504
  -2740150.33247  -2082758.66045
                  23102499.6254                                   23102496.2384
                                                                        45.2504
        32.5004
   1133401.32846    887919.10944
                  23678622.5704                                   23678620.9614
                                                                        41.7504
        26.5004
    703852.16447    562081.76643
                  24126227.8134                                   24126224.5744
                                                                        42.0004
        20.7504
 09 10 21 23 22 30.0000000  0  9G02G04G05G10G13G23G29G30G25
  -1198526.91848   -900624.14147
                  20413595.5944                                   20413589.4384
                                                                        53.0004
        43.5004
    882020.01648    694671.37546
                  21538430.4304                                   21538426.7624
                                                                        50.0004
        38.2504
  -3613990.23847  -2761350.06645
                  23520146.8594                                   23520143.4264
                                                                        45.2504
        33.2504
  -3503410.78948  -2671912.75045
                  22612788.1334                                   22612784.0594
                                                                        48.0004
        33.5004
  -1629763.23848  -1231827.78946
                  21255989.6484                                   21255984.6724
                                                                        51.0004
        37.0004
    410210.39147    332978.49245
                  22285795.5474                                   22285788.8524
                                                                        47.7504
        31.7504
  -2916209.87947  -2219948.07445
                  23068996.8914                                   23068994.0864
                                                                        45.7504
        32.2504
   1120377.20747    877770.51244
                  23676145.0314                                   23676142.1724
                                                                        43.2504
        27.5004
    517810.79747    417114.49643
                  24090825.7894                                   24090822.1684
                                                                        42.0004
        22.0004
 09 10 21 23 23  0.0000000  0  9G02G04G05G10G13G23G29G30G25
  -1302704.71148   -981801.66447
                  20393771.3444                                   20393765.1524
                                                                        53.0004
        43.2504
    859683.98448    677266.72346
                  21534179.7894                                   21534175.6844
                                                                        50.0004
        38.5004
  -3820446.34847  -2922224.90245
                  23480859.7734                                   23480855.8404
                                                                        46.2504
        33.2504
  -3704144.19947  -2828328.36745
                  22574589.3674                                   22574585.3164
                                                                        46.7504
        33.0004
  -1750273.05948  -1325731.37146
                  21233057.0314                                   21233052.4804
                                                                        50.2504
        37.0004
    370419.19948    301972.35245
                  22278223.5234                                   22278217.1644
                                                                        48.2504
        31.7504
  -3091785.73047  -2356760.42245
                  23035585.6024                                   23035582.8134
                                                                        46.0004
        33.2504
   1107844.59047    868004.88744
                  23673760.2974                                   23673757.2734
                                                                        43.5004
        28.5004
    332134.86746    272431.94143
                  24055492.6094                                   24055489.3794
                                                                        41.0004
        22.5004
 09 10 21 23 23 30.0000000  0  9G02G04G05G10G13G23G29G30G25
  -1406236.66048  -1062475.93047
                  20374069.9844                                   20374064.0044
                                                                        52.0004
        43.5004
    837829.86348    660237.56646
                  21530020.9064                                   21530017.1134
                                                                        50.0004
        38.5004
  -4026639.63747  -3082894.95745
                  23441622.3134                                   23441618.2344
                                                                        45.5004
        33.0004
  -3904513.99047  -2984460.67645
                  22536460.1334                                   22536456.3554
                                                                        46.7504
        33.5004
  -1870055.26248  -1419068.03146
                  21210263.3284                                   21210258.7504
                                                                        50.5004
        37.0004
    331227.67648    271433.47345
                  22270765.8134                                   22270759.0084
                                                                        48.0004
        31.5004
  -3266877.09447  -2493195.20745
                  23002267.2894                                   23002263.8444
                                                                        45.5004
        33.0004
   1095799.64147    858619.28944
                  23671467.8284                                   23671465.0474
                                                                        42.2504
        28.2504
    146826.07047    128035.50443
                  24020229.4454                                   24020225.8954
                                                                        42.7504
        22.0004
 09 10 21 23 24  0.0000000  0  9G02G04G05G10G13G23G29G30G25
  -1509119.77048  -1142644.44947
                  20354491.9064                                   20354485.3954
                                                                        52.0004
        43.2504
    816457.45748    643583.77346
                  21525954.0704                                   21525950.0904
                                                                        50.5004
        38.2504
  -4232566.25847  -3243357.29345
                  23402436.1724                                   23402431.3054
                                                                        46.2504
        31.5004
  -4104516.06247  -3140306.45745
                  22498401.2274                                   22498397.1134
                                                                        46.5004
        34.0004
  -1989107.91448  -1511836.40646
                  21187608.5864                                   21187603.5234
                                                                        50.0004
        36.2504
    292635.24247    241361.41845
                  22263421.8134                                   22263414.8164
                                                                        47.2504
        31.5004
  -3441479.68747  -2629249.19545
                  22969041.4694                                   22969038.9224
                                                                        45.2504
        33.5004
   1084241.11347    849612.62544
                  23669268.6094                                   23669266.3594
                                                                        43.2504
        27.2504
    -38111.28547    -16071.41443
                  23985037.2974                                   23985033.4734
                                                                        42.5004
        22.5004
 09 10 21 23 24 30.0000000  0  9G02G04G05G10G13G23G29G30G25
  -1611359.32448  -1222311.60247
                  20335036.0554                                   20335030.1214
                                                                        52.5004
        43.2504
    795559.85248    627299.98846
                  21521977.7274                                   21521973.6134
                                                                        50.7504
        38.7504
  -4438229.20347  -3403614.11745
                  23363299.9384                                   23363294.9804
                                                                        45.2504
        32.0004
  -4304153.69947  -3295868.21545
                  22460411.6094                                   22460407.4654
                                                                        47.2504
        34.0004
  -2107435.19948  -1604039.52346
                  21165091.6884                                   21165086.7704
                                                                        49.5004
        36.5004
    254634.64148    211750.56345
                  22256190.7584                                   22256183.3014
                                                                        48.5004
        31.0004
  -3615595.98847  -2764924.14845
                  22935908.0864                                   22935905.3094
                                                                        45.0004
        32.2504
   1073160.75447    840978.62944
                  23667159.9694                                   23667157.3284
                                                                        43.5004
        24.7504
   -222679.81647   -159890.98043
                  23949914.4924                                   23949911.0434
                                                                        42.2504
        22.0004
 09 10 21 23 25  0.0000000  0  9G02G04G05G10G13G23G29G30G25
  -1712955.09848  -1301477.15247
                  20315703.2504                                   20315697.1524
                                                                        51.7504
        43.5004
    775135.23048    611384.71546
                  21518090.8594                                   21518086.5164
                                                                        50.5004
        37.7504
  -4643626.54747  -3563663.96145
                  23324213.7664                                   23324209.7584
                                                                        44.0004
        33.0004
  -4503424.51247  -3451144.11345
                  22422491.3754                                   22422487.2974
                                                                        47.7504
        34.2504
  -2225035.66848  -1695676.14546
                  21142712.9144                                   21142707.9184
                                                                        49.5004
        36.5004
    217224.26248    182599.60945
                  22249071.7974                                   22249064.4734
                                                                        48.0004
        31.7504
  -3789224.45747  -2900219.05945
                  22902867.9534                                   22902864.2814
                                                                        45.0004
        32.7504
   1062555.15647    832714.59844
                  23665140.9774                                   23665138.7814
                                                                        42.2504
        24.2504
   -406875.85247   -303420.14543
                  23914863.2344                                   23914859.5474
                                                                        42.0004
        22.7504
 09 10 21 23 25 30.0000000  0  9G02G04G05G10G13G23G29G30G25
  -1813905.18748  -1380139.62547
                  20296493.2194                                   20296486.6024
                                                                        52.2504
        43.2504
    755182.99248    595837.49646
                  21514294.0474                                   21514289.9614
                                                                        51.0004
        38.2504
  -4848755.28147  -3723504.50845
                  23285178.9844                                   23285175.1484
                                                                        45.5004
        34.0004
  -4702325.18447  -3606131.62945
                  22384641.8524                                   22384638.3594
                                                                        47.5004
        34.2504
  -2341908.21948  -1786745.71546
                  21120472.9774                                   21120467.9964
                                                                        49.5004
        37.0004
    180403.15648    153907.79745
                  22242065.1414                                   22242058.4224
                                                                        48.2504
        32.7504
  -3962361.05547  -3035130.66845
                  22869920.8834                                   22869917.2894
                                                                        44.5004
        33.0004
   1052422.85947    824819.49243
                  23663212.2274                                   23663210.1884
                                                                        42.5004
        23.0004
   -590696.05546   -446656.59843
                  23879883.1954                                   23879879.5314
                                                                        40.0004
        21.7504
