     2.11           OBSERVATION DATA    G (GPS)             RINEX VERSION / TYPE
teqc  2019Feb25                         20221121 12:28:31UTCPGM / RUN BY / DATE
OSX ker:10.11.6|Core i5|gcc 4.3 -m64|OSX ker:10.10+|=+      COMMENT
BIT 2 OF LLI FLAGS DATA COLLECTED UNDER A/S CONDITION       COMMENT
04712921                                                    MARKER NAME
2921                                                        MARKER NUMBER
-Unknown-           -Unknown-                               OBSERVER / AGENCY
0220400471          TRIMBLE R7          2.30                REC # / TYPE / VERS
-Unknown-           TRM39105.00     NONE                    ANT # / TYPE
  1449459.2310 -1709242.5999  5952442.7474                  APPROX POSITION XYZ
        0.0000        0.0000        0.0000                  ANTENNA: DELTA H/E/N
     1     1                                                WAVELENGTH FACT L1/2
    20    L1    L2    L5    L6    L7    L8    C1    P1    C2# / TYPES OF OBSERV
          P2    C5    C6    C7    C8    S1    S2    S5    S6# / TYPES OF OBSERV
          S7    S8                                          # / TYPES OF OBSERV
    30.0000                                                 INTERVAL
    15                                                      LEAP SECONDS
Forced Modulo Decimation to 30 seconds                      COMMENT
 SNR is mapped to RINEX snr flag value [0-9]                COMMENT
  L1 & L2: min(max(int(snr_dBHz/6), 0), 9)                  COMMENT
teqc edited: Beidou # 1 - 37 excluded                       COMMENT
  2009    10    19    23    10   30.0000000     GPS         TIME OF FIRST OBS
                                                            END OF HEADER
 09 10 19 23 10 30.0000000  0  8G02G04G10G13G23G29G30G31
   -161996.36358   -107056.43057
                  20668236.0164                                   20668230.1724
                                                                        51.2504
        43.2504
    -51712.70358    -34683.44156
                  21139826.2114                                   21139822.7424
                                                                        51.5004
        41.0004
   -269063.38756   -176454.79754
                  23585580.3204                                   23585577.1954
                                                                        41.5004
        26.0004
   -185969.04358   -127150.56656
                  21649908.2194                                   21649903.7774
                                                                        50.0004
        36.5004
    -79571.57058    -53313.14855
                  22048015.8594                                   22048009.5314
                                                                        49.0004
        35.2504
   -221578.99257   -133947.41454
                  23850528.5474                                   23850525.1604
                                                                        43.5004
        27.5004
    -40821.55957    -26931.89554
                  23210985.2114                                   23210981.7624
                                                                        44.7504
        28.5004
    -49563.18757    -33358.37154
                  24253124.7194                                   24253120.9304
                                                                        42.2504
        26.5004
 09 10 19 23 11  0.0000000  0  8G02G04G10G13G23G29G30G31
   -290366.00048   -207084.73447
                  20643808.3204                                   20643802.3594
                                                                        51.7504
        42.5004
    -94013.25848    -67644.92246
                  21131777.0554                                   21131773.3984
                                                                        52.2504
        41.0004
   -481648.41847   -342105.45344
                  23545126.9454                                   23545123.1374
                                                                        42.7504
        26.7504
   -333812.47748   -242353.23046
                  21621774.6254                                   21621770.2074
                                                                        50.7504
        36.0004
   -143681.45348   -103268.94545
                  22035816.0634                                   22035809.9454
                                                                        49.5004
        34.0004
   -413579.06647   -283557.85544
                  23813992.3914                                   23813989.1454
                                                                        44.0004
        28.7504
    -74323.43047    -53037.26644
                  23204610.5004                                   23204606.9064
                                                                        45.5004
        29.7504
    -90767.10247    -65465.27744
                  24245283.6094                                   24245280.2034
                                                                        42.2504
        26.5004
 09 10 19 23 11 30.0000000  0  8G02G04G10G13G23G29G30G31
   -418132.03948   -306642.70347
                  20619495.2584                                   20619489.3284
                                                                        51.5004
        42.7504
   -135772.21148   -100184.37946
                  21123830.5164                                   21123826.6844
                                                                        51.2504
        40.0004
   -693971.84047   -507552.27344
                  23504723.3364                                   23504719.3674
                                                                        44.5004
        27.7504
   -480989.00048   -357036.27046
                  21593768.2274                                   21593763.5594
                                                                        51.0004
        36.0004
   -207134.86348   -152713.22345
                  22023741.3914                                   22023735.0594
                                                                        48.0004
        34.5004
   -605205.08647   -432876.90244
                  23777527.0314                                   23777523.8404
                                                                        44.2504
        29.0004
   -107232.93747    -78681.34844
                  23198348.0634                                   23198344.8554
                                                                        46.2504
        29.5004
   -131423.39547    -97145.36344
                  24237546.6484                                   24237543.0704
                                                                        42.5004
        27.2504
 09 10 19 23 12  0.0000000  0  8G02G04G10G13G23G29G30G31
   -544992.38348   -405494.88747
                  20595354.4224                                   20595348.5824
                                                                        51.7504
        43.0004
   -176690.25048   -132068.60546
                  21116043.8674                                   21116040.0394
                                                                        52.2504
        40.5004
   -905730.75447   -672559.24644
                  23464427.1724                                   23464422.8914
                                                                        44.5004
        28.2504
   -627195.55148   -470963.46946
                  21565946.0084                                   21565941.6174
                                                                        50.7504
        36.2504
   -269632.29748   -201412.55545
                  22011848.3754                                   22011842.4224
                                                                        48.7504
        34.7504
   -796153.71947   -581668.12944
                  23741190.6804                                   23741187.6764
                                                                        43.7504
        29.5004
   -139250.96547   -103630.50844
                  23192255.1884                                   23192252.4454
                                                                        45.7504
        28.7504
   -171233.81647   -128166.48444
                  24229971.0314                                   24229968.1054
                                                                        42.2504
        27.0004
 09 10 19 23 12 30.0000000  0  8G02G04G10G13G23G29G30G31
   -670853.69148   -503568.67247
                  20571403.8284                                   20571398.0084
                                                                        51.2504
        43.0004
   -216676.72748   -163226.92646
                  21108434.7664                                   21108431.3404
                                                                        51.0004
        41.0004
  -1116830.73447   -837052.77744
                  23424255.9384                                   23424252.4344
                                                                        44.2504
        28.5004
   -772338.19948   -584061.63346
                  21538326.1094                                   21538321.7664
                                                                        50.0004
        36.0004
   -331082.79748   -249296.09445
                  22000154.6414                                   22000148.6254
                                                                        48.5004
        33.7504
   -986329.91447   -729857.30144
                  23705001.5394                                   23704998.8324
                                                                        43.7504
        28.7504
   -170288.01647   -127815.11744
                  23186348.9144                                   23186345.6374
                                                                        44.5004
        27.7504
   -210107.71946   -158457.78944
                  24222573.8594                                   24222570.4104
                                                                        41.2504
        26.7504
 09 10 19 23 13  0.0000000  0  9G02G04G05G10G13G23G29G30G31
   -795686.96548   -600841.38747
                  20547648.8284                                   20547642.8404
                                                                        51.2504
        43.0004
   -255705.06648   -193638.64846
                  21101008.2504                                   21101004.4344
                                                                        51.5004
        40.7504
   -273465.74657   -172178.03954
                  24302947.5394                                   24302943.5044
                                                                        42.0004
        28.5004
  -1327241.46947  -1001009.24644
                  23384215.5394                                   23384212.6724
                                                                        44.5004
        28.7504
   -916387.44548   -696307.79346
                  21510914.3984                                   21510909.6954
                                                                        50.7504
        36.2504
   -391459.78948   -296343.09045
                  21988665.5234                                   21988658.9144
                                                                        49.2504
        34.2504
  -1175703.56647   -877421.05944
                  23668964.2734                                   23668961.6564
                                                                        44.2504
        29.2504
   -200319.53947   -151216.35544
                  23180633.7114                                   23180630.3714
                                                                        44.5004
        27.7504
   -248019.62946   -187999.56644
                  24215358.8594                                   24215356.1374
                                                                        40.0004
        26.0004
 09 10 19 23 13 30.0000000  0  9G02G04G05G10G13G23G29G30G31
   -919490.82448   -697311.93747
                  20524089.5554                                   20524084.0434
                                                                        52.0004
        43.0004
   -293776.47748   -223304.69946
                  21093763.1564                                   21093759.6024
                                                                        52.5004
        40.5004
   -485314.43747   -337254.86744
                  24262634.1334                                   24262630.2074
                                                                        42.0004
        29.2504
  -1536960.12547  -1164426.34844
                  23344307.7734                                   23344305.2114
                                                                        43.5004
        29.0004
  -1059341.50848   -807700.53946
                  21483711.1484                                   21483706.7584
                                                                        51.0004
        36.2504
   -450764.20748   -342554.32045
                  21977380.2034                                   21977373.7854
                                                                        48.5004
        34.2504
  -1364271.98047  -1024357.47744
                  23633081.2814                                   23633078.1454
                                                                        43.5004
        29.5004
   -229347.56647   -173835.71144
                  23175110.0234                                   23175107.0704
                                                                        44.5004
        27.5004
   -284971.15646   -216793.07444
                  24208327.2274                                   24208324.4804
                                                                        40.7504
        24.7504
 09 10 19 23 14  0.0000000  0  9G02G04G05G10G13G23G29G30G31
  -1042275.15248   -792988.04347
                  20500724.6024                                   20500718.7974
                                                                        51.7504
        42.7504
   -330903.47348   -252234.82046
                  21086698.4454                                   21086694.3244
                                                                        52.2504
        40.5004
   -696569.98846   -501869.50044
                  24222432.6954                                   24222429.5784
                                                                        40.5004
        28.7504
  -1745995.52346  -1327311.09845
                  23304529.2734                                   23304526.9384
                                                                        41.7504
        30.0004
  -1201209.44548   -918246.99246
                  21456714.7734                                   21456710.2344
                                                                        51.0004
        36.0004
   -509008.60248   -387939.56645
                  21966296.5394                                   21966290.5554
                                                                        48.7504
        33.7504
  -1552043.44547  -1170673.09844
                  23597350.1724                                   23597346.3674
                                                                        44.5004
        29.2504
   -257385.06247   -195683.05544
                  23169774.6884                                   23169771.6374
                                                                        42.5004
        27.0004
   -320975.05146   -244848.13344
                  24201476.8754                                   24201473.3014
                                                                        40.5004
        26.0004
 09 10 19 23 14 30.0000000  0  9G02G04G05G10G13G23G29G30G31
  -1164051.15248   -887878.33247
                  20477551.6414                                   20477545.3984
                                                                        52.0004
        42.7504
   -367100.02348   -280439.92646
                  21079810.0864                                   21079806.6024
                                                                        51.5004
        40.5004
   -907243.48447   -666030.59844
                  24182343.6484                                   24182340.1954
                                                                        42.5004
        28.5004
  -1954357.93747  -1489671.38344
                  23264880.0164                                   23264876.7034
                                                                        43.0004
        29.7504
  -1342002.18048  -1027955.64146
                  21429922.6724                                   21429918.4304
                                                                        50.7504
        36.0004
   -566206.63348   -432509.41845
                  21955412.3594                                   21955406.4414
                                                                        49.0004
        34.5004
  -1739027.75847  -1316375.24644
                  23561768.3284                                   23561764.2934
                                                                        44.7504
        29.5004
   -284447.71147   -216770.76244
                  23164624.2034                                   23164621.6294
                                                                        43.0004
        27.0004
   -356046.19146   -272176.38344
                  24194802.9534                                   24194799.6094
                                                                        40.5004
        25.2504
 09 10 19 23 15  0.0000000  0  9G02G04G05G10G13G23G29G30G31
  -1284826.39148   -981988.79347
                  20454568.4774                                   20454562.3674
                                                                        52.2504
        42.7504
   -402376.48448   -307928.10546
                  21073097.4144                                   21073094.0314
                                                                        52.0004
        40.5004
  -1117341.00847   -829742.89144
                  24142363.0314                                   24142359.4144
                                                                        43.0004
        28.0004
  -2162053.61347  -1651512.12944
                  23225356.7814                                   23225353.4614
                                                                        42.7504
        29.5004
  -1481726.65648  -1136831.88746
                  21403334.0164                                   21403329.3954
                                                                        50.7504
        36.0004
   -622368.57048   -476272.05145
                  21944725.0944                                   21944719.1564
                                                                        49.0004
        34.2504
  -1925230.28947  -1461468.03144
                  23526334.5944                                   23526331.3714
                                                                        44.2504
        29.2504
   -310546.46947   -237107.52744
                  23159658.3054                                   23159655.1174
                                                                        44.2504
        27.0004
   -390195.09046   -298786.10944
                  24188304.3444                                   24188301.5274
                                                                        40.7504
        25.5004
 09 10 19 23 15 30.0000000  0  9G02G04G05G10G13G23G29G30G31
  -1404612.80148  -1075328.77047
                  20431773.6954                                   20431767.9804
                                                                        51.7504
        43.0004
   -436747.17648   -334710.47346
                  21066557.0864                                   21066553.5004
                                                                        51.7504
        40.2504
  -1326873.62947   -993014.99244
                  24102490.1954                                   24102486.4454
                                                                        43.2504
        27.2504
  -2369093.53947  -1812841.98044
                  23185958.5314                                   23185954.6024
                                                                        44.2504
        29.5004
  -1620394.34048  -1244884.62946
                  21376946.6334                                   21376941.8714
                                                                        51.0004
        36.0004
   -677508.25848   -519238.06645
                  21934232.2114                                   21934226.0554
                                                                        48.5004
        34.2504
  -2110661.91047  -1605960.03944
                  23491047.7814                                   23491044.2344
                                                                        44.7504
        28.5004
   -335697.02047   -256705.48044
                  23154873.0394                                   23154869.6484
                                                                        44.5004
        27.5004
   -423436.54746   -324688.57443
                  24181978.7194                                   24181975.1134
                                                                        41.2504
        23.7504
 09 10 19 23 16  0.0000000  0  9G02G04G05G10G13G23G29G30G31
  -1523430.41048  -1167913.90647
                  20409163.6024                                   20409157.9654
                                                                        52.0004
        43.2504
   -470234.58648   -360804.58646
                  21060184.3594                                   21060180.8834
                                                                        51.7504
        40.0004
  -1535860.23047  -1155861.66844
                  24062721.1804                                   24062717.6844
                                                                        42.0004
        27.0004
  -2575496.04347  -1973675.09444
                  23146681.2814                                   23146677.6844
                                                                        42.7504
        29.0004
  -1758024.31248  -1352128.73046
                  21350756.3134                                   21350751.8554
                                                                        51.5004
        36.5004
   -731647.85248   -561424.63745
                  21923929.8284                                   21923923.4804
                                                                        49.0004
        34.2504
  -2295341.07847  -1749865.69144
                  23455903.9454                                   23455901.2074
                                                                        44.0004
        29.5004
   -359922.93747   -275582.81644
                  23150262.6884                                   23150259.0784
                                                                        44.0004
        27.2504
   -455793.92247   -349902.10244
                  24175821.5554                                   24175817.7504
                                                                        43.0004
        24.5004
 09 10 19 23 16 30.0000000  0  9G02G04G05G10G13G23G29G30G31
  -1641295.15248  -1259756.56647
                  20386734.5864                                   20386728.9384
                                                                        52.2504
        43.2504
   -502857.50448   -386225.10946
                  21053976.2424                                   21053973.1484
                                                                        51.5004
        40.2504
  -1744315.93447  -1318294.67244
                  24023053.3594                                   24023049.7584
                                                                        42.5004
        28.5004
  -2781276.26647  -2134023.33244
                  23107521.9224                                   23107519.1024
                                                                        42.7504
        28.0004
  -1894632.26248  -1458576.39846
                  21324760.5864                                   21324755.8364
                                                                        51.0004
        36.0004
   -784806.26248   -602846.69545
                  21913813.7274                                   21913807.6644
                                                                        49.0004
        34.2504
  -2479282.51647  -1893196.61345
                  23420901.2814                                   23420898.6134
                                                                        43.2504
        30.5004
   -383243.87147   -293754.93744
                  23145824.8914                                   23145821.1524
                                                                        45.2504
        26.5004
   -487286.32447   -374441.59444
                  24169828.8914                                   24169824.9104
                                                                        42.2504
        24.5004
 09 10 19 23 17  0.0000000  0  9G02G04G05G10G13G23G29G30G31
   -182798.96148   -123265.98847
                  20664277.2584                                   20664271.4224
                                                                        52.0004
        42.5004
   1040787.03948    816614.80946
                  21347722.4224                                   21347719.0234
                                                                        51.0004
        40.0004
   -376828.69147   -252720.16044
                  24283277.6564                                   24283274.4774
                                                                        42.0004
        28.0004
  -1411021.43047  -1066292.21144
                  23368272.5474                                   23368270.4304
                                                                        42.5004
        29.5004
   -454808.98048   -336636.10546
                  21598749.5704                                   21598745.1214
                                                                        51.2504
        36.2504
    738419.81348    584082.77045
                  22203674.0784                                   22203668.0234
                                                                        49.0004
        33.7504
  -1087074.18747   -808358.78945
                  23685830.1094                                   23685827.1214
                                                                        44.2504
        30.5004
   1169741.05947    916363.14544
                  23441347.9454                                   23441344.5824
                                                                        44.7504
        27.5004
   1057488.07447    829278.74244
                  24463789.7034                                   24463785.4264
                                                                        42.5004
        25.0004
 09 10 19 23 17 30.0000000  0  9G02G04G05G10G13G23G29G30G31
   -298807.30148   -213662.11347
                  20642201.4384                                   20642195.7894
                                                                        52.5004
        43.0004
   1009836.45348    792497.44946
                  21341832.8754                                   21341829.1334
                                                                        51.5004
        40.7504
   -584268.75046   -414361.71544
                  24243802.7034                                   24243799.7114
                                                                        40.7504
        29.0004
  -1615601.42647  -1225705.06645
                  23329342.6564                                   23329339.6524
                                                                        43.0004
        30.5004
   -589420.96548   -441528.58646
                  21573134.2114                                   21573129.6684
                                                                        51.5004
        36.5004
    687166.89848    544145.50445
                  22193920.9224                                   22193914.6804
                                                                        48.7504
        33.2504
  -1269584.45747   -950574.55945
                  23651098.8524                                   23651096.5744
                                                                        43.5004
        30.5004
   1148169.96947    899554.61744
                  23437243.4384                                   23437239.9064
                                                                        44.5004
        27.0004
   1027666.80146    806041.41744
                  24458114.6094                                   24458110.8794
                                                                        40.2504
        25.7504
 09 10 19 23 18  0.0000000  0  9G02G04G05G10G13G23G29G30G31
   -413910.46548   -303352.91447
                  20620298.1024                                   20620292.4804
                                                                        52.0004
        43.0004
    979695.16848    769010.75846
                  21336096.9774                                   21336093.4804
                                                                        51.7504
        40.5004
   -791222.81246   -575624.58244
                  24204420.3364                                   24204417.8754
                                                                        40.5004
        29.2504
  -1819602.91447  -1384667.22345
                  23290522.7664                                   23290519.5394
                                                                        45.0004
        31.5004
   -723057.02048   -545660.59046
                  21547703.8364                                   21547699.7304
                                                                        51.2504
        37.0004
    636840.23448    504930.09845
                  22184344.2344                                   22184337.6884
                                                                        49.5004
        33.5004
  -1451399.81247  -1092248.78145
                  23616500.8754                                   23616498.0084
                                                                        43.0004
        30.2504
   1127444.50047    883404.91844
                  23433298.7274                                   23433296.2194
                                                                        44.0004
        26.5004
    998653.05546    783433.28144
                  24452593.2974                                   24452589.7034
                                                                        40.0004
        26.7504
 09 10 19 23 18 30.0000000  0  9G02G04G05G10G13G23G29G30G31
   -528121.45348   -392348.49247
                  20598564.6484                                   20598558.6054
                                                                        51.7504
        42.5004
    950347.44948    746142.36346
                  21330512.3674                                   21330509.1604
                                                                        51.0004
        40.0004
   -997702.41846   -736517.80944
                  24165129.4694                                   24165126.1724
                                                                        41.2504
        29.5004
  -2023037.36347  -1543187.57045
                  23251811.0314                                   23251807.3444
                                                                        45.7504
        32.5004
   -855729.68448   -649041.90646
                  21522457.1414                                   21522452.8674
                                                                        51.7504
        36.0004
    587424.09848    466424.04345
                  22174940.4924                                   22174933.9774
                                                                        49.2504
        34.5004
  -1632531.68447  -1233390.51644
                  23582032.5394                                   23582029.0044
                                                                        44.0004
        29.0004
   1107547.94947    867901.11744
                  23429512.6334                                   23429509.7974
                                                                        44.5004
        28.2504
    970430.79346    761441.79744
                  24447223.2424                                   24447219.5864
                                                                        40.7504
        25.0004
 09 10 19 23 19  0.0000000  0  9G02G04G05G10G13G23G29G30G31
   -641452.46548   -480658.42247
                  20576998.3284                                   20576992.4964
                                                                        52.2504
        43.0004
    921778.82848    723881.11346
                  21325075.8914                                   21325072.1644
                                                                        51.5004
        40.2504
  -1203719.00046   -897050.27745
                  24125925.5084                                   24125922.1294
                                                                        41.7504
        30.5004
  -2225916.02047  -1701274.80545
                  23213203.9774                                   23213200.7424
                                                                        47.0004
        30.7504
   -987450.72748   -751681.71546
                  21497391.5314                                   21497387.1374
                                                                        51.0004
        36.5004
    538903.82048    428616.09445
                  22165707.4144                                   22165700.9654
                                                                        49.0004
        33.7504
  -1812991.19947  -1374008.54345
                  23547692.2194                                   23547689.0314
                                                                        44.5004
        30.0004
   1088464.89147    853031.22744
                  23425881.3594                                   23425878.8364
                                                                        42.5004
        27.5004
    942984.75446    740055.07444
                  24441999.8524                                   24441996.7704
                                                                        40.2504
        24.2504
 09 10 19 23 19 30.0000000  0  9G02G04G05G10G13G23G29G30G31
   -753916.36748   -568292.65247
                  20555597.0004                                   20555591.4104
                                                                        52.5004
        42.7504
    893973.43048    702214.57446
                  21319784.5474                                   21319781.1024
                                                                        51.2504
        40.7504
  -1409283.86747  -1057230.62544
                  24086807.9614                                   24086804.0004
                                                                        42.0004
        29.2504
  -2428250.16047  -1858937.73044
                  23174700.5234                                   23174697.4384
                                                                        45.5004
        28.5004
  -1118232.69148   -853589.73446
                  21472504.3364                                   21472500.2934
                                                                        50.7504
        36.5004
    491263.52348    391493.62945
                  22156641.6094                                   22156635.0514
                                                                        50.2504
        34.0004
  -1992788.44147  -1514110.28145
                  23513478.2194                                   23513474.5744
                                                                        45.0004
        30.0004
   1070179.00047    838782.53544
                  23422401.5474                                   23422399.2584
                                                                        43.2504
        26.5004
    916299.50846    719261.34044
                  24436921.4144                                   24436919.2734
                                                                        40.2504
        25.5004
 09 10 19 23 20  0.0000000  0  9G02G04G05G10G13G23G29G30G31
   -865524.75848   -655260.25447
                  20534358.7664                                   20534353.2194
                                                                        52.7504
        43.2504
    866917.35248    681131.93046
                  21314636.1644                                   21314632.7464
                                                                        51.7504
        40.5004
  -1614407.89546  -1217067.50844
                  24047773.8054                                   24047769.9024
                                                                        41.0004
        28.0004
  -2630050.04747  -2016184.35244
                  23136299.3204                                   23136295.7894
                                                                        45.0004
        29.5004
  -1248086.42248   -954774.47346
                  21447793.9384                                   21447789.6684
                                                                        51.0004
        36.5004
    444489.94548    355046.67245
                  22147741.1484                                   22147734.7464
                                                                        49.2504
        34.0004
  -2171934.57447  -1653704.84844
                  23479388.1804                                   23479384.1524
                                                                        43.7504
        29.5004
   1052674.96547    825143.12144
                  23419070.2894                                   23419068.4064
                                                                        43.0004
        27.7504
    890359.53946    699048.33243
                  24431985.6954                                   24431982.9494
                                                                        40.7504
        22.7504
 09 10 19 23 20 30.0000000  0  9G02G04G05G10G13G23G29G30G31
   -976291.78148   -741572.23047
                  20513280.4454                                   20513274.8984
                                                                        53.0004
        43.2504
    840593.74648    660620.03146
                  21309626.9304                                   21309623.3594
                                                                        51.5004
        40.2504
  -1819104.37146  -1376571.32444
                  24008821.1174                                   24008817.8364
                                                                        41.2504
        28.0004
  -2831328.41047  -2173024.70745
                  23097997.1804                                   23097993.4804
                                                                        45.2504
        30.0004
  -1377025.71948  -1055246.64546
                  21423257.9614                                   21423253.5204
                                                                        51.5004
        36.5004
    398566.37548    319262.09045
                  22139001.8364                                   22138995.6024
                                                                        49.5004
        33.0004
  -2350441.14547  -1792800.86745
                  23445419.3594                                   23445415.8204
                                                                        44.0004
        30.2504
   1035934.85547    812098.93044
                  23415884.8524                                   23415882.6484
                                                                        43.7504
        27.5004
    865147.91846    679402.93444
                  24427188.2114                                   24427186.0274
                                                                        41.2504
        25.2504
 09 10 19 23 21  0.0000000  0  9G02G04G05G10G13G23G29G30G31
  -1086228.28548   -827237.02747
                  20492360.1564                                   20492354.4384
                                                                        52.5004
        42.7504
    814989.57848    640668.74646
                  21304754.4384                                   21304750.9884
                                                                        51.7504
        40.0004
  -2023382.39147  -1535748.99244
                  23969948.5004                                   23969945.1764
                                                                        43.0004
        29.0004
  -3032094.54347  -2329465.81645
                  23059792.6804                                   23059789.5594
                                                                        45.0004
        30.5004
  -1505060.91448  -1155014.33646
                  21398893.3524                                   21398889.0554
                                                                        51.0004
        36.5004
    353479.64548    284129.57845
                  22130422.7894                                   22130416.2114
                                                                        49.5004
        33.5004
  -2528317.42647  -1931405.69945
                  23411570.1414                                   23411567.2274
                                                                        43.5004
        30.5004
   1019944.05547    799638.57044
                  23412842.7114                                   23412839.3674
                                                                        44.0004
        26.5004
    840650.96546    660314.66444
                  24422526.6094                                   24422523.7854
                                                                        41.5004
        25.2504
 09 10 19 23 21 30.0000000  0  9G02G04G05G10G13G23G29G30G31
  -1195341.60548   -912260.37947
                  20471596.6094                                   20471591.2664
                                                                        52.2504
        42.5004
    790094.84448    621270.22346
                  21300016.9924                                   21300013.6884
                                                                        52.0004
        40.0004
  -2227248.30547  -1694605.52045
                  23931154.5784                                   23931151.3714
                                                                        45.2504
        31.5004
  -3232354.62147  -2485512.66045
                  23021684.9844                                   23021681.4184
                                                                        45.2504
        30.0004
  -1632198.60948  -1254082.68045
                  21374699.5394                                   21374695.3674
                                                                        51.2504
        35.5004
    309219.39148    249641.00445
                  22121999.5944                                   22121993.6414
                                                                        49.5004
        33.2504
  -2705569.27347  -2069523.84845
                  23377840.4304                                   23377837.3874
                                                                        42.5004
        31.5004
   1004691.53147    787753.45744
                  23409939.9304                                   23409936.6134
                                                                        45.0004
        26.7504
    816858.19547    641775.22344
                  24417999.1644                                   24417995.5044
                                                                        42.5004
        26.2504
 09 10 19 23 22  0.0000000  0  9G02G04G05G10G13G23G29G30G31
  -1303642.35548   -996650.54747
                  20450987.7584                                   20450981.8284
                                                                        52.5004
        43.2504
    765896.03548    602414.01646
                  21295412.2814                                   21295408.9264
                                                                        52.0004
        39.7504
  -2430711.80147  -1853148.42645
                  23892436.5784                                   23892433.2274
                                                                        44.7504
        31.2504
  -3432117.87147  -2641172.28945
                  22983670.7194                                   22983667.6414
                                                                        44.2504
        31.5004
  -1758449.75048  -1352460.18446
                  21350674.8524                                   21350670.9064
                                                                        50.7504
        36.2504
    265772.09448    215785.85945
                  22113732.1564                                   22113726.1644
                                                                        49.5004
        33.2504
  -2882206.07047  -2207162.77745
                  23344227.6334                                   23344224.3134
                                                                        43.7504
        31.0004
    990162.84847    776432.37944
                  23407175.2664                                   23407171.8404
                                                                        44.0004
        25.5004
    793754.89847    623772.94144
                  24413602.4224                                   24413598.8444
                                                                        43.0004
        27.7504
 09 10 19 23 22 30.0000000  0  9G02G04G05G10G13G23G29G30G31
  -1411140.26648  -1080415.15247
                  20430531.6334                                   20430526.1684
                                                                        51.2504
        42.7504
    742381.44148    584090.96546
                  21290937.5784                                   21290934.1214
                                                                        51.7504
        40.2504
  -2633781.51647  -2011384.55545
                  23853793.6884                                   23853790.2234
                                                                        44.2504
        31.0004
  -3631392.07447  -2796450.85545
                  22945750.5474                                   22945747.3714
                                                                        43.5004
        32.5004
  -1883823.20348  -1450153.79346
                  21326817.3524                                   21326813.2814
                                                                        51.0004
        36.2504
    223126.37148    182555.37145
                  22105616.7814                                   22105611.1374
                                                                        48.7504
        33.0004
  -3058235.55147  -2344328.52045
                  23310730.2974                                   23310727.3204
                                                                        43.7504
        31.7504
    976344.91847    765665.18044
                  23404545.4694                                   23404541.9774
                                                                        43.0004
        26.5004
    771328.26247    606297.69944
                  24409334.7274                                   24409331.0394
                                                                        42.7504
        26.7504
 09 10 19 23 23  0.0000000  0  9G02G04G05G10G13G23G29G30G31
  -1517844.51648  -1163561.30947
                  20410226.5394                                   20410220.7504
                                                                        52.0004
        43.0004
    719538.91048    566291.57846
                  21286591.0234                                   21286587.2274
                                                                        52.5004
        39.5004
  -2836465.14147  -2169319.76645
                  23815224.7274                                   23815221.0204
                                                                        44.5004
        31.0004
  -3830185.78547  -2951355.08645
                  22907921.0944                                   22907918.0984
                                                                        43.7504
        32.7504
  -2008327.92648  -1547170.46146
                  21303125.0864                                   21303120.7274
                                                                        51.2504
        36.7504
    181270.29748    149940.13345
                  22097652.4614                                   22097645.9844
                                                                        48.7504
        32.2504
  -3233665.27747  -2481027.09445
                  23277347.1954                                   23277343.6604
                                                                        44.0004
        30.0004
    963224.64547    755441.59844
                  23402049.3984                                   23402045.4344
                                                                        43.7504
        26.0004
    749566.87147    589340.96943
                  24405193.2504                                   24405189.9964
                                                                        43.0004
        23.7504
 09 10 19 23 23 30.0000000  0  9G02G04G05G10G13G23G29G30G31
  -1623762.02748  -1246094.44147
                  20390070.7274                                   20390065.3674
                                                                        52.7504
        43.0004
    697359.50848    549008.91846
                  21282370.1804                                   21282366.8794
                                                                        51.7504
        39.5004
  -3038768.54347  -2326958.71544
                  23776726.7114                                   23776723.5514
                                                                        43.2504
        28.5004
  -4028503.79747  -3105888.62545
                  22870182.4534                                   22870179.2304
                                                                        44.5004
        31.0004
  -2131969.98848  -1643514.93746
                  21279596.4694                                   21279592.2034
                                                                        50.7504
        36.2504
    140194.56648    117932.89845
                  22089835.8914                                   22089829.7274
                                                                        48.5004
        33.0004
  -3408500.50047  -2617262.39845
                  23244077.0084                                   23244073.4144
                                                                        43.0004
        30.5004
    950791.46547    745753.37544
                  23399682.3524                                   23399679.6024
                                                                        42.5004
        25.2504
    728460.24247    572894.25844
                  24401176.4924                                   24401172.9264
                                                                        42.2504
        25.2504
 09 10 19 23 24  0.0000000  0  9G02G04G05G10G13G23G29G30G31
  -1728902.89848  -1328022.36747
                  20370062.9224                                   20370057.4344
                                                                        52.7504
        43.0004
    675830.11748    532232.71946
                  21278273.5084                                   21278270.5434
                                                                        51.7504
        39.7504
  -3240700.68047  -2484308.44544
                  23738300.7424                                   23738296.7664
                                                                        44.2504
        28.5004
  -4226355.05547  -3260058.40645
                  22832532.6564                                   22832529.2344
                                                                        44.0004
        30.0004
  -2254759.69548  -1739195.23846
                  21256230.8524                                   21256226.1254
                                                                        50.5004
        36.5004
     99886.64148     86524.23845
                  22082165.8364                                   22082159.8134
                                                                        49.2504
        33.7504
  -3582749.19947  -2753040.56644
                  23210919.0634                                   23210915.0434
                                                                        43.5004
        29.7504
    939031.97747    736590.09044
                  23397444.6564                                   23397442.3794
                                                                        42.2504
        25.2504
    707994.95346    556947.28943
                  24397282.5634                                   24397278.3164
                                                                        39.7504
        22.2504
 09 10 19 23 24 30.0000000  0  9G02G04G05G10G13G23G29G30G31
  -1833275.00048  -1409351.33647
                  20350201.9924                                   20350196.3404
                                                                        52.7504
        43.2504
    654941.00448    515955.48446
                  21274298.0784                                   21274294.8364
                                                                        51.5004
        39.5004
  -3442267.52747  -2641373.42244
                  23699943.4924                                   23699939.7664
                                                                        44.0004
        29.5004
  -4423745.27747  -3413868.87545
                  22794970.3754                                   22794967.0274
                                                                        44.5004
        30.5004
  -2376703.87148  -1834216.70746
                  21233025.3674                                   21233020.9344
                                                                        51.5004
        36.5004
     60336.11748     55705.63745
                  22074639.1564                                   22074633.3754
                                                                        48.5004
        33.2504
  -3756417.54747  -2888366.44545
                  23177870.6804                                   23177867.0984
                                                                        44.0004
        30.0004
    927934.43047    727942.56644
                  23395333.0314                                   23395330.2234
                                                                        42.0004
        26.0004
    688160.43046    541491.75843
                  24393508.1644                                   24393504.0984
                                                                        39.5004
        21.7504
 09 10 19 23 25  0.0000000  0  9G02G04G05G10G13G23G29G30G31
  -1936884.55548  -1490086.03547
                  20330485.6884                                   20330479.8914
                                                                        52.2504
        42.7504
    634682.85248    500169.88746
                  21270443.3754                                   21270439.8484
                                                                        51.2504
        39.7504
  -3643474.66447  -2798158.18044
                  23661654.8134                                   23661651.5274
                                                                        43.7504
        29.2504
  -4620680.21947  -3567324.66845
                  22757495.2584                                   22757491.7734
                                                                        44.5004
        31.5004
  -2497808.90248  -1928584.28946
                  21209979.5864                                   21209975.6644
                                                                        50.7504
        36.2504
     21534.13748     25470.37945
                  22067255.0164                                   22067249.2114
                                                                        48.5004
        32.5004
  -3929510.44147  -3023243.98045
                  23144931.9614                                   23144928.8444
                                                                        43.7504
        30.5004
    917488.81347    719803.07444
                  23393346.1414                                   23393343.4224
                                                                        42.5004
        26.0004
    668946.95746    526520.12543
                  24389851.8594                                   24389848.2464
                                                                        37.5004
        20.2504
 09 10 19 23 25 30.0000000  0  9G02G04G05G10G13G23G29G30G31
   -464314.52348   -342628.74647
                  20610706.1414                                   20610700.7274
                                                                        52.2504
        43.5004
   2190467.99648   1712470.05146
                  21566499.3284                                   21566496.0904
                                                                        50.7504
        39.5004
  -2268900.23447  -1727061.14145
                  23923228.3524                                   23923225.0084
                                                                        43.7504
        31.7504
  -3241737.88747  -2492824.09045
                  23019899.0784                                   23019895.4844
                                                                        45.0004
        31.7504
  -1042656.52048   -794699.35946
                  21486886.2114                                   21486881.8754
                                                                        51.0004
        36.7504
