     2.11           OBSERVATION DATA    G (GPS)             RINEX VERSION / TYPE
teqc  2019Feb25                         20221121 12:28:39UTCPGM / RUN BY / DATE
OSX ker:10.11.6|Core i5|gcc 4.3 -m64|OSX ker:10.10+|=+      COMMENT
BIT 2 OF LLI FLAGS DATA COLLECTED UNDER A/S CONDITION       COMMENT
04712960                                                    MARKER NAME
2960                                                        MARKER NUMBER
-Unknown-           -Unknown-                               OBSERVER / AGENCY
0220400471          TRIMBLE R7          2.30                REC # / TYPE / VERS
-Unknown-           TRM39105.00     NONE                    ANT # / TYPE
  1449459.7119 -1709242.1061  5952441.9190                  APPROX POSITION XYZ
        0.0000        0.0000        0.0000                  ANTENNA: DELTA H/E/N
     1     1                                                WAVELENGTH FACT L1/2
    20    L1    L2    L5    L6    L7    L8    C1    P1    C2# / TYPES OF OBSERV
          P2    C5    C6    C7    C8    S1    S2    S5    S6# / TYPES OF OBSERV
          S7    S8                                          # / TYPES OF OBSERV
    30.0000                                                 INTERVAL
    15                                                      LEAP SECONDS
Forced Modulo Decimation to 30 seconds                      COMMENT
 SNR is mapped to RINEX snr flag value [0-9]                COMMENT
  L1 & L2: min(max(int(snr_dBHz/6), 0), 9)                  COMMENT
teqc edited: Beidou # 1 - 37 excluded                       COMMENT
  2009    10    23     0     0    0.0000000     GPS         TIME OF FIRST OBS
                                                            END OF HEADER
 09 10 23  0  0  0.0000000  0 10G02G04G05G10G13G23G25G29G16G07
  -8371485.05148  -6484069.49646
                  20773723.2194                                   20773716.5784
                                                                        52.0004
        41.5004
   -923675.68047   -712635.69145
                  23056467.4144                                   23056464.0864
                                                                        45.0004
        31.5004
 -19637423.35248 -15230253.47746
                  22042952.3984                                   22042947.9414
                                                                        50.0004
        39.2504
 -18714299.09848 -14508333.22346
                  21289750.6884                                   21289746.1374
                                                                        51.0004
        40.0004
  -9715525.39148  -7528140.58245
                  21413556.7974                                   21413551.2734
                                                                        49.5004
        35.5004
  -2321467.77347  -1794052.01644
                  23591159.4774                                   23591153.2274
                                                                        42.2504
        25.0004
 -15236855.78547 -11852354.93744
                  23024184.0944                                   23024179.1684
                                                                        45.2504
        29.2504
 -15814561.53948 -12257602.03946
                  22229702.2034                                   22229698.4384
                                                                        49.7504
        37.2504
  -3277453.72746  -2518683.26643
                  24159569.2344                                   24159564.2234
                                                                        41.2504
        21.5004
  -2030877.14146  -1567267.12143
                  24316541.5864                                   24316536.9384
                                                                        41.5004
        23.7504
 09 10 23  0  0 30.0000000  0 10G02G04G05G10G13G23G25G29G16G07
  -8424985.68048  -6525758.23846
                  20763542.2194                                   20763535.6294
                                                                        52.2504
        41.7504
   -915590.48847   -706335.53945
                  23058006.1724                                   23058002.1374
                                                                        46.0004
        32.0004
 -19818099.77048 -15371040.23846
                  22008570.8134                                   22008566.8404
                                                                        49.5004
        39.5004
 -18880296.82448 -14637682.07046
                  21258162.1414                                   21258158.3914
                                                                        51.0004
        40.0004
  -9778351.38348  -7577095.89545
                  21401601.1254                                   21401595.8594
                                                                        48.7504
        35.7504
  -2322246.43047  -1794658.77343
                  23591011.2734                                   23591005.2774
                                                                        42.2504
        22.7504
 -15386131.40647 -11968673.57844
                  22995777.3674                                   22995772.6804
                                                                        44.2504
        28.0004
 -15945447.74248 -12359591.29746
                  22204795.3594                                   22204791.5314
                                                                        49.2504
        37.0004
  -3432143.09446  -2639220.39843
                  24130133.0474                                   24130128.3914
                                                                        40.0004
        23.0004
  -2223360.42246  -1717254.02344
                  24279912.8524                                   24279908.4614
                                                                        39.5004
        24.5004
 09 10 23  0  1  0.0000000  0 10G02G04G05G10G13G23G25G29G16G07
  -8477905.88748  -6566994.73446
                  20753471.8834                                   20753465.2384
                                                                        52.7504
        41.5004
   -907235.28947   -699824.99645
                  23059595.9224                                   23059592.6374
                                                                        46.0004
        31.5004
 -19998391.69548 -15511527.40646
                  21974262.4534                                   21974258.5274
                                                                        50.0004
        39.7504
 -19045803.88348 -14766648.50846
                  21226667.3284                                   21226663.2854
                                                                        51.0004
        40.2504
  -9840520.88748  -7625539.68745
                  21389770.7504                                   21389765.3674
                                                                        48.7504
        35.5004
  -2322667.85947  -1794987.10243
                  23590931.2344                                   23590923.8054
                                                                        42.5004
        23.0004
 -15534880.98447 -12084582.31644
                  22967471.3754                                   22967466.5824
                                                                        45.0004
        29.7504
 -16075730.06248 -12461109.99246
                  22180003.6954                                   22179999.6914
                                                                        49.5004
        36.5004
  -3586301.50446  -2759343.84043
                  24100796.6954                                   24100792.7814
                                                                        39.2504
        21.7504
  -2415541.58846  -1867005.53143
                  24243342.2894                                   24243336.8524
                                                                        39.7504
        22.5004
 09 10 23  0  1 30.0000000  0 10G02G04G05G10G13G23G25G29G16G07
  -8530245.39548  -6607778.73046
                  20743512.1564                                   20743505.8054
                                                                        52.7504
        41.5004
   -898610.68047   -693104.51645
                  23061237.2584                                   23061233.5314
                                                                        46.7504
        30.0004
 -20178297.27348 -15651713.54746
                  21940027.5474                                   21940023.1174
                                                                        50.5004
        39.5004
 -19210818.01648 -14895230.89146
                  21195265.9144                                   21195262.1414
                                                                        52.0004
        40.5004
  -9902033.66848  -7673471.72745
                  21378065.5084                                   21378060.1414
                                                                        49.7504
        35.5004
  -2322733.87147  -1795038.50044
                  23590918.7894                                   23590911.9804
                                                                        43.2504
        24.0004
 -15683100.77747 -12200078.17644
                  22939265.9144                                   22939261.4144
                                                                        44.5004
        29.5004
 -16205407.66048 -12562157.52346
                  22155326.8594                                   22155322.8554
                                                                        50.0004
        37.7504
  -3739926.27046  -2879051.44943
                  24071563.5004                                   24071559.3754
                                                                        38.5004
        21.7504
  -2607416.27746  -2016518.28543
                  24206829.2114                                   24206824.1174
                                                                        40.7504
        22.0004
 09 10 23  0  2  0.0000000  0 10G02G04G05G10G13G23G25G29G16G07
  -8582002.87548  -6648109.21146
                  20733662.9844                                   20733656.6334
                                                                        53.0004
        41.2504
   -889716.54347   -686174.03945
                  23062929.7734                                   23062925.9494
                                                                        46.5004
        30.2504
 -20357811.19548 -15791594.49246
                  21905867.2974                                   21905863.0004
                                                                        50.0004
        39.7504
 -19375334.73848 -15023425.68446
                  21163959.6724                                   21163955.5234
                                                                        51.2504
        40.5004
  -9962888.67248  -7720891.24645
                  21366484.7504                                   21366479.4264
                                                                        49.2504
        35.0004
  -2322444.12947  -1794812.65244
                  23590973.9224                                   23590966.9804
                                                                        43.2504
        24.0004
 -15830786.92247 -12315158.30545
                  22911162.3834                                   22911157.9184
                                                                        44.5004
        30.0004
 -16334475.81648 -12662730.17646
                  22130766.4064                                   22130761.9224
                                                                        49.2504
        37.2504
  -3893012.07846  -2998339.07443
                  24042433.1334                                   24042428.0394
                                                                        40.2504
        22.7504
  -2798979.11346  -2165788.02044
                  24170375.9614                                   24170371.5634
                                                                        41.5004
        24.5004
 09 10 23  0  2 30.0000000  0 10G02G04G05G10G13G23G25G29G16G07
  -8633180.77748  -6687988.07446
                  20723924.0634                                   20723917.9574
                                                                        53.0004
        41.5004
   -880556.46947   -679036.31644
                  23064673.1804                                   23064668.8634
                                                                        47.0004
        29.7504
 -20536932.82848 -15931169.73846
                  21871781.3364                                   21871776.7304
                                                                        50.0004
        39.7504
 -19539353.39148 -15151232.37946
                  21132747.7974                                   21132743.5004
                                                                        51.7504
        39.2504
 -10023088.62148  -7767800.32445
                  21355029.0394                                   21355024.4384
                                                                        49.0004
        35.0004
  -2321802.96147  -1794312.95744
                  23591095.3134                                   23591089.0784
                                                                        43.2504
        25.2504
 -15977939.22747 -12429822.54745
                  22883159.8754                                   22883155.8984
                                                                        42.0004
        30.5004
 -16462933.82048 -12762827.35246
                  22106321.3594                                   22106317.5044
                                                                        49.2504
        38.0004
  -4045558.31246  -3117206.28943
                  24013404.0864                                   24013399.5204
                                                                        40.0004
        22.0004
  -2990228.78947  -2314813.70344
                  24133982.5084                                   24133978.4064
                                                                        42.0004
        27.0004
 09 10 23  0  3  0.0000000  0 10G02G04G05G10G13G23G25G29G16G07
  -8683784.60948  -6727419.62546
                  20714294.4304                                   20714288.0044
                                                                        52.5004
        41.5004
   -871136.26647   -671695.92245
                  23066465.7114                                   23066462.5124
                                                                        46.2504
        30.5004
 -20715665.55548 -16070441.90246
                  21837769.0394                                   21837765.0824
                                                                        50.2504
        40.0004
 -19702877.15648 -15278653.45746
                  21101629.9614                                   21101625.6914
                                                                        51.5004
        39.5004
 -10082639.02348  -7814203.21545
                  21343697.0314                                   21343692.0354
                                                                        49.7504
        35.0004
  -2320817.18746  -1793544.86744
                  23591283.2814                                   23591277.1524
                                                                        41.2504
        25.7504
 -16124559.34447 -12544072.04744
                  22855259.0164                                   22855255.0164
                                                                        42.2504
        28.5004
 -16590786.64148 -12862452.91846
                  22081991.7504                                   22081988.0474
                                                                        49.2504
        37.5004
  -4197567.84046  -3235655.29743
                  23984477.8754                                   23984472.8094
                                                                        40.5004
        22.7504
  -3181165.77047  -2463595.73444
                  24097648.1024                                   24097644.1844
                                                                        42.0004
        25.5004
 09 10 23  0  3 30.0000000  0 10G02G04G05G10G13G23G25G29G16G07
  -8733816.98848  -6766405.87546
                  20704773.5944                                   20704767.0664
                                                                        52.2504
        41.7504
   -861460.34847   -664156.26245
                  23068306.5944                                   23068303.5474
                                                                        47.0004
        30.2504
 -20894008.64848 -16209410.49646
                  21803831.9384                                   21803827.3324
                                                                        50.2504
        39.5004
 -19865905.44148 -15405688.45346
                  21070606.6174                                   21070603.0124
                                                                        51.0004
        40.0004
 -10141543.39848  -7860102.72345
                  21332488.2344                                   21332482.6054
                                                                        49.5004
        34.7504
  -2319491.27046  -1792511.68743
                  23591535.1564                                   23591529.3834
                                                                        41.2504
        21.7504
 -16270647.50847 -12657907.03144
                  22827459.7584                                   22827455.0514
                                                                        42.0004
        28.5004
 -16718033.17248 -12961606.06646
                  22057777.6484                                   22057773.9184
                                                                        49.0004
        38.0004
  -4349039.52346  -3353685.19543
                  23955653.7894                                   23955648.5084
                                                                        41.0004
        21.2504
  -3371789.74246  -2612133.86744
                  24061373.4694                                   24061369.4884
                                                                        40.0004
        26.0004
 09 10 23  0  4  0.0000000  0 10G02G04G05G10G13G23G25G29G16G07
  -8783280.74248  -6804949.06247
                  20695360.9614                                   20695354.3244
                                                                        53.0004
        42.0004
   -851532.09847   -656419.98844
                  23070195.8594                                   23070192.7304
                                                                        46.2504
        29.7504
 -21071962.65248 -16348075.85546
                  21769968.8914                                   21769964.1334
                                                                        51.0004
        40.7504
 -20028439.30548 -15532338.17646
                  21039677.3134                                   21039673.8204
                                                                        51.0004
        40.2504
 -10199805.02048  -7905501.38745
                  21321400.8134                                   21321395.9534
                                                                        50.2504
        34.5004
  -2317829.60246  -1791216.95343
                  23591852.0474                                   23591845.3794
                                                                        41.5004
        22.5004
 -16416203.31647 -12771327.21944
                  22799761.0704                                   22799756.7274
                                                                        43.2504
        28.0004
 -16844675.03548 -13060288.08246
                  22033678.4924                                   22033674.7274
                                                                        49.7504
        38.0004
  -4499973.80546  -3471296.34843
                  23926931.3754                                   23926926.8594
                                                                        38.7504
        21.5004
  -3562098.36346  -2760426.14844
                  24025159.0314                                   24025155.1884
                                                                        39.0004
        26.0004
 09 10 23  0  4 30.0000000  0 10G02G04G05G10G13G23G25G29G16G07
  -8832172.20348  -6843046.32047
                  20686057.1644                                   20686050.7704
                                                                        53.0004
        42.0004
   -841349.40247   -648485.46544
                  23072133.7664                                   23072130.3164
                                                                        46.2504
        29.7504
 -21249520.01248 -16486432.18046
                  21736180.4614                                   21736175.8484
                                                                        50.7504
        40.5004
 -20190471.48848 -15658597.01246
                  21008844.1094                                   21008840.1174
                                                                        51.0004
        40.7504
 -10257420.65248  -7950396.64845
                  21310436.9144                                   21310432.4414
                                                                        50.0004
        34.7504
  -2315830.04747  -1789658.91444
                  23592232.2424                                   23592225.6684
                                                                        43.0004
        24.0004
 -16561220.58247 -12884327.68444
                  22772165.3914                                   22772161.1294
                                                                        43.2504
        28.0004
 -16970705.49648 -13158493.67646
                  22009695.5234                                   22009692.1454
                                                                        49.7504
        37.5004
  -4650363.11346  -3588482.87943
                  23898313.8054                                   23898308.4304
                                                                        40.2504
        20.0004
  -3752085.16846  -2908467.62144
                  23989005.9534                                   23989001.6764
                                                                        38.2504
        24.2504
 09 10 23  0  5  0.0000000  0 10G02G04G05G10G13G23G25G29G16G07
  -8880492.93748  -6880698.84047
                  20676862.1484                                   20676855.8914
                                                                        52.7504
        42.0004
   -830914.02847   -640354.03045
                  23074119.8444                                   23074116.2664
                                                                        46.7504
        31.0004
 -21426679.84848 -16624478.77046
                  21702467.9844                                   21702463.3364
                                                                        50.5004
        40.5004
 -20352001.11748 -15784464.22746
                  20978105.9454                                   20978101.8954
                                                                        50.7504
        40.2504
 -10314391.96148  -7994789.88745
                  21299595.5474                                   21299590.8524
                                                                        49.2504
        35.2504
  -2313495.53947  -1787839.85944
                  23592677.3834                                   23592669.7664
                                                                        44.5004
        25.7504
 -16705697.43047 -12996907.02044
                  22744672.5944                                   22744667.7464
                                                                        44.0004
        28.0004
 -17096124.47748 -13256222.82446
                  21985829.5554                                   21985825.1094
                                                                        49.5004
        37.7504
  -4800206.30546  -3705243.93743
                  23869799.1644                                   23869793.6484
                                                                        41.0004
        19.2504
  -3941746.76247  -3056255.78344
                  23952913.8984                                   23952909.7234
                                                                        42.2504
        25.7504
 09 10 23  0  5 30.0000000  0 10G02G04G05G10G13G23G25G29G16G07
  -8928247.83248  -6917910.44546
                  20667774.5394                                   20667768.2464
                                                                        51.5004
        41.7504
   -820232.34847   -632030.63744
                  23076152.3674                                   23076148.5354
                                                                        46.0004
        29.5004
 -21603443.52048 -16762216.64546
                  21668830.9144                                   21668826.4734
                                                                        50.5004
        40.5004
 -20513029.57848 -15909940.92646
                  20947463.6024                                   20947459.1174
                                                                        51.0004
        39.7504
 -10370724.06248  -8038685.05545
                  21288876.3204                                   21288871.2934
                                                                        48.7504
        35.2504
  -2310832.33247  -1785764.73044
                  23593184.1024                                   23593176.9104
                                                                        43.7504
        25.7504
 -16849636.09047 -13109066.91444
                  22717281.7274                                   22717276.8874
                                                                        44.0004
        28.5004
 -17220933.31248 -13353476.52046
                  21962079.0634                                   21962075.2504
                                                                        50.5004
        38.0004
  -4949504.63346  -3821580.39543
                  23841389.0784                                   23841383.1994
                                                                        39.0004
        20.5004
  -4131084.32446  -3203791.48043
                  23916884.6644                                   23916879.5274
                                                                        41.5004
        23.7504
 09 10 23  0  6  0.0000000  0 10G02G04G05G10G13G23G25G29G16G07
  -7400018.14848  -5727082.10947
                  20958587.1884                                   20958580.6414
                                                                        52.0004
        42.0004
    766112.13747    604081.91044
                  23378023.6884                                   23378019.9804
                                                                        44.7504
        29.5004
 -20204385.89848 -15672041.83246
                  21935062.7344                                   21935058.0904
                                                                        51.0004
        40.5004
 -19098132.27748 -14807423.53546
                  21216709.2114                                   21216704.8524
                                                                        52.0004
        40.2504
  -8850998.39848  -6854483.25445
                  21578070.0314                                   21578065.3714
                                                                        48.7504
        35.0004
   -732424.67647   -555836.76243
                  23893545.0164                                   23893537.8554
                                                                        42.2504
        22.5004
 -15417611.24647 -11993203.31244
                  22989786.8984                                   22989781.8244
                                                                        44.7504
        28.2504
 -15769710.13348 -12222653.37546
                  22238237.9844                                   22238233.6764
                                                                        50.0004
        38.5004
  -3522833.32846  -2709888.54743
                  24112875.4924                                   24112870.7424
                                                                        40.0004
        22.0004
  -2744669.43447  -2123468.11743
                  24180710.0704                                   24180705.3594
                                                                        43.0004
        23.5004
 09 10 23  0  6 30.0000000  0 10G02G04G05G10G13G23G25G29G16G07
  -7446646.03948  -5763415.50446
                  20949714.0474                                   20949707.5514
                                                                        52.0004
        41.7504
    777279.44547    612783.66844
                  23380148.5314                                   23380144.7504
                                                                        44.5004
        28.7504
 -20380353.94548 -15809159.73046
                  21901576.7114                                   21901572.4924
                                                                        50.7504
        40.0004
 -19258155.56648 -14932116.97746
                  21186257.7974                                   21186253.5554
                                                                        51.7504
        40.0004
  -8906058.55948  -6897387.27345
                  21567592.8914                                   21567588.3594
                                                                        48.7504
        35.0004
   -729113.22747   -553256.49243
                  23894175.2034                                   23894167.9224
                                                                        42.2504
        21.2504
 -15560469.43747 -12104521.35544
                  22962602.1174                                   22962597.4064
                                                                        45.0004
        28.2504
 -15893298.71948 -12318956.27046
                  22214719.5234                                   22214715.6414
                                                                        50.0004
        37.7504
  -3671037.67646  -2825372.48443
                  24084672.8754                                   24084668.9924
                                                                        40.2504
        22.0004
  -2933350.79647  -2270492.49943
                  24144805.5634                                   24144800.3164
                                                                        43.0004
        22.2504
 09 10 23  0  7  0.0000000  0 10G02G04G05G10G13G23G25G29G16G07
  -7492711.85548  -5799310.88746
                  20940948.2274                                   20940941.4734
                                                                        51.5004
        41.5004
    788686.64547    621672.37944
                  23382319.3364                                   23382315.1804
                                                                        43.5004
        28.2504
 -20555921.38748 -15945965.45346
                  21868167.5314                                   21868163.4184
                                                                        51.0004
        40.2504
 -19417673.65648 -15056416.75446
                  21155902.4774                                   21155898.3284
                                                                        51.5004
        40.0004
  -8960484.77348  -6939797.30945
                  21557235.7974                                   21557231.3244
                                                                        48.7504
        35.0004
   -725481.41846   -550426.54743
                  23894865.2974                                   23894858.7194
                                                                        39.5004
        21.5004
 -15702784.50047 -12215416.17644
                  22935520.0474                                   22935515.4534
                                                                        44.5004
        27.7504
 -16016274.81248 -12414781.79346
                  22191318.2344                                   22191314.3364
                                                                        50.2504
        38.0004
  -3818692.03546  -2940427.79343
                  24056575.5474                                   24056571.2584
                                                                        41.2504
        22.7504
  -3121699.12547  -2417257.38343
                  24108964.0634                                   24108959.1054
                                                                        42.2504
        23.5004
 09 10 23  0  7 30.0000000  0 10G02G04G05G10G13G23G25G29G16G07
  -7538219.24248  -5834771.14846
                  20932288.2664                                   20932281.8634
                                                                        53.0004
        41.7504
    800329.28547    630744.53544
                  23384534.8204                                   23384531.3794
                                                                        44.5004
        29.0004
 -20731087.96948 -16082458.83646
                  21834834.3594                                   21834829.7304
                                                                        50.2504
        41.0004
 -19576686.79348 -15180323.05146
                  21125643.1804                                   21125638.4454
                                                                        51.5004
        40.2504
  -9014281.06248  -6981716.51245
                  21546998.6954                                   21546993.8874
                                                                        48.5004
        35.0004
   -721534.16446   -547350.79744
                  23895616.9614                                   23895610.3874
                                                                        41.2504
        24.5004
 -15844557.18047 -12325888.34044
                  22908541.6334                                   22908537.0744
                                                                        44.2504
        28.5004
 -16138639.13348 -12510130.48046
                  22168033.1724                                   22168029.0044
                                                                        50.2504
        37.5004
  -3965796.35946  -3055054.56643
                  24028582.6484                                   24028578.2854
                                                                        41.0004
        23.5004
  -3309714.18047  -2563762.57044
                  24073185.7344                                   24073181.3874
                                                                        43.5004
        27.2504
 09 10 23  0  8  0.0000000  0 10G02G04G05G10G13G23G25G29G16G07
  -7583164.50848  -5869793.40246
                  20923735.1484                                   20923728.9224
                                                                        51.7504
        41.2504
    812210.80147    640002.82445
                  23386796.0474                                   23386792.5594
                                                                        44.2504
        30.0004
 -20905847.73848 -16218635.23446
                  21801578.4304                                   21801573.9184
                                                                        49.5004
        40.5004
 -19735188.95748 -15303831.17246
                  21095481.2814                                   21095477.5634
                                                                        52.2504
        40.5004
  -9067443.56648  -7023141.84445
                  21536882.3834                                   21536877.7424
                                                                        48.0004
        35.5004
   -717268.83647   -544027.16844
                  23896428.6954                                   23896422.5594
                                                                        42.5004
        24.7504
 -15985780.35547 -12435932.33244
                  22881667.5944                                   22881663.0784
                                                                        44.5004
        29.7504
 -16260386.65248 -12604998.54346
                  22144865.1174                                   22144860.6884
                                                                        50.0004
        38.5004
  -4112343.92646  -3169247.51643
                  24000695.4304                                   24000690.8834
                                                                        41.5004
        23.5004
  -3497387.63346  -2710001.59044
                  24037472.6094                                   24037468.1294
                                                                        41.7504
        24.5004
 09 10 23  0  8 30.0000000  0 10G02G04G05G10G13G23G25G29G16G07
  -7627553.96548  -5904382.55146
                  20915288.2344                                   20915281.9344
                                                                        52.7504
        41.5004
    824322.95347    649440.81345
                  23389101.3834                                   23389097.3204
                                                                        45.5004
        30.2504
 -21080203.43048 -16354496.75046
                  21768400.0314                                   21768395.7704
                                                                        50.2504
        40.5004
 -19893183.71548 -15426943.93046
                  21065415.9304                                   21065411.6644
                                                                        52.2504
        41.0004
  -9119979.88347  -7064079.25045
                  21526885.1334                                   21526880.7194
                                                                        47.5004
        35.0004
   -712693.66046   -540462.09843
                  23897299.2664                                   23897292.9804
                                                                        41.5004
        23.0004
 -16126458.20347 -12545551.42644
                  22854897.4454                                   22854893.4184
                                                                        45.0004
        29.7504
 -16381521.32448 -12699389.13746
                  22121814.1724                                   22121810.0784
                                                                        50.2504
        38.0004
  -4258337.91446  -3283009.03943
                  23972913.8914                                   23972909.7504
                                                                        41.7504
        22.5004
  -3684722.44547  -2855976.63344
                  24001823.3914                                   24001819.9144
                                                                        42.2504
        27.5004
 09 10 23  0  9  0.0000000  0 10G02G04G05G10G13G23G25G29G16G07
  -7671386.18048  -5938537.50446
                  20906947.3054                                   20906940.8874
                                                                        52.2504
        41.0004
    836666.91447    659059.42645
                  23391450.0554                                   23391446.6054
                                                                        44.7504
        30.7504
 -21254150.92648 -16490040.18746
                  21735298.8914                                   21735294.1134
                                                                        50.0004
        40.5004
 -20050666.25448 -15549657.56246
                  21035447.7194                                   21035443.9614
                                                                        52.7504
        40.7504
  -9171888.28547  -7104527.38745
                  21517007.3134                                   21517002.2664
                                                                        47.2504
        35.5004
   -707808.47347   -536655.50843
                  23898229.1954                                   23898222.1454
                                                                        43.7504
        23.0004
 -16266585.92247 -12654741.87945
                  22828232.1884                                   22828227.2274
                                                                        44.5004
        30.0004
 -16502039.44948 -12793299.31646
                  22098879.6884                                   22098875.8834
                                                                        50.0004
        37.5004
  -4403773.91446  -3396335.77344
                  23945237.8444                                   23945234.1644
                                                                        41.0004
        24.2504
  -3871712.14147  -3001682.79344
                  23966240.8674                                   23966236.7734
                                                                        43.5004
        28.5004
 09 10 23  0  9 30.0000000  0 10G02G04G05G10G13G23G25G29G16G07
  -7714663.80148  -5972260.30946
                  20898712.0634                                   20898705.5434
                                                                        52.7504
        41.5004
    849239.45747    668856.18044
                  23393842.4304                                   23393838.7304
                                                                        44.7504
        29.5004
 -21427689.37948 -16625264.87946
                  21702275.0554                                   21702270.8404
                                                                        50.0004
        41.2504
 -20207636.23448 -15671971.80146
                  21005577.3594                                   21005573.1294
                                                                        52.2504
        39.7504
  -9223172.00847  -7144488.70745
                  21507248.2814                                   21507243.6414
                                                                        47.0004
        34.7504
   -702617.01647   -532610.25843
                  23899217.4844                                   23899210.0474
                                                                        43.5004
        22.5004
 -16406163.09847 -12763503.32044
                  22801671.6724                                   22801667.0354
                                                                        44.5004
        29.2504
 -16621941.46148 -12886729.45746
                  22076063.4144                                   22076059.1454
                                                                        51.2504
        38.5004
  -4548651.05146  -3509227.05143
                  23917668.2114                                   23917664.5864
                                                                        40.5004
        23.5004
  -4058355.21947  -3147118.90644
                  23930724.3204                                   23930719.4024
                                                                        44.5004
        28.5004
 09 10 23  0 10  0.0000000  0 10G02G04G05G10G13G23G25G29G16G07
  -7757387.80548  -6005551.73446
                  20890581.6174                                   20890575.0984
                                                                        52.7504
        41.2504
    862038.60247    678829.49244
                  23396278.1484                                   23396274.4494
                                                                        45.5004
        28.2504
 -21600816.87148 -16760169.38746
                  21669330.1414                                   21669325.7424
                                                                        50.0004
        40.0004
 -20364092.62548 -15793885.86346
                  20975804.7034                                   20975800.4344
                                                                        51.7504
        40.5004
  -9273832.41047  -7183964.32845
                  21497607.9454                                   21497603.0314
                                                                        47.5004
        34.5004
   -697121.69947   -528328.16443
                  23900263.1094                                   23900256.2464
                                                                        43.2504
        22.5004
 -16545187.98047 -12871834.43044
                  22775216.0314                                   22775211.5474
                                                                        44.5004
        29.0004
 -16741225.32448 -12979677.82446
                  22053364.4454                                   22053359.8874
                                                                        50.5004
        37.7504
  -4692967.28547  -3621681.31243
                  23890206.4924                                   23890201.9224
                                                                        42.2504
        23.7504
  -4244648.59047  -3292282.50844
                  23895273.7034                                   23895268.7114
                                                                        44.7504
        25.7504
 09 10 23  0 10 30.0000000  0 10G02G04G05G10G13G23G25G29G16G07
  -7799557.62148  -6038411.32446
                  20882556.9304                                   20882550.5704
                                                                        53.5004
        41.5004
    875063.94947    688979.07444
                  23398756.4774                                   23398752.8834
                                                                        45.2504
        27.7504
 -21773529.89548 -16894750.91446
                  21636463.7114                                   21636459.4494
                                                                        51.2504
        40.7504
 -20520031.44548 -15915396.59046
                  20946130.6414                                   20946126.3874
                                                                        52.5004
        40.5004
  -9323869.84448  -7222954.56245
                  21488085.9304                                   21488081.0634
                                                                        49.0004
        35.0004
   -691323.44546   -523809.96543
                  23901366.4774                                   23901359.0704
                                                                        41.0004
        21.7504
 -16683657.16847 -12979732.44145
                  22748865.8204                                   22748861.3634
                                                                        44.2504
        30.2504
 -16859888.51648 -13072142.54346
                  22030783.2894                                   22030779.1804
                                                                        50.0004
        38.2504
  -4836719.10246  -3733695.77043
                  23862851.5784                                   23862847.3404
                                                                        41.5004
        22.7504
  -4430587.74247  -3437170.09844
                  23859890.1024                                   23859885.6644
                                                                        45.0004
        24.5004
 09 10 23  0 11  0.0000000  0 10G02G04G05G10G13G23G25G29G16G07
  -7841177.83648  -6070842.67246
                  20874637.1254                                   20874630.5084
                                                                        53.0004
        41.0004
    888310.18047    699300.79344
                  23401277.5474                                   23401273.8874
                                                                        45.5004
        28.0004
 -21945830.31648 -17029010.98846
                  21603676.2664                                   21603672.0784
                                                                        51.2504
        40.7504
 -20675454.44948 -16036505.41046
                  20916554.3754                                   20916550.1414
                                                                        51.7504
        40.0004
  -9373288.93748  -7261462.91045
                  21478681.7424                                   21478676.7114
                                                                        48.5004
        34.0004
   -685228.13746   -519060.40643
                  23902524.7034                                   23902519.1844
                                                                        39.0004
        20.2504
 -16821572.25047 -13087198.68445
                  22722621.3594                                   22722617.2074
                                                                        44.7504
        30.0004
 -16977933.76248 -13164125.73046
                  22008320.0864                                   22008315.8524
                                                                        49.7504
        37.5004
  -4979908.02747  -3845271.55944
                  23835603.2814                                   23835599.0594
                                                                        42.7504
        24.7504
  -4616172.69147  -3581781.71544
                  23824574.0944                                   23824569.4264
                                                                        43.5004
        24.2504
 09 10 23  0 11 30.0000000  0 10G02G04G05G10G13G23G25G29G16G07
  -7882249.64548  -6102846.67646
                  20866821.1414                                   20866814.7734
                                                                        53.0004
        40.7504
    901775.08247    709792.87144
                  23403840.2034                                   23403836.0474
                                                                        45.2504
        28.7504
 -22117715.76648 -17162947.71946
                  21570967.5944                                   21570963.2034
                                                                        50.7504
        40.7504
 -20830360.21948 -16157211.20346
                  20887076.9144                                   20887072.6374
                                                                        52.5004
        40.5004
  -9422091.48447  -7299490.85945
                  21469394.9534                                   21469390.3794
                                                                        47.7504
        34.7504
   -678838.12546   -514081.20743
                  23903741.8054                                   23903735.3364
                                                                        40.5004
        22.5004
 -16958931.95747 -13194232.22344
                  22696483.2664                                   22696478.5514
                                                                        45.5004
        29.7504
 -17095360.21548 -13255626.73846
                  21985974.2664                                   21985970.4344
                                                                        49.7504
        38.0004
  -5122532.03547  -3956407.09844
                  23808462.8914                                   23808458.6914
                                                                        42.7504
        24.0004
  -4801400.88747  -3726115.40644
                  23789326.7114                                   23789321.3914
                                                                        43.7504
        24.0004
 09 10 23  0 12  0.0000000  0 10G02G04G05G10G13G23G25G29G16G07
  -7922774.87148  -6134424.77746
                  20859109.6094                                   20859103.1764
                                                                        53.0004
        41.0004
    915456.92647    720453.99244
                  23406443.6884                                   23406439.4574
                                                                        46.5004
        29.5004
 -22289184.99248 -17296560.12946
                  21538338.1564                                   21538333.5204
                                                                        50.2504
        41.2504
 -20984747.46948 -16277512.98846
                  20857698.0004                                   20857693.8204
                                                                        52.5004
        41.5004
  -9470279.08248  -7337039.60945
                  21460225.2274                                   21460220.4804
                                                                        48.2504
        34.5004
   -672156.38746   -508874.69143
                  23905013.1174                                   23905007.2734
                                                                        41.2504
        22.5004
 -17095734.31247 -13300831.44944
                  22670450.0554                                   22670445.9344
                                                                        45.0004
        29.7504
 -17212167.30148 -13346645.25046
                  21963746.9064                                   21963742.7734
                                                                        49.0004
        38.5004
  -5264589.46946  -4067101.23443
                  23781430.9384                                   23781425.9494
                                                                        41.2504
        22.0004
  -4986268.93047  -3870168.35544
                  23754147.2734                                   23754143.1764
                                                                        42.5004
        25.5004
 09 10 23  0 12 30.0000000  0 10G02G04G05G10G13G23G25G29G16G07
  -7962755.36748  -6165578.42646
                  20851501.5704                                   20851494.8674
                                                                        53.0004
        41.0004
    929352.84847    731281.93444
                  23409088.3284                                   23409084.3914
                                                                        45.0004
        28.7504
 -22460236.28548 -17429846.85246
                  21505787.8984                                   21505783.4344
                                                                        51.0004
        41.0004
 -21138615.19948 -16397409.97346
                  20828417.8914                                   20828414.0744
                                                                        52.0004
        41.5004
  -9517854.69948  -7374111.51245
                  21451171.8204                                   21451166.8834
                                                                        48.0004
        34.0004
   -665186.32447   -503443.52043
                  23906339.7584                                   23906333.8754
                                                                        42.7504
        22.5004
 -17231978.69547 -13406995.89144
                  22644524.4064                                   22644519.5354
                                                                        45.7504
        29.5004
 -17328354.35548 -13437180.59846
                  21941637.1804                                   21941633.5704
                                                                        49.7504
        38.5004
  -5406078.92247  -4177352.73043
                  23754505.2664                                   23754500.9494
                                                                        42.5004
        21.5004
  -5170774.85947  -4013939.15244
                  23719037.3444                                   23719032.8634
                                                                        43.5004
        27.0004
 09 10 23  0 13  0.0000000  0 10G02G04G05G10G13G23G25G29G16G07
  -8002193.42648  -6196309.38746
                  20843996.6254                                   20843990.3754
                                                                        53.0004
        41.0004
    943459.52347    742274.07044
                  23411772.1334                                   23411769.0594
                                                                        45.5004
        28.2504
 -22630868.85248 -17562807.30546
                  21473317.7274                                   21473313.2074
                                                                        51.5004
        41.0004
 -21291962.59048 -16516901.44946
                  20799236.8364                                   20799233.1884
                                                                        52.0004
        41.0004
  -9564820.93048  -7410708.58245
                  21442234.5944                                   21442229.8134
                                                                        48.5004
        34.7504
   -657931.50047   -497790.50043
                  23907720.9614                                   23907714.1134
                                                                        43.0004
        23.7504
 -17367664.72347 -13512725.25845
                  22618704.1484                                   22618698.9454
                                                                        45.7504
        30.2504
 -17443921.13748 -13527232.69146
                  21919645.5234                                   21919641.1954
                                                                        50.7504
        38.0004
  -5547000.05946  -4287161.46543
                  23727689.2194                                   23727684.4144
                                                                        41.5004
        20.5004
  -5354916.93447  -4157426.45744
                  23683996.5474                                   23683991.6954
                                                                        44.0004
        27.5004
 09 10 23  0 13 30.0000000  0 10G02G04G05G10G13G23G25G29G16G07
  -8041087.17248  -6226616.21946
