     2.11           OBSERVATION DATA    G (GPS)             RINEX VERSION / TYPE
teqc  2019Feb25                         20221121 12:28:45UTCPGM / RUN BY / DATE
OSX ker:10.11.6|Core i5|gcc 4.3 -m64|OSX ker:10.10+|=+      COMMENT
BIT 2 OF LLI FLAGS DATA COLLECTED UNDER A/S CONDITION       COMMENT
04712991                                                    MARKER NAME
2991                                                        MARKER NUMBER
-Unknown-           -Unknown-                               OBSERVER / AGENCY
0220400471          TRIMBLE R7          2.30                REC # / TYPE / VERS
-Unknown-           TRM39105.00     NONE                    ANT # / TYPE
  1449458.9015 -1709243.1701  5952440.6013                  APPROX POSITION XYZ
        0.0000        0.0000        0.0000                  ANTENNA: DELTA H/E/N
     1     1                                                WAVELENGTH FACT L1/2
    20    L1    L2    L5    L6    L7    L8    C1    P1    C2# / TYPES OF OBSERV
          P2    C5    C6    C7    C8    S1    S2    S5    S6# / TYPES OF OBSERV
          S7    S8                                          # / TYPES OF OBSERV
    30.0000                                                 INTERVAL
    15                                                      LEAP SECONDS
Forced Modulo Decimation to 30 seconds                      COMMENT
 SNR is mapped to RINEX snr flag value [0-9]                COMMENT
  L1 & L2: min(max(int(snr_dBHz/6), 0), 9)                  COMMENT
teqc edited: Beidou # 1 - 37 excluded                       COMMENT
  2009    10    26    23    11    0.0000000     GPS         TIME OF FIRST OBS
                                                            END OF HEADER
 09 10 26 23 11  0.0000000  0  7G02G04G05G10G13G23G30
   -103477.87958    -65282.36357
                  20348917.6094                                   20348912.5164
                                                                        52.2504
        43.7504
    -16038.07058    -10231.47756
                  21767758.6804                                   21767756.0984
                                                                        49.7504
        37.0004
   -222461.63757   -137809.12955
                  23077446.6254                                   23077443.3284
                                                                        47.0004
        34.5004
   -213485.95757   -132250.32856
                  22160629.8834                                   22160627.5664
                                                                        47.0004
        36.0004
   -120157.47358    -77529.55156
                  21139196.5164                                   21139192.9964
                                                                        49.2504
        36.7504
    -34158.05557    -21308.25855
                  22427728.3524                                   22427723.2734
                                                                        46.0004
        30.7504
     -5600.94957     -3818.62953
                  23919444.0164                                   23919440.7774
                                                                        42.5004
        23.0004
 09 10 26 23 11 30.0000000  0  8G02G04G05G10G13G23G29G30
   -199355.18748   -139991.90647
                  20330672.6254                                   20330667.2584
                                                                        52.0004
        43.2504
    -32624.26648    -23156.13346
                  21764602.8284                                   21764599.8954
                                                                        50.0004
        37.0004
   -426779.41448   -297018.33245
                  23038566.6414                                   23038562.9654
                                                                        48.0004
        34.7504
   -409544.99248   -285023.40246
                  22123320.6024                                   22123318.0864
                                                                        48.0004
        36.0004
   -230451.55548   -163473.17646
                  21118208.6564                                   21118205.0004
                                                                        49.7504
        36.5004
    -66984.66847    -46886.97345
                  22421481.5164                                   22421475.7384
                                                                        46.5004
        30.5004
   -338927.10957   -220051.05555
                  22711453.5004                                   22711450.4104
                                                                        45.2504
        34.5004
    -12883.36747     -9493.29343
                  23918057.8204                                   23918055.2934
                                                                        42.0004
        23.7504
 09 10 26 23 12  0.0000000  0  8G02G04G05G10G13G23G29G30
   -294799.05948   -214363.91447
                  20312510.4144                                   20312505.1764
                                                                        52.0004
        43.2504
    -48983.26248    -35903.72346
                  21761490.3364                                   21761487.6414
                                                                        49.5004
        37.0004
   -631012.55147   -456160.60945
                  22999701.6564                                   22999698.9064
                                                                        47.0004
        35.0004
   -605415.64847   -437650.80145
                  22086048.5164                                   22086046.3444
                                                                        47.0004
        35.5004
   -340226.38748   -249011.89146
                  21097318.8914                                   21097315.0274
                                                                        49.2504
        36.5004
    -99466.78547    -72197.68045
                  22415300.1804                                   22415294.6134
                                                                        45.2504
        30.2504
   -507880.33247   -351702.92245
                  22679302.5864                                   22679299.6024
                                                                        45.0004
        34.0004
    -19952.25046    -15001.57444
                  23916712.7584                                   23916710.6604
                                                                        41.7504
        25.2504
 09 10 26 23 12 30.0000000  0  8G02G04G05G10G13G23G29G30
   1186013.54748    939515.54347
                  20594299.9924                                   20594294.6764
                                                                        51.5004
        43.5004
   1510704.62948   1179437.55146
                  22058288.8754                                   22058286.2464
                                                                        49.0004
        37.0004
    740664.29347    612678.28145
                  23260723.4144                                   23260720.4064
                                                                        47.0004
        35.0004
    774736.49648    637793.46945
                  22348681.8054                                   22348678.7234
                                                                        48.5004
        35.5004
   1126340.96948    893767.77046
                  21376397.4224                                   21376393.6054
                                                                        48.5004
        36.5004
   1444214.82847   1130671.11745
                  22709053.5554                                   22709047.5354
                                                                        46.2504
        31.0004
    899303.62947    744804.06645
                  22947080.6334                                   22947078.3794
                                                                        45.5004
        34.5004
   1549008.80546   1207565.42244
                  24215276.2344                                   24215273.5824
                                                                        41.5004
        25.0004
 09 10 26 23 13  0.0000000  0  8G02G04G05G10G13G23G29G30
   1092349.73848    866530.28947
                  20576476.9144                                   20576471.7624
                                                                        51.5004
        43.0004
   1495707.69548   1167751.68446
                  22055434.8914                                   22055432.2934
                                                                        48.5004
        36.5004
    537514.30948    454379.61345
                  23222065.4384                                   23222061.9614
                                                                        48.0004
        35.0004
    580168.56348    486182.17245
                  22311657.2114                                   22311653.7504
                                                                        48.0004
        35.7504
   1018516.02348    809748.23046
                  21355878.7974                                   21355875.5664
                                                                        48.5004
        36.7504
   1413328.42247   1106603.75045
                  22703175.1334                                   22703170.0704
                                                                        46.0004
        31.2504
    731889.09847    614351.20745
                  22915222.7814                                   22915220.1484
                                                                        45.5004
        34.2504
   1543269.48247   1203093.13544
                  24214184.4304                                   24214181.5744
                                                                        42.0004
        25.2504
 09 10 26 23 13 30.0000000  0  8G02G04G05G10G13G23G29G30
    999681.94548    794321.96147
                  20558842.3754                                   20558837.0434
                                                                        52.5004
        43.0004
   1481492.91448   1156675.25046
                  22052729.8754                                   22052727.0664
                                                                        49.0004
        36.7504
    335013.21947    296586.75445
                  23183530.0164                                   23183526.9924
                                                                        46.5004
        34.5004
    386358.37548    335161.70746
                  22274775.4224                                   22274772.8524
                                                                        48.5004
        36.2504
    911771.77748    726571.12946
                  21335566.1334                                   21335562.7274
                                                                        49.0004
        37.2504
   1383340.84447   1083236.78544
                  22697469.6804                                   22697463.3284
                                                                        47.0004
        29.7504
    565350.40247    484580.78945
                  22883531.7734                                   22883529.2274
                                                                        45.7504
        34.7504
   1538293.41047   1199215.59444
                  24213237.4144                                   24213235.0864
                                                                        42.2504
        26.0004
 09 10 26 23 14  0.0000000  0  8G02G04G05G10G13G23G29G30
    908027.28548    722902.97347
                  20541400.6024                                   20541395.2424
                                                                        52.0004
        43.0004
   1468076.60548   1146221.20746
                  22050176.6024                                   22050173.9104
                                                                        48.7504
        36.5004
    133181.64147    139315.30545
                  23145123.0634                                   23145119.6094
                                                                        47.0004
        34.5004
    193326.28947    184747.28145
                  22238042.9844                                   22238040.0434
                                                                        47.7504
        35.7504
    806125.69148    644249.80546
                  21315461.9614                                   21315458.2624
                                                                        48.7504
        36.5004
   1354268.21947   1060582.80545
                  22691937.1414                                   22691930.8404
                                                                        45.7504
        30.5004
    399709.59447    355510.07445
                  22852011.3594                                   22852008.9304
                                                                        44.7504
        35.0004
   1534097.55946   1195946.03144
                  24212439.6024                                   24212436.8014
                                                                        41.2504
        26.0004
 09 10 26 23 14 30.0000000  0  8G02G04G05G10G13G23G29G30
    817385.72748    652273.27747
                  20524152.2344                                   20524147.1684
                                                                        52.5004
        43.5004
   1455456.71148   1136387.60246
                  22047775.0784                                   22047772.6604
                                                                        48.7504
        36.5004
    -67978.79348    -17433.16045
                  23106844.1724                                   23106840.2734
                                                                        48.5004
        34.7504
      1074.03947     34940.44946
                  22201458.6484                                   22201455.7114
                                                                        47.2504
        36.0004
    701577.80948    562783.89846
                  21295567.4534                                   21295563.6374
                                                                        48.5004
        37.2504
   1326108.53147   1038640.25044
                  22686578.2034                                   22686572.3634
                                                                        45.7504
        29.5004
    234968.71947    227140.57845
                  22820662.2114                                   22820658.8204
                                                                        45.5004
        34.5004
   1530677.39847   1193280.89143
                  24211788.3284                                   24211785.6724
                                                                        43.0004
        23.2504
 09 10 26 23 15  0.0000000  0  8G02G04G05G10G13G23G29G30
    727751.20748    582428.17647
                  20507095.5704                                   20507090.0744
                                                                        52.0004
        42.7504
   1443624.94548   1127168.10546
                  22045523.6414                                   22045520.6094
                                                                        48.5004
        36.5004
   -268471.34048   -173660.96945
                  23068691.4614                                   23068688.4884
                                                                        48.5004
        35.0004
   -190401.39847   -114261.09446
                  22165021.5554                                   22165018.7854
                                                                        47.0004
        36.7504
    598122.18448    482169.09046
                  21275880.2814                                   21275876.8444
                                                                        48.7504
        37.2504
   1298853.04747   1017402.26245
                  22681391.8834                                   22681385.6374
                                                                        46.2504
        30.2504
     71123.60247     99469.07845
                  22789483.0234                                   22789480.4614
                                                                        45.5004
        34.7504
   1528024.73847   1191213.86743
                  24211283.3674                                   24211280.8244
                                                                        43.7504
        23.2504
 09 10 26 23 15 30.0000000  0  8G02G04G05G10G13G23G29G30
    639112.23448    513358.84447
                  20490228.0314                                   20490222.9694
                                                                        50.7504
        43.0004
   1432567.39548   1118551.89546
                  22043419.2974                                   22043416.5044
                                                                        49.0004
        36.5004
   -468306.59447   -329376.73845
                  23030663.7734                                   23030660.8134
                                                                        47.5004
        35.5004
   -381110.48848   -262865.57446
                  22128730.8054                                   22128728.1374
                                                                        48.2504
        36.5004
    495747.05148    402396.32446
                  21256399.1884                                   21256395.1174
                                                                        49.2504
        36.2504
   1272487.69547    996857.85545
                  22676374.6254                                   22676368.1604
                                                                        45.5004
        31.0004
    -91835.77047    -27512.23445
                  22758473.3444                                   22758469.8554
                                                                        45.2504
        34.5004
   1526123.85547   1189732.62143
                  24210921.9064                                   24210919.1914
                                                                        43.5004
        23.7504
 09 10 26 23 16  0.0000000  0  7G02G04G05G10G13G23G29
    551457.35948    445056.34847
                  20473547.8984                                   20473542.7154
                                                                        51.7504
        43.2504
   1422271.68048   1110529.32446
                  22041459.9454                                   22041457.2234
                                                                        48.5004
        36.0004
   -667492.67648   -484586.46146
                  22992759.3674                                   22992756.3134
                                                                        48.0004
        36.0004
   -571061.98448   -410879.84445
                  22092584.6254                                   22092581.3524
                                                                        49.0004
        35.5004
    394442.19148    323457.46146
                  21237121.6254                                   21237117.6994
                                                                        49.2504
        36.5004
   1246999.43047    976996.87145
                  22671524.6334                                   22671518.8754
                                                                        46.2504
        30.5004
   -253917.85947   -153809.96145
                  22727629.7894                                   22727626.6804
                                                                        46.2504
        34.5004
 09 10 26 23 16 30.0000000  0  7G02G04G05G10G13G23G29
    464776.34448    377512.83247
                  20457052.8594                                   20457047.4224
                                                                        52.0004
        43.5004
   1412723.75448   1103089.45746
                  22039643.0944                                   22039640.0944
                                                                        50.0004
        36.5004
   -866038.89848   -639297.67645
                  22954977.2194                                   22954974.0474
                                                                        48.0004
        35.2504
   -760263.83248   -558309.71946
                  22056580.5554                                   22056577.1994
                                                                        49.0004
        36.2504
    294195.12148    245342.66846
                  21218045.0234                                   21218041.0634
                                                                        50.2504
        37.0004
   1222374.00047    957808.19145
                  22666838.1024                                   22666832.6724
                                                                        45.5004
        31.0004
   -415131.45347   -279430.93045
                  22696951.6174                                   22696948.5554
                                                                        46.0004
        34.0004
 09 10 26 23 17  0.0000000  0  7G02G04G05G10G13G23G29
    379058.48848    310719.74247
                  20440741.2034                                   20440735.5984
                                                                        52.7504
        42.7504
   1403912.27048   1096223.41845
                  22037966.2814                                   22037963.5554
                                                                        49.7504
        35.7504
  -1063954.22348   -793517.21545
                  22917315.1024                                   22917312.3054
                                                                        48.5004
        35.2504
   -948725.20748   -705162.65646
                  22020717.0474                                   22020713.8244
                                                                        48.5004
        36.5004
    194997.43048    168045.65646
                  21199168.7034                                   21199164.9774
                                                                        49.2504
        37.5004
   1198600.03947    939282.94944
                  22662313.9534                                   22662308.6524
                                                                        45.5004
        29.2504
   -575485.04347   -404381.76645
                  22666437.8444                                   22666434.6024
                                                                        44.7504
        33.5004
 09 10 26 23 17 30.0000000  0  7G02G04G05G10G13G23G29
    294296.24648    244671.53147
                  20424611.2274                                   20424605.8484
                                                                        52.7504
        43.0004
   1395827.09848   1089923.36746
                  22036427.7504                                   22036425.1214
                                                                        49.5004
        36.2504
  -1261244.55948   -947249.82445
                  22879772.0314                                   22879768.6214
                                                                        48.2504
        35.0004
  -1136452.18447   -851443.38346
                  21984993.8284                                   21984991.0314
                                                                        47.5004
        36.2504
     96841.04348     91560.50046
                  21180489.7274                                   21180485.9654
                                                                        50.0004
        37.0004
   1175666.80947    921412.92644
                  22657950.2814                                   22657944.4224
                                                                        46.0004
        29.5004
   -734984.67647   -528667.20345
                  22636085.7194                                   22636082.4184
                                                                        45.2504
        35.0004
 09 10 26 23 18  0.0000000  0  7G02G04G05G10G13G23G29
    210473.94948    179355.18047
                  20408660.3984                                   20408655.1884
                                                                        52.5004
        42.5004
   1388451.83648   1084176.41446
                  22035023.8364                                   22035020.9104
                                                                        49.0004
        36.2504
  -1457921.51648  -1100504.53145
                  22842345.6954                                   22842342.2034
                                                                        49.0004
        34.7504
  -1323456.57448   -997161.03146
                  21949408.0004                                   21949405.3484
                                                                        49.0004
        36.5004
      -290.18448     15873.42246
                  21162006.5084                                   21162002.7194
                                                                        49.2504
        36.7504
   1153557.78947    904185.13744
                  22653742.6334                                   22653737.0354
                                                                        46.0004
        29.5004
   -893641.97747   -652296.26645
                  22605894.4454                                   22605891.4454
                                                                        45.5004
        34.7504
 09 10 26 23 18 30.0000000  0  7G02G04G05G10G13G23G29
    127570.49248    114755.50847
                  20392884.4064                                   20392878.8164
                                                                        51.7504
        43.5004
   1381760.78548   1078962.47345
                  22033751.1644                                   22033748.2734
                                                                        48.5004
        35.7504
  -1654006.82448  -1253298.22346
                  22805032.1254                                   22805028.5824
                                                                        49.2504
        36.0004
  -1509758.82048  -1142331.44946
                  21913956.2034                                   21913953.1414
                                                                        48.5004
        36.2504
    -96416.93048    -59030.12546
                  21143714.0314                                   21143710.2894
                                                                        49.0004
        36.2504
   1132246.98447    887579.32044
                  22649687.7114                                   22649681.6374
                                                                        43.7504
        29.5004
  -1051478.13347   -775285.46545
                  22575859.6174                                   22575856.2234
                                                                        45.0004
        35.0004
 09 10 26 23 19  0.0000000  0  7G02G04G05G10G13G23G29
     45565.55948     50855.73047
                  20377279.2274                                   20377273.3954
                                                                        53.0004
        43.0004
   1375733.87147   1074266.04745
                  22032604.1094                                   22032601.3054
                                                                        47.7504
        35.5004
  -1849516.45348  -1405643.32845
                  22767827.3444                                   22767823.8914
                                                                        48.7504
        35.5004
  -1695375.68048  -1286967.87146
                  21878634.3204                                   21878630.9964
                                                                        48.5004
        37.2504
   -191559.54348   -133166.97746
                  21125608.8284                                   21125604.6804
                                                                        49.5004
        37.0004
   1111713.73847    871579.37944
                  22645780.2974                                   22645774.3874
                                                                        46.5004
        29.7504
  -1208509.02047   -897647.19545
                  22545977.3444                                   22545974.4454
                                                                        46.0004
        35.2504
 09 10 26 23 19 30.0000000  0  7G02G04G05G10G13G23G29
    -35553.69948    -12354.13747
                  20361842.7974                                   20361837.3404
                                                                        52.5004
        42.5004
   1370357.20748   1070076.56345
                  22031581.2194                                   22031578.4064
                                                                        49.0004
        35.5004
  -2044461.97748  -1557548.88345
                  22730731.0004                                   22730727.6884
                                                                        48.5004
        35.5004
  -1880318.50448  -1431079.15646
                  21843440.7504                                   21843437.6414
                                                                        48.7504
        37.7504
   -285730.41048   -206546.77746
                  21107688.4924                                   21107684.4774
                                                                        49.0004
        37.0004
   1091943.62547    856174.05945
                  22642018.3984                                   22642012.2344
                                                                        46.0004
        30.0004
  -1364746.39547  -1019390.59045
                  22516246.4304                                   22516243.4614
                                                                        46.0004
        35.7504
 09 10 26 23 20  0.0000000  0  7G02G04G05G10G13G23G29
   -115804.58648    -74887.15247
                  20346571.4694                                   20346565.6764
                                                                        53.0004
        42.7504
   1365609.06648   1066376.64546
                  22030677.3134                                   22030674.6884
                                                                        48.2504
        36.0004
  -2238858.82448  -1709026.84446
                  22693737.8524                                   22693734.8444
                                                                        49.0004
        36.7504
  -2064602.66448  -1574677.21946
                  21808372.3914                                   21808369.4414
                                                                        50.0004
        37.0004
   -378947.94548   -279183.47346
                  21089949.5164                                   21089945.5824
                                                                        49.5004
        36.5004
   1072914.95747    841346.52044
                  22638397.1724                                   22638391.3634
                                                                        46.0004
        27.5004
  -1520205.73847  -1140527.73445
                  22486663.3364                                   22486660.5984
                                                                        47.5004
        35.2504
 09 10 26 23 20 30.0000000  0  7G02G04G05G10G13G23G29
   -195198.16448   -136752.25847
                  20331463.0944                                   20331457.6374
                                                                        53.2504
        43.2504
   1361477.69548   1063157.44545
                  22029891.5634                                   22029888.5744
                                                                        49.0004
        35.7504
  -2432715.46548  -1860083.90646
                  22656848.3134                                   22656844.9804
                                                                        48.5004
        36.5004
  -2248236.09048  -1717768.12146
                  21773428.1954                                   21773425.0944
                                                                        49.0004
        37.5004
   -471223.16048   -351086.04746
                  21072389.8444                                   21072385.9654
                                                                        48.5004
        37.0004
   1054615.63347    827087.25044
                  22634914.8674                                   22634908.9654
                                                                        45.5004
        29.0004
  -1674894.62147  -1261064.48846
                  22457226.9924                                   22457223.7504
                                                                        46.5004
        36.0004
 09 10 26 23 21  0.0000000  0  7G02G04G05G10G13G23G29
   1301675.99648   1029643.15247
                  20616309.0944                                   20616303.5354
                                                                        52.5004
        43.0004
   2933370.17247   2288008.99245
                  22329012.6644                                   22329009.1764
                                                                        47.7504
        35.5004
  -1050615.85248   -783123.09846
                  22919853.2974                                   22919849.8094
                                                                        49.7504
        36.5004
   -855803.19548   -632755.44146
                  22038399.0164                                   22038396.2304
                                                                        48.0004
        36.7504
   1012855.35248    805338.79746
                  21354800.4924                                   21354796.5554
                                                                        48.5004
        36.7504
   2612452.30947   2040986.01644
                  22931361.5634                                   22931355.0904
                                                                        45.0004
        28.5004
   -253399.08647   -153405.60546
                  22727728.1724                                   22727725.6134
                                                                        46.7504
        36.0004
 09 10 26 23 21 30.0000000  0  7G02G04G05G10G13G23G29
   1223961.67648    969086.51647
                  20601520.6024                                   20601514.5084
                                                                        52.5004
        43.0004
   2930431.78148   2285719.46545
                  22328452.9534                                   22328450.4024
                                                                        48.2504
        35.2504
  -1243421.51648   -933361.35245
                  22883163.3984                                   22883160.1254
                                                                        49.0004
        35.7504
  -1038164.98848   -774855.52046
                  22003697.1174                                   22003693.7814
                                                                        48.2504
        37.0004
    922429.94148    734877.36346
                  21337593.4304                                   21337589.6484
                                                                        49.2504
        36.2504
   2595569.69147   2027830.72744
                  22928148.1724                                   22928142.6844
                                                                        44.5004
        29.0004
   -406577.72347   -272765.56245
                  22698579.2664                                   22698576.5084
                                                                        46.5004
        35.5004
 09 10 26 23 22  0.0000000  0  7G02G04G05G10G13G23G29
   1147073.25848    909173.55947
                  20586888.9774                                   20586883.1374
                                                                        52.5004
        42.5004
   2928072.53548   2283881.03545
                  22328004.2734                                   22328001.5554
                                                                        49.2504
        35.2504
  -1435712.29348  -1083198.32045
                  22846571.2344                                   22846568.0554
                                                                        48.7504
        35.5004
  -1219901.92648   -916468.69546
                  21969113.9064                                   21969110.2624
                                                                        49.0004
        37.5004
    832915.26248    665125.63346
                  21320559.3674                                   21320555.5554
                                                                        49.2504
        37.2504
   2579377.70347   2015213.50844
                  22925067.9454                                   22925061.9184
                                                                        45.2504
        29.2504
   -559012.35947   -391545.78545
                  22669572.0164                                   22669569.1604
                                                                        46.5004
        35.5004
 09 10 26 23 22 30.0000000  0  7G02G04G05G10G13G23G29
   1070999.75448    849895.41847
                  20572412.6094                                   20572407.1884
                                                                        52.0004
        42.2504
   2926280.47348   2282484.49645
                  22327663.1644                                   22327660.2584
                                                                        48.5004
        35.5004
  -1627496.75048  -1232640.71946
                  22810076.6334                                   22810073.2274
                                                                        48.0004
        36.0004
  -1401022.10948  -1057601.30146
                  21934647.7424                                   21934644.4264
                                                                        48.5004
        37.2504
    744301.18848    596075.64846
                  21303696.9384                                   21303692.4534
                                                                        48.5004
        36.5004
   2563864.14847   2003125.00045
                  22922115.2504                                   22922109.8634
                                                                        46.5004
        30.0004
   -710710.69547   -509752.26245
                  22640705.0084                                   22640701.6214
                                                                        47.0004
        34.7504
 09 10 26 23 23  0.0000000  0  7G02G04G05G10G13G23G29
    995731.64848    791245.08247
                  20558089.4774                                   20558084.1954
                                                                        52.0004
        43.0004
   2925043.09848   2281520.00445
                  22327427.9064                                   22327425.3524
                                                                        48.5004
        35.2504
  -1818782.76247  -1381694.69145
                  22773675.6724                                   22773672.3634
                                                                        47.0004
        35.7504
  -1581533.02348  -1198259.12946
                  21900297.5474                                   21900294.4144
                                                                        48.7504
        37.5004
    656577.05548    527719.13746
                  21287003.7194                                   21286999.3954
                                                                        49.5004
        36.0004
   2549016.19947   1991555.18045
                  22919290.1724                                   22919284.2074
                                                                        46.0004
        30.2504
   -861680.48047   -627391.04345
                  22611976.5634                                   22611972.9494
                                                                        47.5004
        35.5004
 09 10 26 23 23 30.0000000  0  7G02G04G05G10G13G23G29
    921259.21948    733214.48847
                  20543918.0474                                   20543912.6804
                                                                        53.0004
        42.5004
   2924350.64548   2280980.43045
                  22327295.9774                                   22327293.7504
                                                                        48.2504
        35.2504
  -2009576.60947  -1530365.20346
                  22737368.9454                                   22737365.5474
                                                                        47.7504
        37.0004
  -1761441.36348  -1338447.49646
                  21866062.4844                                   21866059.0314
                                                                        48.5004
        37.7504
    569734.33248    460049.54346
                  21270477.6954                                   21270473.7854
                                                                        50.0004
        36.5004
   2534822.66047   1980495.26245
                  22916588.8754                                   22916583.2974
                                                                        47.0004
        30.0004
  -1011928.01247   -744467.03945
                  22583385.2664                                   22583382.0984
                                                                        47.5004
        35.0004
 09 10 26 23 24  0.0000000  0  7G02G04G05G10G13G23G29
    847576.71148    675799.65247
                  20529896.6954                                   20529890.9924
                                                                        52.0004
        42.7504
   2924194.70348   2280858.81645
                  22327266.5394                                   22327264.1024
                                                                        48.2504
        35.5004
  -2199883.43748  -1678656.18746
                  22701154.6094                                   22701151.2584
                                                                        48.2504
        37.5004
  -1940751.58248  -1478169.66046
                  21831940.5554                                   21831937.2664
                                                                        49.0004
        37.5004
    483766.70348    393061.79746
                  21254118.9454                                   21254114.6484
                                                                        50.0004
        36.5004
   2521275.99247   1969939.43044
                  22914011.5944                                   22914005.6954
                                                                        46.0004
        28.7504
  -1161459.21147   -860984.84845
                  22554930.5164                                   22554927.3524
                                                                        47.7504
        35.5004
 09 10 26 23 24 30.0000000  0  7G02G04G05G10G13G23G29
    774673.44948    618991.93047
                  20516023.5554                                   20516018.0864
                                                                        53.0004
        42.5004
   2924562.04748   2281144.92245
                  22327336.5554                                   22327333.8834
                                                                        48.7504
        35.5004
  -2389709.92647  -1826572.91446
                  22665031.4454                                   22665028.2274
                                                                        47.2504
        37.2504
  -2119470.96548  -1617431.39546
                  21797931.4774                                   21797927.9184
                                                                        49.5004
        37.7504
    398662.44548    326746.78546
                  21237923.9844                                   21237920.0124
                                                                        50.0004
        37.0004
   2508362.30547   1959876.80544
                  22911553.8984                                   22911547.8754
                                                                        46.0004
        28.0004
  -1310280.04348   -976949.11345
                  22526610.8054                                   22526607.8754
                                                                        48.2504
        35.5004
 09 10 26 23 25  0.0000000  0  7G02G04G05G10G13G23G29
    702543.25448    562786.61747
                  20502297.6804                                   20502291.8834
                                                                        53.2504
        43.0004
   2925446.64548   2281834.39545
                  22327504.7034                                   22327502.0044
                                                                        48.0004
        34.7504
  -2579061.56248  -1974119.72346
                  22628999.6254                                   22628995.8794
                                                                        48.2504
        37.2504
  -2297604.64848  -1756236.76246
                  21764033.3284                                   21764030.1214
                                                                        48.5004
        36.7504
    314416.49248    261100.60246
                  21221892.4694                                   21221888.3714
                                                                        50.7504
        37.0004
   2496073.85247   1950301.39144
                  22909214.9614                                   22909209.2344
                                                                        46.0004
        28.0004
  -1458396.11348  -1092364.22745
                  22498425.3054                                   22498422.1024
                                                                        48.5004
        35.5004
 09 10 26 23 25 30.0000000  0  7G02G04G05G10G13G23G29
    631179.83248    507178.72347
                  20488717.4844                                   20488712.2154
                                                                        52.5004
        42.5004
   2926838.85247   2282919.16045
                  22327769.6954                                   22327766.8874
                                                                        47.5004
        34.0004
  -2767941.44947  -2121298.86346
                  22593056.7664                                   22593053.5084
                                                                        47.0004
        37.2504
  -2475155.69948  -1894588.19946
                  21730246.2664                                   21730243.0944
                                                                        49.5004
        37.2504
    231021.90648    196117.82846
                  21206022.9924                                   21206019.0004
                                                                        51.0004
        36.2504
   2484402.25847   1941206.71544
                  22906994.0704                                   22906988.1604
                                                                        44.7504
        27.2504
  -1605810.52748  -1207232.59046
                  22470373.2664                                   22470370.1564
                                                                        48.0004
        36.0004
 09 10 26 23 26  0.0000000  0  7G02G04G05G10G13G23G29
    560573.00448    452160.43047
                  20475281.6094                                   20475275.8954
                                                                        52.7504
        42.7504
   2928726.89848   2284390.22745
                  22328129.1414                                   22328126.1254
                                                                        48.2504
        34.7504
  -2956357.07448  -2268116.19146
                  22557202.2194                                   22557198.8594
                                                                        48.0004
        36.0004
  -2652132.01648  -2032491.81646
                  21696568.9844                                   21696565.9614
                                                                        49.5004
        37.7504
    148468.32048    131790.42246
                  21190313.5554                                   21190309.6334
                                                                        51.5004
        36.7504
   2473334.97347   1932582.86344
                  22904887.6094                                   22904881.9534
                                                                        44.7504
        26.0004
  -1752531.34847  -1321560.49645
                  22442453.3674                                   22442449.9224
                                                                        47.5004
        35.5004
 09 10 26 23 26 30.0000000  0  7G02G04G05G10G13G23G29
    490717.58648    397727.60547
                  20461988.7114                                   20461983.3914
                                                                        52.0004
        42.7504
   2931104.13348   2286242.38345
                  22328581.8284                                   22328579.1994
                                                                        48.0004
        35.0004
  -3144311.50848  -2414574.17646
                  22521436.2584                                   22521432.3054
                                                                        48.0004
        36.5004
  -2828537.06648  -2169950.39146
                  21663000.3674                                   21662997.2934
                                                                        50.0004
        38.0004
     66750.64848     68114.31646
                  21174763.2034                                   21174758.8444
                                                                        50.5004
        36.5004
   2462865.29747   1924424.66844
                  22902895.9064                                   22902890.1724
                                                                        45.0004
        27.7504
  -1898561.49248  -1435350.19545
                  22414664.4924                                   22414661.5124
                                                                        48.0004
        35.7504
 09 10 26 23 27  0.0000000  0  7G02G04G05G10G13G23G29
    421610.08648    343877.62547
                  20448837.9304                                   20448832.1994
                                                                        52.2504
        42.5004
   2933965.75448   2288472.22345
                  22329126.3134                                   22329123.5594
                                                                        48.0004
        35.0004
  -3331806.59447  -2560674.23846
                  22485757.0164                                   22485753.3714
                                                                        47.5004
        36.7504
  -3004371.07848  -2306963.89146
                  21629540.4384                                   21629537.5044
                                                                        50.0004
        38.0004
    -14135.12948      5086.45746
                  21159371.0084                                   21159366.8914
                                                                        51.0004
        36.7504
   2452987.05547   1916727.36344
                  22901016.0864                                   22901010.4184
                                                                        45.0004
        27.5004
  -2043902.31247  -1548602.77745
                  22387007.1724                                   22387003.5784
                                                                        47.5004
        35.7504
 09 10 26 23 27 30.0000000  0  7G02G04G05G10G13G23G29
    353246.85548    290607.63347
                  20435828.9064                                   20435823.3524
                                                                        51.7504
        43.0004
   2937307.11747   2291076.08645
                  22329762.1414                                   22329759.4534
                                                                        47.5004
        35.2504
  -3518843.41047  -2706417.18446
                  22450165.0164                                   22450161.7074
                                                                        47.7504
        37.2504
  -3179635.54348  -2443533.59846
                  21596188.6804                                   21596185.0864
                                                                        50.0004
        38.0004
    -94191.72748    -57295.32846
                  21144136.8754                                   21144132.6214
                                                                        50.7504
        36.7504
   2443694.66847   1909486.54744
                  22899248.2584                                   22899241.8954
                                                                        45.0004
        28.7504
  -2188555.98048  -1661319.91445
                  22359480.3444                                   22359477.3054
                                                                        48.2504
        35.5004
 09 10 26 23 28  0.0000000  0  7G02G04G05G10G13G23G29
    285618.78148    237910.42647
                  20422959.4534                                   20422954.0554
                                                                        52.7504
        43.0004
   2941115.38747   2294043.36345
                  22330486.9144                                   22330484.0704
                                                                        47.2504
        34.0004
  -3705428.39548  -2851808.04346
                  22414658.8984                                   22414655.6684
                                                                        49.0004
        37.7504
  -3354337.34848  -2579664.88346
                  21562944.0234                                   21562940.9224
                                                                        50.0004
        38.2504
   -173429.43448   -119039.01646
                  21129058.3364                                   21129054.3984
                                                                        51.2504
        36.5004
   2434976.72347   1902693.37944
                  22897588.9844                                   22897583.2194
                                                                        45.0004
        28.5004
  -2332528.31247  -1773506.14845
                  22332083.1724                                   22332079.9884
                                                                        47.2504
        35.2504
 09 10 26 23 28 30.0000000  0  7G02G04G05G10G13G23G29
    218720.77048    185782.09847
                  20410229.0944                                   20410223.4694
                                                                        52.5004
        42.5004
   2945385.26647   2297370.46945
                  22331299.2974                                   22331296.6644
                                                                        47.5004
        34.0004
  -3891564.03548  -2996848.77746
                  22379238.3524                                   22379235.1724
                                                                        48.7504
        37.5004
  -3528478.85948  -2715359.53146
                  21529805.9774                                   21529802.6884
                                                                        50.0004
        38.0004
   -251853.24248   -180148.47746
                  21114134.5634                                   21114130.8014
                                                                        51.0004
        36.7504
   2426826.13747   1896342.30544
                  22896037.7344                                   22896032.2384
                                                                        44.0004
        28.5004
  -2475822.19147  -1885163.71146
                  22304815.1954                                   22304812.5704
                                                                        47.7504
        36.0004
 09 10 26 23 29  0.0000000  0  7G02G04G05G10G13G23G29
    152547.73448    134218.65647
                  20397637.0004                                   20397631.5984
                                                                        52.5004
        42.5004
   2950110.65247   2301052.91445
                  22332198.4924                                   22332195.5044
                                                                        47.0004
        33.7504
  -4077253.65248  -3141541.97346
                  22343902.9844                                   22343899.2464
                                                                        49.0004
        37.2504
  -3702063.09848  -2850619.96146
                  21496774.2194                                   21496771.0634
                                                                        49.7504
        38.5004
   -329468.33248   -240627.81246
                  21099365.1724                                   21099361.0204
                                                                        51.2504
        36.5004
   2419235.91847   1890427.89844
                  22894593.6024                                   22894587.9494
                                                                        44.2504
        28.5004
  -2618440.59448  -1996294.91445
                  22277675.6644                                   22277672.8794
                                                                        48.0004
        35.5004
 09 10 26 23 29 30.0000000  0  7G02G04G05G10G13G23G29
   1662518.27348   1310819.07847
                  20684974.7734                                   20684968.9614
