     2.11           OBSERVATION DATA    G (GPS)             RINEX VERSION / TYPE
teqc  2019Feb25                         20221121 12:28:26UTCPGM / RUN BY / DATE
OSX ker:10.11.6|Core i5|gcc 4.3 -m64|OSX ker:10.10+|=+      COMMENT
BIT 2 OF LLI FLAGS DATA COLLECTED UNDER A/S CONDITION       COMMENT
04712891                                                    MARKER NAME
2891                                                        MARKER NUMBER
-Unknown-           -Unknown-                               OBSERVER / AGENCY
0220400471          TRIMBLE R7          2.30                REC # / TYPE / VERS
-Unknown-           TRM39105.00     NONE                    ANT # / TYPE
  1449460.0081 -1709241.1746  5952441.5720                  APPROX POSITION XYZ
        0.0000        0.0000        0.0000                  ANTENNA: DELTA H/E/N
     1     1                                                WAVELENGTH FACT L1/2
    20    L1    L2    L5    L6    L7    L8    C1    P1    C2# / TYPES OF OBSERV
          P2    C5    C6    C7    C8    S1    S2    S5    S6# / TYPES OF OBSERV
          S7    S8                                          # / TYPES OF OBSERV
    30.0000                                                 INTERVAL
    15                                                      LEAP SECONDS
Forced Modulo Decimation to 30 seconds                      COMMENT
 SNR is mapped to RINEX snr flag value [0-9]                COMMENT
  L1 & L2: min(max(int(snr_dBHz/6), 0), 9)                  COMMENT
teqc edited: Beidou # 1 - 37 excluded                       COMMENT
  2009    10    16    23    10   30.0000000     GPS         TIME OF FIRST OBS
                                                            END OF HEADER
 09 10 16 23 10 30.0000000  0  6G02G04G12G13G23G30
   -226895.78158   -160665.62957
                  20855920.0394                                   20855913.9774
                                                                        49.5004
        42.2504
    -83493.34858    -58526.18756
                  20920256.7734                                   20920252.9024
                                                                        51.5004
        41.0004
     -3932.55157     -2822.59854
                  24199534.0944                                   24199529.7304
                                                                        43.0004
        26.2504
   -259898.41458   -181515.84855
                  21936054.7664                                   21936050.0234
                                                                        49.5004
        34.0004
   -122747.13758    -85803.33255
                  21945902.4224                                   21945896.1884
                                                                        48.0004
        34.7504
    -70996.81257    -49719.81654
                  22959862.3594                                   22959858.3094
                                                                        43.7504
        28.5004
 09 10 16 23 11  0.0000000  0  9G02G04G10G12G13G29G23G31G30
   -363999.27348   -267499.57047
                  20829830.1954                                   20829823.8244
                                                                        50.0004
        42.0004
   -134356.57048    -98159.87946
                  20910577.8674                                   20910574.0044
                                                                        51.5004
        41.0004
   -311102.31257   -226912.06254
                  24146408.5234                                   24146404.8714
                                                                        43.0004
        24.0004
     -6932.92247     -5160.59844
                  24198962.9224                                   24198959.1174
                                                                        43.2504
        25.0004
   -418080.65648   -304774.75445
                  21905953.7664                                   21905948.8594
                                                                        50.5004
        34.2504
   -284779.72357   -207713.44154
                  24297134.6804                                   24297130.6024
                                                                        42.7504
        25.0004
   -197517.50448   -144065.95745
                  21931674.5084                                   21931668.1054
                                                                        48.7504
        34.7504
    -73239.49257    -53400.87554
                  24021001.5784                                   24020996.4064
                                                                        43.0004
        27.0004
   -114352.81247    -83503.75844
                  22951611.6644                                   22951607.9304
                                                                        44.7504
        28.2504
 09 10 16 23 11 30.0000000  0  9G02G04G10G12G13G29G23G31G30
   -500079.78148   -373536.34046
                  20803934.9224                                   20803928.4654
                                                                        50.7504
        41.7504
   -184193.21548   -136993.65646
                  20901094.2424                                   20901090.3014
                                                                        52.7504
        41.0004
   -523470.25847   -392393.49244
                  24105996.2734                                   24105992.7774
                                                                        43.5004
        25.0004
     -9112.82447     -6859.21944
                  24198548.3284                                   24198544.1524
                                                                        44.2504
        27.5004
   -575193.87548   -427200.64545
                  21876055.7894                                   21876051.3594
                                                                        49.7504
        34.2504
   -478986.93046   -359044.03944
                  24260177.9924                                   24260173.9414
                                                                        41.7504
        25.2504
   -271156.00848   -201446.58645
                  21917661.3834                                   21917655.0274
                                                                        49.0004
        35.2504
   -122208.39847    -91558.44944
                  24011683.2034                                   24011678.2734
                                                                        42.7504
        26.5004
   -156607.46547   -116429.41044
                  22943570.9614                                   22943567.3794
                                                                        43.0004
        28.5004
 09 10 16 23 12  0.0000000  0  9G02G04G10G12G13G29G23G31G30
   -635010.64548   -478677.24646
                  20778258.3594                                   20778252.5004
                                                                        49.5004
        41.7504
   -232879.23848   -174930.84846
                  20891829.6484                                   20891825.8134
                                                                        51.7504
        40.7504
   -735056.82047   -557266.08244
                  24065732.1724                                   24065729.4184
                                                                        42.7504
        24.2504
    -10349.73047     -7823.04344
                  24198313.8594                                   24198309.0744
                                                                        45.5004
        29.5004
   -731110.59048   -548694.19945
                  21846385.7974                                   21846381.3444
                                                                        49.5004
        34.5004
   -672305.09046   -509681.77744
                  24223391.1954                                   24223387.6024
                                                                        40.0004
        24.5004
   -343538.26247   -257848.34045
                  21903887.4224                                   21903881.4024
                                                                        46.2504
        34.7504
   -170009.57847   -128806.14144
                  24002586.4694                                   24002582.2624
                                                                        42.0004
        27.0004
   -197637.81647   -148401.05144
                  22935763.0314                                   22935759.4964
                                                                        44.5004
        28.7504
 09 10 16 23 12 30.0000000  0  9G02G04G10G12G13G29G23G31G30
   -768762.16048   -582899.19547
                  20752806.0084                                   20752800.0784
                                                                        49.5004
        42.0004
   -280387.32848   -211950.11346
                  20882789.0704                                   20882785.2384
                                                                        51.7504
        41.0004
   -945831.30946   -721505.85544
                  24025623.3834                                   24025620.3484
                                                                        41.0004
        26.0004
    -10618.27047     -8032.28145
                  24198262.4534                                   24198258.2034
                                                                        45.7504
        30.0004
   -885800.17248   -669231.54745
                  21816949.6804                                   21816944.9144
                                                                        50.5004
        34.0004
   -864703.54746   -659602.73044
                  24186778.9614                                   24186775.5164
                                                                        39.0004
        25.7504
   -414636.75447   -313249.77045
                  21890357.7664                                   21890351.5824
                                                                        47.0004
        35.5004
   -216616.34446   -165123.12544
                  23993717.6024                                   23993713.5204
                                                                        41.2504
        25.2504
   -237418.23047   -179398.77344
                  22928192.9454                                   22928189.5904
                                                                        45.2504
        29.5004
 09 10 16 23 13  0.0000000  0  9G02G04G10G12G13G29G23G31G30
   -901338.35248   -686205.31647
                  20727577.8914                                   20727571.9844
                                                                        50.7504
        42.2504
   -326724.58648   -248057.07046
                  20873971.2584                                   20873967.4694
                                                                        51.5004
        41.2504
  -1155797.21146   -885115.52744
                  23985668.1334                                   23985665.1134
                                                                        41.5004
        26.0004
     -9926.89547     -7493.56644
                  24198393.7274                                   24198389.8134
                                                                        45.0004
        29.5004
  -1039266.03548   -788815.33245
                  21787746.0704                                   21787741.6054
                                                                        49.5004
        35.2504
  -1056185.63346   -808809.78544
                  24150341.3754                                   24150338.4144
                                                                        40.7504
        27.5004
   -484458.03948   -367656.00045
                  21877071.3594                                   21877064.9304
                                                                        48.0004
        35.0004
   -262036.07846   -200515.17244
                  23985073.9064                                   23985069.8244
                                                                        41.0004
        25.5004
   -275956.00847   -209428.27044
                  22920859.7734                                   22920856.0434
                                                                        45.2504
        27.7504
 09 10 16 23 13 30.0000000  0  9G02G04G10G12G13G29G23G31G30
  -1032760.57848   -788612.20747
                  20702569.1024                                   20702562.8244
                                                                        50.5004
        42.0004
   -371914.81248   -283270.22346
                  20865372.2424                                   20865368.3204
                                                                        50.5004
        40.5004
  -1364974.94147  -1048111.05544
                  23945862.8524                                   23945860.0704
                                                                        42.2504
        27.2504
     -8300.78547     -6226.48444
                  24198703.1644                                   24198699.2664
                                                                        44.0004
        28.0004
  -1191528.67648   -907461.55945
                  21758771.6174                                   21758766.7624
                                                                        50.0004
        34.2504
  -1246770.94547   -957317.96144
                  24114074.0004                                   24114070.9734
                                                                        42.5004
        28.7504
   -553025.03947   -421084.82045
                  21864023.3834                                   21864017.0984
                                                                        47.7504
        34.2504
   -306292.67246   -235000.89544
                  23976652.7894                                   23976648.3674
                                                                        39.0004
        25.5004
   -313275.38347   -238508.27044
                  22913758.0864                                   22913754.4064
                                                                        44.5004
        28.7504
 09 10 16 23 14  0.0000000  0  9G02G04G10G12G13G29G23G31G30
  -1163058.04748   -890142.68447
                  20677774.1174                                   20677768.0984
                                                                        51.5004
        42.2504
   -415990.05548   -317614.57846
                  20856984.4844                                   20856981.1644
                                                                        51.2504
        41.5004
  -1573393.06247  -1210514.69144
                  23906202.2034                                   23906198.9804
                                                                        43.5004
        27.0004
     -5773.76647     -4257.40244
                  24199183.5234                                   24199179.7624
                                                                        42.7504
        26.5004
  -1342616.91448  -1025192.67245
                  21730020.0234                                   21730016.0434
                                                                        49.5004
        34.7504
  -1436487.70747  -1105149.23844
                  24077972.3674                                   24077968.6764
                                                                        43.0004
        28.2504
   -620369.54348   -473561.05945
                  21851208.6884                                   21851202.0274
                                                                        49.0004
        35.2504
   -349418.63746   -268605.53544
                  23968446.4144                                   23968441.3324
                                                                        40.2504
        26.0004
   -349409.82047   -266665.00044
                  22906881.5164                                   22906878.1994
                                                                        45.7504
        28.5004
 09 10 16 23 14 30.0000000  0  9G02G04G10G12G13G29G23G31G30
  -1292257.44148   -990817.50047
                  20653188.4224                                   20653182.3014
                                                                        50.2504
        42.5004
   -458979.55548   -351112.87946
                  20848804.1414                                   20848800.6024
                                                                        51.7504
        41.0004
  -1781077.65647  -1372346.78944
                  23866681.0944                                   23866677.7664
                                                                        43.5004
        25.7504
     -2377.18446     -1610.77044
                  24199829.7894                                   24199825.3404
                                                                        41.7504
        24.5004
  -1492556.76648  -1142028.93445
                  21701487.6174                                   21701483.2114
                                                                        50.2504
        34.7504
  -1625362.01247  -1252324.16844
                  24042030.7584                                   24042027.7544
                                                                        43.2504
        28.2504
   -686520.99248   -525107.61745
                  21838620.2114                                   21838613.9414
                                                                        48.7504
        35.2504
   -391444.13746   -301352.73444
                  23960449.0314                                   23960444.1524
                                                                        41.2504
        25.2504
   -384389.38747   -293921.79744
                  22900225.0314                                   22900222.0594
                                                                        44.0004
        27.2504
 09 10 16 23 15  0.0000000  0  9G02G04G10G12G13G29G23G31G30
  -1420389.57048  -1090660.69947
                  20628805.5084                                   20628799.5234
                                                                        51.0004
        42.2504
   -500916.74648   -383791.22346
                  20840823.7894                                   20840820.0084
                                                                        52.5004
        41.5004
  -1988058.34447  -1533630.42244
                  23827293.4224                                   23827289.6024
                                                                        42.0004
        25.7504
      1854.55947      1686.67243
                  24200634.8754                                   24200630.6174
                                                                        42.0004
        22.7504
  -1641377.80148  -1257993.38745
                  21673167.5784                                   21673163.3364
                                                                        49.0004
        35.0004
  -1813422.69946  -1398864.96544
                  24006244.2894                                   24006240.3014
                                                                        41.5004
        26.0004
   -751511.85548   -575749.84045
                  21826252.9454                                   21826245.9884
                                                                        49.0004
        34.7504
   -432402.57846   -333268.47744
                  23952654.6884                                   23952650.4264
                                                                        41.7504
        25.7504
   -418248.53947   -320305.56644
                  22893782.6644                                   22893778.7974
                                                                        44.5004
        28.5004
 09 10 16 23 15 30.0000000  0  9G02G04G10G12G13G29G23G31G30
  -1547484.44548  -1189695.59847
                  20604620.1724                                   20604614.1294
                                                                        52.0004
        42.7504
   -541834.28948   -415675.04346
                  20833037.2974                                   20833033.7934
                                                                        52.5004
        41.5004
  -2194364.39847  -1694388.33243
                  23788034.4534                                   23788030.9884
                                                                        42.2504
        23.5004
      6886.65247      5607.84044
                  24201593.6884                                   24201588.7544
                                                                        42.7504
        25.7504
  -1789109.63348  -1373109.10245
                  21645055.2504                                   21645050.4534
                                                                        49.2504
        34.7504
  -2000699.08246  -1544794.66443
                  23970606.1644                                   23970602.7384
                                                                        40.2504
        22.5004
   -815374.66448   -625513.08645
                  21814100.0634                                   21814093.3984
                                                                        49.0004
        35.0004
   -472327.53146   -364378.92244
                  23945058.1024                                   23945053.4384
                                                                        41.7504
        26.5004
   -451021.41047   -345842.86744
                  22887545.6564                                   22887542.3554
                                                                        44.7504
        27.7504
 09 10 16 23 16  0.0000000  0  9G02G04G10G12G13G29G23G31G30
  -1673566.67648  -1287941.43447
                  20580627.5634                                   20580621.2194
                                                                        51.0004
        42.0004
   -581759.59048   -446785.66046
                  20825439.8444                                   20825436.0274
                                                                        52.5004
        41.2504
  -2400019.58246  -1854639.07043
                  23748899.4694                                   23748896.4844
                                                                        40.7504
        23.0004
     12690.54347     10130.39144
                  24202697.4534                                   24202693.1764
                                                                        44.5004
        27.2504
  -1935776.25848  -1487394.78145
                  21617145.6954                                   21617140.8404
                                                                        49.2504
        34.7504
  -2187214.56246  -1690131.40643
                  23935112.9774                                   23935109.2814
                                                                        40.2504
        22.5004
   -878136.62148   -674418.52045
                  21802157.0234                                   21802150.4654
                                                                        48.7504
        34.2504
   -511246.46147   -394705.37944
                  23937651.3914                                   23937647.6174
                                                                        42.2504
        26.7504
   -482736.03947   -370555.54344
                  22881510.7344                                   22881507.1454
                                                                        45.2504
        29.2504
 09 10 16 23 16 30.0000000  0  9G02G04G10G12G13G29G23G31G30
  -1798662.19948  -1385418.43047
                  20556822.3984                                   20556816.3204
                                                                        50.0004
        42.0004
   -620721.05548   -477145.23046
                  20818025.8054                                   20818022.2074
                                                                        50.5004
        40.7504
  -2605048.73047  -2014401.96544
                  23709884.5944                                   23709881.6414
                                                                        43.2504
        27.7504
     19236.03947     15230.72744
                  24203943.4924                                   24203939.5634
                                                                        44.2504
        29.0004
  -2081402.44148  -1600869.74645
                  21589433.9614                                   21589429.2194
                                                                        49.2504
        35.0004
  -2372993.50046  -1834894.14844
                  23899761.1564                                   23899757.9654
                                                                        40.0004
        26.0004
   -939825.39848   -722487.71145
                  21790418.2114                                   21790411.1604
                                                                        49.0004
        34.2504
   -549188.37146   -424270.51644
                  23930431.7274                                   23930427.2974
                                                                        39.2504
        26.0004
   -513421.83647   -394466.60545
                  22875671.3834                                   22875667.9734
                                                                        45.7504
        30.0004
 09 10 16 23 17  0.0000000  0  9G02G04G10G12G13G29G23G31G30
  -1922794.64548  -1482144.96947
                  20533200.9614                                   20533194.6294
                                                                        51.5004
        42.0004
   -658745.27748   -506774.52346
                  20810789.8754                                   20810786.2074
                                                                        51.7504
        40.5004
  -2809475.28547  -2173695.34044
                  23670983.3674                                   23670980.1024
                                                                        44.7504
        29.0004
     26495.11347     20887.14845
                  24205324.7424                                   24205320.8054
                                                                        43.7504
        30.0004
  -2226011.72348  -1713552.31645
                  21561915.7194                                   21561911.2384
                                                                        50.2504
        34.7504
  -2558058.37546  -1979100.44144
                  23864545.1174                                   23864541.7934
                                                                        41.0004
        28.0004
  -1000467.12948   -769741.00445
                  21778878.1334                                   21778871.6484
                                                                        49.5004
        35.0004
   -586179.96946   -453095.10244
                  23923392.4614                                   23923387.6724
                                                                        40.2504
        26.7504
   -543105.71147   -417596.87945
                  22870022.7344                                   22870020.0594
                                                                        46.2504
        30.2504
 09 10 16 23 17 30.0000000  0  9G02G04G10G12G13G29G23G31G30
  -2045984.73448  -1578137.22346
                  20509758.6094                                   20509752.2934
                                                                        51.0004
        41.7504
   -695855.08248   -535691.27346
                  20803728.1564                                   20803724.3324
                                                                        51.5004
        40.2504
  -3013318.13347  -2332533.87544
                  23632193.1954                                   23632189.9774
                                                                        44.2504
        29.0004
     34443.00046     27080.25044
                  24206837.2814                                   24206833.1844
                                                                        41.2504
        26.2504
  -2369623.43748  -1825457.55545
                  21534587.1414                                   21534582.5744
                                                                        49.7504
        34.7504
  -2742428.84046  -2122765.72344
                  23829459.9454                                   23829456.6954
                                                                        41.7504
        29.2504
  -1060084.92248   -816196.47345
                  21767533.0234                                   21767526.7774
                                                                        49.2504
        34.2504
   -622245.18447   -481197.85244
                  23916529.0314                                   23916525.1644
                                                                        42.5004
        27.5004
   -571812.25847   -439965.64845
                  22864559.8524                                   22864556.8444
                                                                        46.0004
        30.5004
 09 10 16 23 18  0.0000000  0  9G02G04G10G12G13G29G23G31G30
   -592830.79348   -445809.43047
                  20786284.8054                                   20786278.1054
                                                                        51.0004
        42.2504
    843345.32048    663685.69546
                  21096628.2664                                   21096624.5474
                                                                        51.7504
        40.7504
  -1641172.24247  -1263329.23044
                  23893303.2814                                   23893300.3164
                                                                        43.0004
        27.2504
   1618472.71546   1261389.00044
                  24508266.6954                                   24508263.7234
                                                                        40.5004
        25.2504
   -936835.02348   -708999.05945
                  21807238.0704                                   21807233.3404
                                                                        50.5004
        34.7504
  -1350700.03946  -1038301.64544
                  24094296.7274                                   24094294.0434
                                                                        41.0004
        29.0004
    456718.81648    365728.56345
                  22056171.4304                                   22056164.7114
                                                                        49.7504
        34.7504
    918011.36747    719002.04344
                  24209630.9534                                   24209625.9844
                                                                        42.0004
        27.5004
    975853.07447    766007.32044
                  23159070.9384                                   23159068.1884
                                                                        45.5004
        29.0004
 09 10 16 23 18 30.0000000  0  9G02G04G10G12G13G29G23G31G30
   -714198.45348   -540381.60946
                  20763188.9224                                   20763183.1884
                                                                        50.7504
        41.5004
    807993.35248    636138.69946
                  21089901.1174                                   21089897.3554
                                                                        50.7504
        41.2504
  -1843907.93047  -1421305.01644
                  23854724.0314                                   23854720.7814
                                                                        42.0004
        25.5004
   1627723.24247   1268597.16444
                  24510027.6804                                   24510024.2274
                                                                        42.5004
        27.0004
  -1078512.68448   -819397.23845
                  21780277.8594                                   21780272.5744
                                                                        50.0004
        34.5004
  -1533740.37946  -1180930.43044
                  24059465.4694                                   24059462.4344
                                                                        41.2504
        28.5004
    399080.04748    320815.23045
                  22045203.1884                                   22045196.5124
                                                                        48.0004
        34.0004
    883726.74647    692286.64844
                  24203106.2504                                   24203102.0944
                                                                        42.5004
        27.2504
    949027.58247    745104.25044
                  23153966.1484                                   23153963.4224
                                                                        44.2504
        29.2504
 09 10 16 23 19  0.0000000  0  9G02G04G10G12G13G29G23G31G30
   -834685.43748   -634267.58647
                  20740261.1174                                   20740254.9414
                                                                        52.0004
        42.0004
    773486.00048    609249.85246
                  21083334.2504                                   21083330.4884
                                                                        52.0004
        40.7504
  -2046119.32047  -1578872.32444
                  23816244.8524                                   23816241.0164
                                                                        42.2504
        25.0004
   1637588.27347   1276284.19544
                  24511905.2274                                   24511901.0354
                                                                        44.0004
        27.2504
  -1219252.34448   -929064.51645
                  21753495.5164                                   21753491.0204
                                                                        49.5004
        35.2504
  -1716144.02746  -1323063.10544
                  24024755.4924                                   24024751.6884
                                                                        41.0004
        28.2504
    342396.72348    276646.40245
                  22034416.5314                                   22034410.3364
                                                                        48.7504
        33.5004
    850297.46947    666237.77744
                  24196745.2584                                   24196740.9104
                                                                        42.0004
        27.2504
    923107.00447    724906.34444
                  23149033.7584                                   23149030.5314
                                                                        45.2504
        27.7504
 09 10 16 23 19 30.0000000  0  9G02G04G10G12G13G29G23G31G30
   -954303.73048   -727476.65647
                  20717498.2034                                   20717492.2384
                                                                        51.0004
        42.2504
    739808.40648    583007.57446
                  21076925.9614                                   21076922.2774
                                                                        51.0004
        40.5004
  -2247816.85247  -1736039.19544
                  23777862.8134                                   23777859.1294
                                                                        42.5004
        26.2504
   1648052.00047   1284437.79744
                  24513896.9304                                   24513892.4734
                                                                        45.2504
        28.0004
  -1359066.00048  -1038010.23046
                  21726889.9614                                   21726885.3014
                                                                        50.0004
        36.0004
  -1897921.87546  -1464708.25044
                  23990164.0634                                   23990160.6054
                                                                        39.7504
        25.7504
    286653.82048    233210.34845
                  22023808.5864                                   22023802.0864
                                                                        48.5004
        34.2504
    817708.44547    640843.62944
                  24190543.9924                                   24190539.2194
                                                                        43.0004
        28.5004
    898075.36747    705401.11344
                  23144270.1254                                   23144267.0744
                                                                        44.0004
        27.0004
 09 10 16 23 20  0.0000000  0  9G02G04G10G12G13G29G23G31G30
  -1073067.48448   -820019.85247
                  20694898.5474                                   20694892.7734
                                                                        51.2504
        42.5004
    706943.80548    557398.79346
                  21070671.7814                                   21070668.0084
                                                                        51.2504
        40.7504
  -2449014.23847  -1892816.35944
                  23739576.5314                                   23739573.0314
                                                                        43.0004
        27.7504
   1659095.79347   1293043.38744
                  24515998.4304                                   24515994.0554
                                                                        44.5004
        27.2504
  -1497967.03548  -1146244.81245
                  21700458.1644                                   21700453.6414
                                                                        49.7504
        35.0004
  -2079086.93746  -1605875.84444
                  23955689.1024                                   23955685.4574
                                                                        40.5004
        24.0004
    231835.45348    190494.76245
                  22013377.2034                                   22013371.0004
                                                                        49.2504
        34.2504
    785941.84847    616090.37944
                  24184498.7034                                   24184495.0124
                                                                        42.2504
        25.5004
    873914.52047    686574.39544
                  23139672.5084                                   23139669.1994
                                                                        43.7504
        27.5004
 09 10 16 23 20 30.0000000  0  9G02G04G10G12G13G29G23G31G30
  -1190980.71948   -911900.28947
                  20672460.1094                                   20672454.3164
                                                                        51.5004
        42.2504
    674884.98848    532417.87146
                  21064571.0944                                   21064567.5824
                                                                        51.5004
        40.5004
  -2649714.80147  -2049206.39544
                  23701384.2114                                   23701380.9844
                                                                        43.5004
        28.2504
   1670710.92647   1302094.16444
                  24518208.2814                                   24518204.2464
                                                                        42.2504
        24.7504
  -1635959.04348  -1253771.02345
                  21674199.0004                                   21674194.6374
                                                                        50.0004
        35.7504
  -2259641.65246  -1746567.84844
                  23921330.8524                                   23921327.4414
                                                                        41.5004
        26.5004
    177934.97348    148494.37145
                  22003120.6644                                   22003114.0084
                                                                        48.7504
        34.5004
    754990.91047    591972.68844
                  24178608.6024                                   24178604.5124
                                                                        42.0004
        25.0004
    850617.16847    668420.50044
                  23135239.0554                                   23135235.9614
                                                                        43.2504
        27.2504
 09 10 16 23 21  0.0000000  0  9G02G04G10G12G13G29G23G31G30
  -1308062.27748  -1003132.69147
                  20650180.6094                                   20650174.3204
                                                                        51.5004
        42.5004
    643611.21948    508048.70346
                  21058619.9304                                   21058616.3524
                                                                        52.2504
        40.7504
  -2849935.85547  -2205222.75044
                  23663283.5554                                   23663280.6094
                                                                        42.5004
        28.7504
   1682875.01647   1311572.67644
                  24520522.9774                                   24520518.6844
                                                                        42.0004
        25.0004
  -1773059.61348  -1360602.63345
                  21648109.4454                                   21648104.7544
                                                                        50.7504
        34.5004
  -2439603.71947  -1886798.01244
                  23887085.4614                                   23887082.6094
                                                                        42.5004
        28.2504
    124931.12548    107192.64545
                  21993034.0004                                   21993027.4924
                                                                        49.0004
        35.0004
    724833.30146    568473.18444
                  24172869.9224                                   24172865.7034
                                                                        41.5004
        24.5004
    828161.06347    650922.26644
                  23130966.3834                                   23130962.6214
                                                                        44.0004
        26.5004
 09 10 16 23 21 30.0000000  0  9G02G04G10G12G13G29G23G31G30
  -1424327.29748  -1093728.89547
                  20628055.9144                                   20628050.0704
                                                                        51.5004
        42.2504
    613104.61748    484277.32446
                  21052814.9304                                   21052811.6884
                                                                        51.7504
        41.0004
  -3049691.64147  -2360876.57844
                  23625271.0004                                   23625267.9654
                                                                        42.5004
        26.7504
   1695568.46946   1321463.64144
                  24522938.6254                                   24522934.3674
                                                                        41.5004
        26.5004
  -1909283.21948  -1466750.86745
                  21622186.9224                                   21622182.3524
                                                                        50.2504
        35.2504
  -2618986.73447  -2026577.03944
                  23852950.0634                                   23852947.2034
                                                                        42.7504
        29.0004
     72806.84848     66576.32445
                  21983115.5004                                   21983108.7194
                                                                        48.7504
        33.5004
    695451.22747    545578.02344
                  24167278.9694                                   24167274.6484
                                                                        42.2504
        25.0004
    806527.15647    634064.65644
                  23126849.2734                                   23126845.7774
                                                                        44.2504
        27.0004
 09 10 16 23 22  0.0000000  0  9G02G04G10G12G13G29G23G31G30
  -1539786.39148  -1183697.24647
                  20606085.0234                                   20606079.2304
                                                                        51.0004
        42.7504
    583352.19548    461093.59846
                  21047153.3364                                   21047149.4494
                                                                        51.7504
        41.2504
  -3248991.20747  -2516174.89544
                  23587345.3674                                   23587341.8874
                                                                        42.0004
        27.5004
   1708777.37546   1331756.25444
                  24525452.0164                                   24525448.3404
                                                                        40.0004
        26.0004
  -2044639.81648  -1572223.53545
                  21596429.8674                                   21596424.7664
                                                                        51.0004
        35.5004
  -2797799.65647  -2165911.85545
                  23818922.9144                                   23818920.2114
                                                                        43.0004
        30.0004
     21549.22348     26635.30545
                  21973361.2114                                   21973354.6724
                                                                        49.2504
        34.5004
    666831.21846    523276.67744
                  24161833.0164                                   24161828.6454
                                                                        40.5004
        25.7504
    785701.56647    617836.93844
                  23122886.6414                                   23122883.4344
                                                                        45.5004
        28.0004
 09 10 16 23 22 30.0000000  0  9G02G04G10G12G13G29G23G31G30
  -1654448.26648  -1273044.08647
                  20584265.5704                                   20584259.4734
                                                                        52.0004
        42.2504
    554341.59448    438487.92646
                  21041632.5634                                   21041629.2664
                                                                        52.2504
        40.7504
  -3447842.95347  -2671124.26244
                  23549505.6954                                   23549501.7464
                                                                        43.5004
        27.7504
   1722487.84846   1342439.71944
                  24528061.2814                                   24528057.6804
                                                                        41.2504
        27.0004
  -2179138.88748  -1677028.01645
                  21570835.2194                                   21570830.8244
                                                                        50.2504
        35.5004
  -2976050.52347  -2304808.66044
                  23785002.9304                                   23784999.8524
                                                                        43.5004
        27.0004
    -28853.93448    -12639.85945
                  21963769.5634                                   21963763.1334
                                                                        48.7504
        34.0004
    638960.47746    501559.19543
                  24156528.9534                                   24156524.5234
                                                                        40.5004
        22.5004
    765671.00047    602228.78944
                  23119074.7734                                   23119071.8524
                                                                        46.0004
        27.5004
 09 10 16 23 23  0.0000000  0  8G02G04G10G13G29G23G31G30
  -1768329.10248  -1361782.35547
                  20562594.6644                                   20562588.7344
                                                                        51.7504
        42.2504
    526054.53548    416446.05546
                  21036250.0314                                   21036246.3444
                                                                        52.7504
        40.5004
  -3646262.01247  -2825736.51644
                  23511747.8914                                   23511743.7974
                                                                        44.7504
        27.0004
  -2312794.48048  -1781175.22346
                  21545401.2584                                   21545396.7544
                                                                        50.2504
        36.0004
  -3153753.51647  -2443278.43044
                  23751186.8754                                   23751184.1994
                                                                        42.0004
        28.7504
    -78420.44948    -51263.10545
                  21954337.8754                                   21954331.1644
                                                                        49.2504
        33.7504
    611819.98446    480410.72343
                  24151364.6564                                   24151359.8094
                                                                        40.7504
        22.5004
    746415.92647    587224.89844
                  23115410.6414                                   23115407.5904
                                                                        46.0004
        28.0004
 09 10 16 23 23 30.0000000  0  8G02G04G10G13G29G23G31G30
  -1881435.03548  -1449916.85947
                  20541071.2034                                   20541065.3244
                                                                        52.0004
        42.5004
    498482.36748    394961.25046
                  21031002.8524                                   21030999.2814
                                                                        52.2504
        40.5004
  -3844253.21147  -2980015.38344
                  23474071.3754                                   23474067.8404
                                                                        44.2504
        28.5004
  -2445612.37148  -1884669.66846
                  21520126.9454                                   21520122.6644
                                                                        49.5004
        36.2504
  -3330913.82847  -2581325.36344
                  23717474.6414                                   23717471.6884
                                                                        43.5004
        27.7504
   -127158.96548    -89241.16045
                  21945063.0864                                   21945056.7934
                                                                        49.0004
        34.2504
    585400.56346    459824.15244
                  24146336.7274                                   24146332.5554
                                                                        40.5004
        24.5004
    727926.83247    572817.86744
                  23111892.6094                                   23111889.2464
                                                                        46.0004
        28.2504
 09 10 16 23 24  0.0000000  0  8G02G04G10G13G29G23G31G30
  -1993771.64548  -1537451.85947
                  20519694.4064                                   20519688.3444
                                                                        51.2504
        42.7504
    471616.78948    374027.00446
                  21025890.5784                                   21025887.1724
                                                                        52.0004
        40.2504
  -4041820.84047  -3133964.14844
                  23436475.3204                                   23436471.9774
                                                                        43.0004
        29.0004
  -2577597.83648  -1987515.48446
                  21495011.0004                                   21495006.3204
                                                                        49.7504
        36.0004
  -3507535.53947  -2718952.59444
                  23683864.5004                                   23683861.0944
                                                                        44.0004
        27.2504
   -175077.31648   -126580.11745
                  21935944.4924                                   21935938.4694
                                                                        48.5004
        34.7504
    559693.09846    439792.27344
                  24141444.9384                                   24141440.5944
                                                                        40.7504
        25.5004
    710194.21147    559000.23444
                  23108517.8754                                   23108514.6414
                                                                        45.2504
        29.2504
 09 10 16 23 24 30.0000000  0  8G02G04G10G13G29G23G31G30
  -2105343.04748  -1624390.60247
                  20498463.0704                                   20498456.8634
                                                                        52.2504
        42.5004
    445450.93448    353638.01646
                  21020911.6644                                   21020908.4344
                                                                        52.5004
        40.2504
  -4238968.04747  -3287585.26244
                  23398959.0944                                   23398955.9614
                                                                        43.0004
        28.7504
  -2708754.66848  -2089715.63745
                  21470052.7814                                   21470048.0784
                                                                        50.5004
        35.5004
  -3683621.25447  -2856162.18444
                  23650356.5164                                   23650352.7774
                                                                        45.0004
        28.5004
   -222182.43048   -163285.39145
                  21926980.8914                                   21926974.6024
                                                                        49.2504
        35.0004
    534690.75847    420309.89544
                  24136687.0554                                   24136682.8594
                                                                        42.7504
        25.2504
    693209.62547    545765.45744
                  23105286.0164                                   23105282.4144
                                                                        45.0004
        28.2504
 09 10 16 23 25  0.0000000  0  8G02G04G10G13G29G23G31G30
  -2216160.77048  -1710742.00447
                  20477375.0084                                   20477368.8364
                                                                        52.2504
        42.7504
    419970.98448    333783.47346
                  21016062.9304                                   21016059.4184
                                                                        52.0004
        41.0004
  -4435705.25047  -3440886.92644
                  23361521.4774                                   23361518.5704
                                                                        44.0004
        29.7504
  -2839093.13348  -2191278.07446
                  21445250.1334                                   21445245.4774
                                                                        50.7504
        36.0004
  -3859180.63747  -2992961.65244
                  23616948.7894                                   23616945.1884
                                                                        44.7504
        27.7504
   -268487.74248   -199367.44945
                  21918168.8134                                   21918163.0394
                                                                        49.0004
        34.7504
    510378.80946    401365.49244
                  24132061.6484                                   24132056.7664
                                                                        41.5004
        27.5004
    676958.67247    533102.32844
                  23102193.7664                                   23102190.0824
                                                                        45.2504
        28.0004
 09 10 16 23 25 30.0000000  0  9G02G04G10G05G13G29G23G31G30
  -2326234.58648  -1796513.92647
                  20456429.2344                                   20456423.1054
                                                                        52.0004
        42.7504
    395164.65248    314453.83246
                  21011342.4224                                   21011338.7034
                                                                        51.5004
        40.0004
  -4632040.44947  -3593875.39144
                  23324160.5784                                   23324156.3794
                                                                        44.0004
        29.5004
   1286125.50856   1043396.70754
                  24220026.8594                                   24220023.7154
                                                                        40.7504
        27.5004
  -2968622.29348  -2292209.89145
                  21420601.3914                                   21420596.9414
                                                                        50.7504
        35.5004
  -4034222.13347  -3129357.63344
                  23583639.6564                                   23583636.1884
                                                                        44.5004
        28.0004
   -314005.56248   -234835.88745
                  21909507.6024                                   21909501.0704
                                                                        49.2504
        34.5004
    486744.66046    382949.25044
                  24127563.8674                                   24127559.5514
                                                                        41.0004
        27.5004
