     2.11           OBSERVATION DATA    G (GPS)             RINEX VERSION / TYPE
teqc  2019Feb25                         20221121 12:28:28UTCPGM / RUN BY / DATE
OSX ker:10.11.6|Core i5|gcc 4.3 -m64|OSX ker:10.10+|=+      COMMENT
BIT 2 OF LLI FLAGS DATA COLLECTED UNDER A/S CONDITION       COMMENT
04712901                                                    MARKER NAME
2901                                                        MARKER NUMBER
-Unknown-           -Unknown-                               OBSERVER / AGENCY
0220400471          TRIMBLE R7          2.30                REC # / TYPE / VERS
-Unknown-           TRM39105.00     NONE                    ANT # / TYPE
  1449460.3091 -1709241.7936  5952442.7495                  APPROX POSITION XYZ
        0.0000        0.0000        0.0000                  ANTENNA: DELTA H/E/N
     1     1                                                WAVELENGTH FACT L1/2
    20    L1    L2    L5    L6    L7    L8    C1    P1    C2# / TYPES OF OBSERV
          P2    C5    C6    C7    C8    S1    S2    S5    S6# / TYPES OF OBSERV
          S7    S8                                          # / TYPES OF OBSERV
    30.0000                                                 INTERVAL
    15                                                      LEAP SECONDS
Forced Modulo Decimation to 30 seconds                      COMMENT
 SNR is mapped to RINEX snr flag value [0-9]                COMMENT
  L1 & L2: min(max(int(snr_dBHz/6), 0), 9)                  COMMENT
teqc edited: Beidou # 1 - 37 excluded                       COMMENT
  2009    10    17    23    10   30.0000000     GPS         TIME OF FIRST OBS
                                                            END OF HEADER
 09 10 17 23 10 30.0000000  0  7G02G04G12G13G23G30G31
   -207035.99258   -139578.64557
                  20838918.8914                                   20838912.5044
                                                                        50.5004
        42.2504
    -75318.77058    -50031.02356
                  21038765.1724                                   21038761.3834
                                                                        51.0004
        41.7504
     -5098.77357     -3767.74654
                  24391923.6644                                   24391919.3244
                                                                        42.0004
        25.2504
   -238460.75058   -155922.48855
                  21885321.7894                                   21885317.1334
                                                                        49.5004
        34.5004
   -111187.11758    -72987.48055
                  22024492.2974                                   22024485.6024
                                                                        48.5004
        35.0004
    -60161.62157    -35634.44154
                  23088354.1334                                   23088351.0394
                                                                        44.5004
        28.2504
    -72942.41456    -42710.99654
                  24149962.4144                                   24149957.4064
                                                                        40.2504
        26.0004
 09 10 17 23 11  0.0000000  0  9G02G04G10G12G13G23G29G30G31
   -344603.68448   -246774.17647
                  20812740.7584                                   20812734.5784
                                                                        51.0004
        42.7504
   -126522.20748    -89929.79346
                  21029021.5474                                   21029017.4844
                                                                        51.7504
        41.0004
   -279780.70357   -196686.71954
                  23994793.4844                                   23994789.4614
                                                                        42.7504
        24.7504
    -10219.18447     -7757.64544
                  24390949.8364                                   24390945.1174
                                                                        43.7504
        27.0004
   -396625.53548   -279167.79345
                  21855224.1334                                   21855219.2774
                                                                        49.5004
        34.7504
   -185631.30948   -130995.93745
                  22010325.9454                                   22010319.3634
                                                                        48.7504
        34.5004
   -254004.78556   -151794.62554
                  24184076.5864                                   24184072.3364
                                                                        41.7504
        26.7504
   -103365.59047    -69299.82844
                  23080132.9614                                   23080129.5234
                                                                        45.5004
        28.7504
   -123179.71946    -81856.94944
                  24140402.5944                                   24140398.0004
                                                                        40.0004
        26.2504
 09 10 17 23 11 30.0000000  0  9G02G04G10G12G13G23G29G30G31
   -481608.41048   -353531.10247
                  20786669.7584                                   20786662.8244
                                                                        50.5004
        42.0004
   -177180.73448   -129403.98046
                  21019381.7274                                   21019377.7854
                                                                        51.5004
        41.2504
   -495912.30147   -365100.98044
                  23953665.3674                                   23953661.4414
                                                                        42.0004
        25.5004
    -15014.56247    -11494.31244
                  24390037.5944                                   24390032.6524
                                                                        43.5004
        27.0004
   -554174.61748   -401933.35545
                  21825243.5164                                   21825238.3674
                                                                        49.2504
        34.7504
   -259421.57448   -188494.84845
                  21996284.2974                                   21996277.2624
                                                                        48.7504
        35.0004
   -451139.89547   -305406.42244
                  24146562.6334                                   24146558.4184
                                                                        42.2504
        25.7504
   -145957.73447   -102488.46544
                  23072028.0704                                   23072025.1134
                                                                        43.7504
        28.5004
   -172858.04746   -120567.36344
                  24130949.3834                                   24130943.9844
                                                                        40.5004
        25.7504
 09 10 17 23 12  0.0000000  0  9G02G04G10G12G13G23G29G30G31
   -617826.86348   -459675.35547
                  20760747.7734                                   20760741.5824
                                                                        50.7504
        42.2504
   -227074.02748   -168281.90646
                  21009887.3914                                   21009883.4224
                                                                        51.5004
        40.7504
   -711617.96147   -533183.35244
                  23912617.4454                                   23912613.6024
                                                                        43.0004
        27.0004
    -19265.74247    -14806.96544
                  24389228.6484                                   24389224.2194
                                                                        44.2504
        29.5004
   -710884.59848   -524045.03945
                  21795423.0004                                   21795417.5084
                                                                        49.5004
        33.7504
   -332337.30148   -245312.30145
                  21982408.6094                                   21982401.9734
                                                                        49.2504
        34.7504
   -647739.34046   -458600.84844
                  24109150.4614                                   24109146.1054
                                                                        41.5004
        24.5004
   -187718.30147   -135029.12544
                  23064080.9064                                   23064077.7424
                                                                        45.2504
        28.7504
   -221757.37547   -158670.74644
                  24121643.1094                                   24121639.0474
                                                                        42.0004
        26.7504
 09 10 17 23 12 30.0000000  0  9G02G04G10G12G13G23G29G30G31
   -753174.15648   -565140.79747
                  20734992.0784                                   20734985.8444
                                                                        50.5004
        42.5004
   -276119.48848   -206499.12546
                  21000554.2194                                   21000549.9774
                                                                        50.7504
        41.0004
   -926811.50047   -700866.63344
                  23871667.3594                                   23871664.4734
                                                                        43.2504
        27.5004
    -22891.52747    -17632.31244
                  24388538.6174                                   24388534.3714
                                                                        44.0004
        29.0004
   -866669.33248   -645435.74245
                  21765777.6414                                   21765772.9964
                                                                        49.0004
        34.5004
   -404295.52748   -301383.65245
                  21968715.5704                                   21968709.0474
                                                                        49.2504
        35.0004
   -843716.85946   -611310.62944
                  24071857.5314                                   24071853.9144
                                                                        40.0004
        26.2504
   -228565.76647   -166858.27044
                  23056308.1484                                   23056304.6804
                                                                        45.5004
        29.7504
   -269795.99247   -196103.43744
                  24112501.9304                                   24112497.8834
                                                                        43.0004
        27.7504
 09 10 17 23 13  0.0000000  0  9G02G04G10G12G13G23G29G30G31
   -887611.82048   -669897.43747
                  20709409.5314                                   20709403.0474
                                                                        51.0004
        42.2504
   -324281.64548   -244028.08246
                  20991389.0864                                   20991385.7584
                                                                        51.2504
        40.7504
  -1141454.09847   -868120.65244
                  23830822.7584                                   23830819.1524
                                                                        44.7504
        29.0004
    -25858.65247    -19944.37544
                  24387973.7664                                   24387969.8284
                                                                        43.2504
        27.7504
  -1021490.03148   -766075.21945
                  21736316.3674                                   21736311.6844
                                                                        50.0004
        34.7504
   -475260.24248   -356680.82845
                  21955211.4304                                   21955204.6524
                                                                        49.7504
        34.7504
  -1039033.98046   -763505.73844
                  24034689.6484                                   24034686.8014
                                                                        39.7504
        26.5004
   -268466.00847   -197949.35944
                  23048715.0864                                   23048712.2854
                                                                        45.2504
        29.2504
   -316938.94147   -232838.19544
                  24103531.9224                                   24103527.0394
                                                                        42.7504
        27.5004
 09 10 17 23 13 30.0000000  0  9G02G04G10G12G13G23G29G30G31
  -1021123.09848   -773932.17647
                  20684003.0474                                   20683996.4534
                                                                        50.5004
        42.2504
   -371546.81248   -280858.07446
                  20982394.9304                                   20982390.9264
                                                                        51.5004
        40.7504
  -1355527.76647  -1034931.30144
                  23790085.3134                                   23790082.4064
                                                                        43.7504
        27.7504
    -28154.35247    -21733.26644
                  24387536.8674                                   24387533.1954
                                                                        42.5004
        28.0004
  -1175329.58248   -885950.19945
                  21707041.5474                                   21707037.0744
                                                                        49.5004
        35.5004
   -545217.86348   -411193.26645
                  21941898.7894                                   21941891.6454
                                                                        49.5004
        34.7504
  -1233672.08246   -915171.75844
                  23997651.7194                                   23997647.9344
                                                                        40.7504
        26.5004
   -307405.60247   -228291.84044
                  23041305.1804                                   23041302.0044
                                                                        47.0004
        29.2504
   -363172.96947   -268864.71144
                  24094733.5864                                   24094728.6684
                                                                        42.5004
        27.5004
 09 10 17 23 14  0.0000000  0  9G02G04G10G12G13G23G29G30G31
  -1153708.46548   -877245.51647
                  20658772.8134                                   20658766.4844
                                                                        50.7504
        42.5004
   -417917.38348   -316991.03146
                  20973570.8834                                   20973566.6484
                                                                        51.5004
        41.0004
  -1569031.62547  -1201297.91044
                  23749456.9144                                   23749453.6294
                                                                        43.0004
        26.5004
    -29782.66846    -23002.15644
                  24387226.6804                                   24387223.3984
                                                                        41.5004
        26.2504
  -1328186.88748  -1005059.77346
                  21677953.9224                                   21677949.1804
                                                                        49.5004
        36.0004
   -614169.82048   -464922.05945
                  21928777.8204                                   21928770.5634
                                                                        49.7504
        34.2504
  -1427629.73847  -1066307.58644
                  23960742.6804                                   23960738.6644
                                                                        42.0004
        28.7504
   -345388.17647   -257888.66444
                  23034077.2504                                   23034074.3204
                                                                        45.0004
        29.5004
   -408500.33646   -304184.75044
                  24086108.2814                                   24086102.9654
                                                                        40.5004
        27.7504
 09 10 17 23 14 30.0000000  0  9G02G04G10G12G13G23G29G30G31
  -1285379.37948   -979846.25047
                  20633716.8444                                   20633710.8834
                                                                        50.5004
        42.2504
   -463407.36348   -352437.79346
                  20964914.5784                                   20964910.6524
                                                                        50.7504
        40.5004
  -1781976.56247  -1367229.07444
                  23708934.6094                                   23708931.6174
                                                                        43.2504
        27.5004
    -30759.74647    -23763.59444
                  24387040.8754                                   24387037.5474
                                                                        43.0004
        27.0004
  -1480072.87548  -1123412.50845
                  21649051.2424                                   21649046.0124
                                                                        50.5004
        35.5004
   -682130.13748   -517878.15645
                  21915845.2114                                   21915838.0664
                                                                        49.0004
        34.0004
  -1620917.38746  -1216921.32844
                  23923962.0554                                   23923957.3364
                                                                        41.2504
        29.7504
   -382429.00847   -286751.66044
                  23027028.9224                                   23027025.2704
                                                                        45.0004
        29.0004
   -452936.10947   -338810.04744
                  24077651.4694                                   24077647.0594
                                                                        42.2504
        27.0004
 09 10 17 23 15  0.0000000  0  9G02G04G10G12G13G23G29G30G31
  -1416144.52048  -1081741.16047
                  20608833.2114                                   20608826.8444
                                                                        51.5004
        42.5004
   -508028.69148   -387207.66046
                  20956423.2814                                   20956419.5824
                                                                        51.0004
        41.0004
  -1994370.56246  -1532730.89844
                  23668517.6484                                   23668514.2544
                                                                        41.2504
        24.5004
    -31098.69147    -24027.70744
                  24386976.4534                                   24386972.4414
                                                                        44.5004
        26.0004
  -1630996.20748  -1241015.14545
                  21620330.9304                                   21620326.4264
                                                                        50.2504
        35.0004
   -749110.47748   -570070.62145
                  21903099.1254                                   21903092.6414
                                                                        49.0004
        34.7504
  -1813542.96947  -1367019.16844
                  23887305.3594                                   23887301.9414
                                                                        42.5004
        29.2504
   -418541.20747   -314891.09044
                  23020156.4614                                   23020153.5984
                                                                        45.0004
        28.5004
   -496492.63347   -372750.21544
                  24069363.5944                                   24069359.0944
                                                                        42.2504
        27.0004
 09 10 17 23 15 30.0000000  0  9G02G04G10G12G13G23G29G30G31
  -1546013.80548  -1182937.97347
                  20584119.7114                                   20584113.8164
                                                                        51.2504
        42.0004
   -551793.85248   -421310.41046
                  20948094.8914                                   20948091.3594
                                                                        51.5004
        41.0004
  -2206222.76647  -1697810.52044
                  23628203.7274                                   23628199.9144
                                                                        42.5004
        26.7504
    -30813.58247    -23805.49644
                  24387031.4774                                   24387026.6484
                                                                        45.7504
        28.2504
  -1780965.84448  -1357874.57845
                  21591793.1094                                   21591787.9844
                                                                        50.5004
        35.0004
   -815123.16048   -621509.07445
                  21890537.5554                                   21890530.6454
                                                                        49.2504
        33.7504
  -2005514.97346  -1516607.71544
                  23850774.6254                                   23850771.1484
                                                                        40.5004
        27.0004
   -453738.16047   -342317.29744
                  23013458.9144                                   23013455.8444
                                                                        45.2504
        28.5004
   -539182.94146   -406015.40244
                  24061239.7274                                   24061235.1094
                                                                        41.7504
        26.5004
 09 10 17 23 16  0.0000000  0  9G02G04G10G12G13G23G29G30G31
  -1674996.97748  -1283444.34447
                  20559575.2194                                   20559568.9924
                                                                        51.2504
        42.7504
   -594715.37548   -454755.78146
                  20939927.6884                                   20939923.7194
                                                                        51.0004
        41.0004
  -2417541.35946  -1862474.31244
                  23587990.7584                                   23587987.4924
                                                                        41.7504
        27.7504
    -29917.37147    -23107.14544
                  24387201.8674                                   24387197.3794
                                                                        44.2504
        26.2504
  -1929991.00848  -1473998.03145
                  21563434.3204                                   21563429.8164
                                                                        50.5004
        35.2504
   -880179.99648   -672202.71545
                  21878157.6174                                   21878150.9964
                                                                        48.7504
        34.0004
  -2196841.38746  -1665693.20344
                  23814366.2894                                   23814362.6174
                                                                        40.7504
        26.7504
   -488032.58247   -369040.22744
                  23006932.4844                                   23006929.4844
                                                                        44.2504
        27.7504
   -581019.26647   -438615.17244
                  24053278.7194                                   24053273.7154
                                                                        42.0004
        26.0004
 09 10 17 23 16 30.0000000  0  9G02G04G10G12G13G23G29G30G31
  -1803103.40248  -1383267.57047
                  20535197.2584                                   20535191.0984
                                                                        51.2504
        43.0004
   -636804.49648   -487552.50046
                  20931918.0234                                   20931914.5824
                                                                        51.5004
        41.0004
  -2628334.45747  -2026728.63744
                  23547878.6564                                   23547875.2664
                                                                        43.7504
        28.5004
    -28424.85947    -21944.17644
                  24387484.9224                                   24387480.7304
                                                                        42.7504
        25.2504
  -2078079.80948  -1589391.84445
                  21535254.0394                                   21535249.0554
                                                                        49.5004
        35.0004
   -944292.28148   -722160.34845
                  21865957.6644                                   21865950.9264
                                                                        48.0004
        34.2504
  -2387530.63746  -1814282.20344
                  23778079.4694                                   23778075.0004
                                                                        40.7504
        26.2504
   -521437.94547   -395070.45344
                  23000576.1954                                   23000572.8874
                                                                        43.2504
        28.2504
   -622014.69546   -470559.68044
                  24045477.4924                                   24045472.7034
                                                                        41.5004
        24.2504
 09 10 17 23 17  0.0000000  0  9G02G04G10G12G13G23G29G30G31
  -1930342.89848  -1482415.28547
                  20510984.4774                                   20510978.3204
                                                                        50.7504
        42.7504
   -678074.35248   -519710.82046
                  20924064.6564                                   20924060.8754
                                                                        51.0004
        41.0004
  -2838611.16447  -2190580.57044
                  23507863.9534                                   23507860.2664
                                                                        43.0004
        28.5004
    -26349.60947    -20327.19544
                  24387880.1564                                   24387876.1094
                                                                        42.2504
        26.5004
  -2225241.98848  -1704063.61746
                  21507249.6564                                   21507245.1884
                                                                        50.0004
        36.0004
  -1007472.48448   -771391.68045
                  21853934.8524                                   21853927.9184
                                                                        48.0004
        34.0004
  -2577591.12947  -1962381.28144
                  23741912.4384                                   23741907.9694
                                                                        42.0004
        27.2504
   -553967.69147   -420418.36744
                  22994385.7894                                   22994382.0434
                                                                        43.7504
        27.0004
   -662182.31646   -501859.13344
                  24037833.6254                                   24037828.2624
                                                                        41.0004
        24.5004
 09 10 17 23 17 30.0000000  0  9G02G04G10G12G13G23G29G30G31
  -2056720.68448  -1580891.50447
                  20486935.3984                                   20486929.3714
                                                                        51.5004
        42.5004
   -718532.50848   -551236.67646
                  20916365.5314                                   20916362.3914
                                                                        51.7504
        40.7504
  -3048376.02347  -2354033.68044
                  23467947.1564                                   23467943.9144
                                                                        43.0004
        29.2504
    -23700.57846    -18263.06644
                  24388384.5474                                   24388380.7974
                                                                        40.7504
        25.5004
  -2371481.84848  -1818016.69945
                  21479421.4844                                   21479416.5044
                                                                        50.5004
        35.5004
  -1069728.54348   -819902.89845
                  21842087.8054                                   21842080.8244
                                                                        48.5004
        33.5004
  -2767026.76247  -2109993.44544
                  23705864.1094                                   23705860.3984
                                                                        44.0004
        29.2504
   -585631.07847   -445091.18444
                  22988360.7034                                   22988356.8364
                                                                        44.2504
        28.0004
   -701529.89847   -532519.57444
                  24030346.2424                                   24030340.4534
                                                                        42.0004
        24.5004
 09 10 17 23 18  0.0000000  0  9G02G04G10G12G13G23G29G30G31
  -2182253.70748  -1678709.49647
                  20463047.3754                                   20463041.3094
                                                                        51.5004
        42.0004
   -758198.75048   -582145.43446
                  20908817.2584                                   20908813.7624
                                                                        51.0004
        41.2504
  -3257644.41447  -2517099.85244
                  23428124.1414                                   23428121.4694
                                                                        43.0004
        27.7504
    -20498.64146    -15768.14544
                  24388993.2504                                   24388990.4614
                                                                        40.2504
        26.2504
  -2516815.80548  -1931263.91845
                  21451764.8984                                   21451760.3984
                                                                        50.5004
        35.5004
  -1131079.75048   -867709.02745
                  21830413.1094                                   21830406.3754
                                                                        49.0004
        34.0004
  -2955852.66847  -2257130.48045
                  23669931.6804                                   23669927.9024
                                                                        43.2504
        30.2504
   -616447.95347   -469104.37944
                  22982496.5864                                   22982492.9654
                                                                        44.7504
        27.2504
   -740077.77046   -562556.87144
                  24023010.7974                                   24023005.4494
                                                                        41.5004
        24.0004
 09 10 17 23 18 30.0000000  0  8G02G04G10G13G23G29G30G31
   -731530.31648   -548275.71147
                  20739110.8524                                   20739104.5474
                                                                        51.5004
        42.7504
    778332.96148    615151.99246
                  21201209.8754                                   21201205.9774
                                                                        52.0004
        40.5004
  -1891001.13747  -1452182.98844
                  23688188.2974                                   23688185.0744
                                                                        43.2504
        27.7504
  -1085831.05948   -816210.84845
                  21724071.8984                                   21724067.4064
                                                                        50.2504
        35.0004
    383881.34848    312780.12145
                  22118700.5394                                   22118693.5744
                                                                        48.5004
        34.0004
  -1568654.25847  -1176196.62544
                  23933906.3444                                   23933903.1724
                                                                        42.2504
        29.5004
    928986.00447    735129.79744
                  23276583.3284                                   23276579.6334
                                                                        44.0004
        29.0004
    797579.25846    635617.41444
                  24315616.6024                                   24315611.8954
                                                                        40.7504
        24.5004
 09 10 17 23 19  0.0000000  0  8G02G04G10G13G23G29G30G31
   -855406.35548   -644802.50847
                  20715538.2274                                   20715531.7734
                                                                        51.7504
        42.5004
    740210.04748    585445.78546
                  21193955.2274                                   21193951.2974
                                                                        51.7504
        40.5004
  -2099306.83247  -1614499.06244
                  23648549.3984                                   23648545.2344
                                                                        43.7504
        28.2504
  -1229384.15248   -928070.38345
                  21696754.9694                                   21696750.3164
                                                                        50.5004
        35.5004
    324300.34048    266353.35945
                  22107362.3914                                   22107355.5704
                                                                        49.0004
        34.2504
  -1756290.29747  -1322406.47744
                  23898200.0164                                   23898197.3674
                                                                        42.2504
        27.7504
    899817.31647    712400.93044
                  23271032.6484                                   23271029.6174
                                                                        46.2504
        28.2504
    760588.21546    606793.19944
                  24308577.6884                                   24308572.5664
                                                                        41.7504
        25.5004
 09 10 17 23 19 30.0000000  0  8G02G04G10G13G23G29G30G31
   -978462.02048   -740690.06647
                  20692121.2974                                   20692115.2424
                                                                        51.7504
        42.7504
    702846.56348    556331.35546
                  21186845.1024                                   21186841.4614
                                                                        52.2504
        40.2504
  -2307137.38747  -1776444.93044
                  23609000.3284                                   23608996.2424
                                                                        44.5004
        27.5004
  -1372054.48848  -1039242.05545
                  21669605.8674                                   21669601.0634
                                                                        49.7504
        35.2504
    265592.33248    220606.86345
                  22096190.9694                                   22096184.1564
                                                                        49.2504
        34.5004
  -1943337.18447  -1468157.24644
                  23862606.2734                                   23862603.1134
                                                                        43.0004
        27.5004
    871459.57047    690303.96944
                  23265636.2894                                   23265633.1414
                                                                        46.0004
        28.0004
    724362.86746    578565.64844
                  24301684.5084                                   24301679.5944
                                                                        41.2504
        24.0004
 09 10 17 23 20  0.0000000  0  8G02G04G10G13G23G29G30G31
  -1100704.32048   -835943.82447
                  20668859.6484                                   20668853.1454
                                                                        51.7504
        43.0004
    666233.60948    527801.79346
                  21179877.8984                                   21179874.5124
                                                                        51.7504
        40.5004
  -2514498.54347  -1938025.05544
                  23569540.6484                                   23569537.1684
                                                                        45.2504
        28.2504
  -1513847.23448  -1149729.88745
                  21642623.2974                                   21642618.8094
                                                                        50.5004
        35.7504
    207748.77048    175533.94545
                  22085183.5474                                   22085176.9344
                                                                        48.7504
        34.2504
  -2129800.20747  -1613453.09044
                  23827123.4614                                   23827119.8134
                                                                        44.7504
        28.7504
    843901.91847    668830.45345
                  23260392.3524                                   23260388.6214
                                                                        46.2504
        30.0004
    688893.25447    550926.95744
                  24294935.0314                                   24294930.4844
                                                                        42.7504
        27.2504
 09 10 17 23 20 30.0000000  0  8G02G04G10G13G23G29G30G31
  -1222147.90248   -930575.17647
                  20645749.4304                                   20645743.3134
                                                                        52.0004
        43.0004
    630353.07048    499842.94146
                  21173050.0394                                   21173046.7974
                                                                        51.7504
        40.5004
  -2721404.48847  -2099250.44144
                  23530167.2664                                   23530164.1334
                                                                        44.0004
        29.7504
  -1654777.14148  -1259545.39545
                  21615804.9614                                   21615800.7664
                                                                        50.0004
        34.7504
    150751.91848    131120.82045
                  22074337.5784                                   22074330.8204
                                                                        49.2504
        34.0004
  -2315693.55547  -1758305.04744
                  23791749.4454                                   23791744.9694
                                                                        45.2504
        28.5004
    817125.31647    647965.59444
                  23255296.4924                                   23255293.2974
                                                                        45.0004
        27.7504
    654160.88747    523862.77344
                  24288325.7894                                   24288320.9574
                                                                        42.5004
        26.7504
 09 10 17 23 21  0.0000000  0  9G02G04G10G05G13G23G29G30G31
  -1342804.19148  -1024593.06247
                  20622789.7584                                   20622783.1684
                                                                        52.0004
        42.5004
    595191.14548    472444.05146
                  21166359.0554                                   21166354.8244
                                                                        52.2504
        40.7504
  -2927864.98047  -2260128.72744
                  23490879.2664                                   23490876.3554
                                                                        42.7504
        29.0004
   1305999.39856   1030655.87554
                  24394582.1484                                   24394579.9224
                                                                        39.5004
        28.2504
  -1794855.32448  -1368697.21145
                  21589149.3834                                   21589144.9344
                                                                        50.7504
        35.0004
     94587.83248     87356.59445
                  22063649.8444                                   22063643.3324
                                                                        48.7504
        35.2504
  -2501026.22347  -1902720.15244
                  23756482.1174                                   23756477.0664
                                                                        45.5004
        28.0004
    791115.73847    627698.41044
                  23250347.7664                                   23250344.3484
                                                                        45.2504
        28.7504
    620151.69147    497362.09844
                  24281854.0084                                   24281849.0474
                                                                        43.5004
        26.5004
 09 10 17 23 21 30.0000000  0  9G02G04G10G05G13G23G29G30G31
  -1462686.09048  -1118007.52747
                  20599976.4844                                   20599970.7464
                                                                        51.5004
        43.0004
    560732.23848    445592.93046
                  21159801.6254                                   21159798.2584
                                                                        51.7504
        40.5004
  -3133891.84847  -2420669.06244
                  23451673.7344                                   23451669.9844
                                                                        44.5004
        28.7504
   1098058.81346    868624.27744
                  24355012.7114                                   24355010.0274
                                                                        40.0004
        28.7504
  -1934093.74648  -1477194.65645
                  21562653.4144                                   21562648.9494
                                                                        50.7504
        35.7504
     39241.56348     44229.62945
                  22053117.9384                                   22053111.1054
                                                                        49.7504
        34.7504
  -2685810.02347  -2046707.53144
                  23721318.2894                                   23721314.4734
                                                                        44.2504
        27.7504
    765856.03947    608015.55944
                  23245540.5084                                   23245537.8164
                                                                        44.0004
        28.2504
    586849.85247    471412.60944
                  24275517.1724                                   24275512.4264
                                                                        43.0004
        28.7504
 09 10 17 23 22  0.0000000  0  9G02G04G10G05G13G23G29G30G31
  -1581809.93048  -1210831.28147
                  20577308.1804                                   20577302.2934
                                                                        51.7504
        43.0004
    526957.82848    419275.16846
                  21153374.3444                                   21153370.7504
                                                                        52.7504
        40.0004
  -3339500.41847  -2580883.48844
                  23412547.7894                                   23412543.7544
                                                                        44.2504
        29.2504
    890448.28946    706849.87944
                  24315506.5554                                   24315502.5704
                                                                        40.7504
        27.7504
  -2072507.91848  -1585049.82846
                  21536314.1644                                   21536309.3594
                                                                        51.0004
        36.0004
    -15305.63748      1725.30945
                  22042737.6334                                   22042731.6604
                                                                        48.7504
        34.0004
  -2870059.93047  -2190278.88344
                  23686256.8754                                   23686253.3594
                                                                        44.0004
        28.7504
    741326.19147    588901.40644
                  23240871.2344                                   23240869.4384
                                                                        44.0004
        27.2504
    554235.66847    445998.96544
                  24269310.5314                                   24269305.7854
                                                                        42.7504
        27.5004
 09 10 17 23 22 30.0000000  0  9G02G04G10G05G13G23G29G30G31
  -1700184.78548  -1303071.41447
                  20554782.1334                                   20554776.0944
                                                                        52.2504
        42.5004
    493856.19548    393481.71146
                  21147075.6484                                   21147071.9694
                                                                        52.0004
        40.0004
  -3544698.29347  -2740777.91844
                  23373500.3054                                   23373496.2034
                                                                        44.0004
        29.5004
    683159.65647    545326.26244
                  24276060.9144                                   24276056.9804
                                                                        43.0004
        28.0004
  -2210106.83648  -1692269.76245
                  21510129.8674                                   21510125.2544
                                                                        51.0004
        35.5004
    -69065.14148    -40165.22745
                  22032507.6564                                   22032500.9224
                                                                        48.7504
        33.5004
  -3053783.47347  -2333440.07044
                  23651295.2194                                   23651292.1094
                                                                        44.5004
        29.7504
    717513.39547    570345.94944
                  23236340.5084                                   23236337.6374
                                                                        43.5004
        27.5004
    522296.59446    421111.36344
                  24263232.9064                                   24263227.9104
                                                                        40.2504
        26.0004
 09 10 17 23 23  0.0000000  0  9G02G04G10G05G13G23G29G30G31
  -1817814.92248  -1394731.25047
                  20532397.6724                                   20532391.8324
                                                                        51.7504
        42.7504
    461419.89148    368206.68446
                  21140903.1564                                   21140899.2194
                                                                        52.0004
        40.7504
  -3749489.05947  -2900355.12545
                  23334529.9144                                   23334525.6644
                                                                        42.7504
        30.0004
    476189.43847    384050.75844
                  24236675.4774                                   24236671.5514
                                                                        45.2504
        28.0004
  -2346894.37148  -1798857.43045
                  21484099.6254                                   21484095.2464
                                                                        51.2504
        35.7504
   -122044.64848    -81447.96545
                  22022425.8134                                   22022419.4884
                                                                        48.5004
        33.2504
  -3236983.19547  -2476193.06645
                  23616433.4614                                   23616430.4064
                                                                        45.0004
        30.2504
    694409.96547    552343.24644
                  23231944.2504                                   23231940.9774
                                                                        44.2504
        26.0004
    491025.40646    396744.18044
                  24257281.4694                                   24257277.4144
                                                                        37.7504
        25.5004
 09 10 17 23 23 30.0000000  0  9G02G04G10G05G13G23G29G30G31
  -1934698.90248  -1485809.66847
                  20510155.3284                                   20510149.2304
                                                                        52.0004
        43.2504
    429648.01248    343449.37146
                  21134857.3054                                   21134853.1884
                                                                        52.5004
        40.2504
  -3953869.90646  -3059612.97744
                  23295636.6254                                   23295633.3714
                                                                        41.2504
        28.0004
    269539.99547    223025.17744
                  24197351.2274                                   24197347.3634
                                                                        43.0004
        27.2504
  -2482868.64148  -1904811.40246
                  21458224.5944                                   21458220.1374
                                                                        50.5004
        36.0004
   -174244.35548   -122123.05945
                  22012492.3834                                   22012485.7774
                                                                        48.5004
        33.5004
  -3419656.42247  -2618535.86745
                  23581672.0084                                   23581668.6644
                                                                        44.0004
        31.0004
    672013.23047    534891.35244
                  23227682.7424                                   23227679.0634
                                                                        44.7504
        26.2504
    460420.40646    372896.06344
                  24251456.6334                                   24251453.5234
                                                                        39.5004
        24.0004
 09 10 17 23 24  0.0000000  0  9G02G04G10G05G13G23G29G30G31
  -2050839.22348  -1576308.59447
                  20488054.4304                                   20488048.4924
                                                                        52.5004
        43.0004
    398535.37948    319205.74246
                  21128936.7344                                   21128933.3554
                                                                        52.0004
        40.0004
  -4157841.80546  -3218552.05944
                  23256821.9694                                   23256819.3634
                                                                        41.0004
        29.5004
     63209.68047     62248.27044
                  24158088.3054                                   24158084.6174
                                                                        42.5004
        28.0004
  -2618031.01248  -2010132.71546
                  21432504.5634                                   21432499.6254
                                                                        51.0004
        36.0004
   -225669.49648   -162194.59045
                  22002706.5864                                   22002699.8594
                                                                        49.5004
        33.0004
  -3601804.18047  -2760469.18745
                  23547010.7734                                   23547006.6484
                                                                        44.5004
        30.5004
    650316.85247    517985.10544
                  23223554.1644                                   23223550.1994
                                                                        45.0004
        26.5004
    430475.73046    349562.52343
                  24245759.6884                                   24245754.8634
                                                                        40.2504
        22.7504
 09 10 17 23 24 30.0000000  0  9G02G04G10G05G13G23G29G30G31
  -2166243.97748  -1666234.35547
                  20466094.0314                                   20466087.5204
                                                                        52.2504
        42.7504
    368071.34848    295467.53546
                  21123139.5864                                   21123135.6024
                                                                        52.0004
        40.5004
  -4361411.69947  -3377177.88745
                  23218084.1024                                   23218080.6294
                                                                        43.0004
        30.7504
   -142808.37147    -98285.24644
                  24118883.7344                                   24118880.5084
                                                                        42.0004
        27.7504
  -2752389.04748  -2114827.26646
                  21406936.6724                                   21406932.2814
                                                                        51.0004
        36.2504
   -276330.57448   -201670.76645
                  21993066.0784                                   21993059.6294
                                                                        48.5004
        33.5004
  -3783432.89147  -2901998.08644
                  23512448.0944                                   23512443.4304
                                                                        44.5004
        29.2504
    629309.31347    501615.58644
                  23219556.1644                                   23219552.8364
                                                                        44.2504
        26.7504
    401180.53146    326735.09443
                  24240184.9304                                   24240180.0474
                                                                        41.2504
        23.7504
 09 10 17 23 25  0.0000000  0  9G02G04G10G05G13G23G29G30G31
  -2280918.07448  -1755590.76647
                  20444272.2974                                   20444265.9224
                                                                        52.5004
        42.5004
    338248.89148    272229.25446
                  21117464.6564                                   21117460.6454
                                                                        51.7504
        40.0004
  -4564582.94947  -3535493.11745
                  23179422.0314                                   23179418.8404
                                                                        44.2504
        31.5004
   -348518.06246   -258578.44144
                  24079739.1024                                   24079735.5554
                                                                        41.2504
        28.7504
  -2885946.98048  -2218898.37945
                  21381521.6094                                   21381516.9224
                                                                        50.7504
        35.7504
   -326234.59848   -240557.04745
                  21983569.4534                                   21983563.2194
                                                                        49.2504
        33.0004
  -3964546.22747  -3043125.37944
                  23477982.8444                                   23477979.1684
                                                                        44.2504
        29.2504
    608981.50847    485775.77344
                  23215687.8834                                   23215684.8364
                                                                        44.2504
        26.2504
    372526.08647    304406.96143
                  24234732.5474                                   24234727.3794
                                                                        42.5004
        22.5004
 09 10 17 23 25 30.0000000  0  9G02G04G10G05G13G23G29G30G31
  -2394869.11348  -1844383.76647
                  20422587.9304                                   20422582.0394
                                                                        52.0004
        42.7504
    309057.37548    249482.64146
                  21111909.5084                                   21111905.6484
                                                                        51.7504
        40.2504
  -4767362.57447  -3693503.23844
                  23140834.2974                                   23140830.7814
                                                                        44.0004
        29.7504
   -553926.00046   -418636.53545
                  24040650.6884                                   24040647.7194
                                                                        41.0004
        30.5004
  -3018712.55948  -2322352.07046
                  21356257.0394                                   21356252.3484
                                                                        51.0004
        36.0004
   -375392.14148   -278861.62545
                  21974215.1484                                   21974208.7194
                                                                        49.2504
        33.5004
  -4145149.17247  -3183854.94944
                  23443615.4064                                   23443611.6994
                                                                        43.5004
        28.5004
