     2.11           OBSERVATION DATA    G (GPS)             RINEX VERSION / TYPE
teqc  2019Feb25                         20221121 12:28:38UTCPGM / RUN BY / DATE
OSX ker:10.11.6|Core i5|gcc 4.3 -m64|OSX ker:10.10+|=+      COMMENT
BIT 2 OF LLI FLAGS DATA COLLECTED UNDER A/S CONDITION       COMMENT
04712951                                                    MARKER NAME
2951                                                        MARKER NUMBER
-Unknown-           -Unknown-                               OBSERVER / AGENCY
0220400471          TRIMBLE R7          2.30                REC # / TYPE / VERS
-Unknown-           TRM39105.00     NONE                    ANT # / TYPE
  1449459.8288 -1709241.9848  5952442.0424                  APPROX POSITION XYZ
        0.0000        0.0000        0.0000                  ANTENNA: DELTA H/E/N
     1     1                                                WAVELENGTH FACT L1/2
    20    L1    L2    L5    L6    L7    L8    C1    P1    C2# / TYPES OF OBSERV
          P2    C5    C6    C7    C8    S1    S2    S5    S6# / TYPES OF OBSERV
          S7    S8                                          # / TYPES OF OBSERV
    30.0000                                                 INTERVAL
    15                                                      LEAP SECONDS
Forced Modulo Decimation to 30 seconds                      COMMENT
 SNR is mapped to RINEX snr flag value [0-9]                COMMENT
  L1 & L2: min(max(int(snr_dBHz/6), 0), 9)                  COMMENT
teqc edited: Beidou # 1 - 37 excluded                       COMMENT
  2009    10    22    23    11    0.0000000     GPS         TIME OF FIRST OBS
                                                            END OF HEADER
 09 10 22 23 11  0.0000000  0  9G02G04G05G10G13G23G29G30G31
   -190472.43058   -109254.90657
                  20531764.0784                                   20531757.5824
                                                                        52.5004
        43.7504
    -42115.22758    -25704.97356
                  21425468.2424                                   21425464.1094
                                                                        52.0004
        39.5004
   -353488.95757   -203811.88755
                  23913809.4304                                   23913805.3834
                                                                        45.0004
        32.0004
   -351388.18057   -199572.48855
                  22985342.3594                                   22985338.5784
                                                                        44.0004
        30.0004
   -220406.54758   -129347.34856
                  21421663.4844                                   21421658.9534
                                                                        51.5004
        36.5004
    -76358.09457    -44616.45755
                  22219635.9384                                   22219628.7114
                                                                        47.7504
        32.7504
   -310694.52757   -176670.92255
                  23381238.6724                                   23381236.0164
                                                                        42.2504
        31.2504
    -25638.30557    -15706.84854
                  23532545.8984                                   23532542.1684
                                                                        43.0004
        28.0004
    -39617.34056    -21168.40253
                  24542042.6884                                   24542037.6644
                                                                        40.5004
        22.5004
 09 10 22 23 11 30.0000000  0  9G02G04G05G10G13G23G29G30G31
   -301598.48048   -195846.63747
                  20510617.3594                                   20510611.1024
                                                                        52.2504
        43.0004
    -69086.02748    -46721.18746
                  21420335.5164                                   21420332.3204
                                                                        51.7504
        39.2504
   -560969.51247   -365485.05145
                  23874326.9924                                   23874322.5864
                                                                        45.5004
        30.2504
   -554499.88347   -357841.29745
                  22946691.9694                                   22946687.4224
                                                                        45.5004
        31.5004
   -348947.80948   -229509.42646
                  21397202.8364                                   21397198.0744
                                                                        50.5004
        37.2504
   -122729.82448    -80750.37945
                  22210811.6484                                   22210805.1684
                                                                        49.2504
        32.2504
   -490495.16447   -316775.23445
                  23347023.3984                                   23347020.4804
                                                                        44.5004
        31.2504
    -43123.49647    -29331.66844
                  23529218.8834                                   23529214.9184
                                                                        43.5004
        26.0004
    -65612.45346    -41424.34043
                  24537095.3674                                   24537091.0124
                                                                        40.5004
        22.0004
 09 10 22 23 12  0.0000000  0  9G02G04G05G10G13G23G29G30G31
   -412842.43748   -282530.27747
                  20489448.1954                                   20489441.9144
                                                                        52.5004
        43.5004
    -96303.76248    -67929.81246
                  21415156.6094                                   21415152.5274
                                                                        50.7504
        39.0004
   -768970.99647   -527564.14145
                  23834745.7504                                   23834740.9264
                                                                        44.7504
        30.5004
   -758034.42247   -516439.62545
                  22907960.5944                                   22907956.0354
                                                                        46.0004
        32.7504
   -477530.79748   -329704.00046
                  21372734.6094                                   21372729.9654
                                                                        51.2504
        37.0004
   -169229.27348   -116983.85545
                  22201963.1174                                   22201956.6684
                                                                        48.2504
        32.5004
   -670601.65647   -457117.89145
                  23312750.4384                                   23312747.4614
                                                                        43.7504
        31.5004
    -60831.59447    -43130.20344
                  23525847.9454                                   23525845.2074
                                                                        43.5004
        26.0004
    -91863.06246    -61879.37943
                  24532099.8204                                   24532095.5944
                                                                        40.5004
        22.5004
 09 10 22 23 12 30.0000000  0  9G02G04G05G10G13G23G29G30G31
   -523953.22348   -369110.10247
                  20468304.5234                                   20468298.6844
                                                                        51.7504
        43.5004
   -123519.98848    -89137.27746
                  21409977.1884                                   21409972.9924
                                                                        51.2504
        40.0004
   -977241.48447   -689852.80544
                  23795112.9534                                   23795109.0084
                                                                        43.0004
        29.0004
   -961739.27747   -675170.69545
                  22869196.7894                                   22869192.5354
                                                                        45.5004
        32.7504
   -605904.25048   -429735.30546
                  21348305.8204                                   21348301.1134
                                                                        51.2504
        36.5004
   -215608.03948   -153123.27345
                  22193137.8054                                   22193131.2384
                                                                        48.0004
        33.0004
   -850761.11347   -597501.82045
                  23278468.0234                                   23278463.7154
                                                                        44.7504
        31.2504
    -78515.25847    -56909.66844
                  23522483.2114                                   23522480.5944
                                                                        42.2504
        26.7504
   -118121.12946    -82340.23444
                  24527103.1174                                   24527099.4964
                                                                        39.7504
        24.5004
 09 10 22 23 13  0.0000000  0  9G02G04G05G10G13G23G29G30G31
   -634790.64848   -455476.91447
                  20447213.0474                                   20447206.5234
                                                                        52.5004
        43.5004
   -150595.67248   -110235.21546
                  21404825.0004                                   21404820.8754
                                                                        50.5004
        39.5004
  -1185639.63347   -852240.98445
                  23755456.3364                                   23755451.4654
                                                                        44.0004
        30.7504
  -1165472.96147   -833924.19145
                  22830427.2894                                   22830423.7344
                                                                        45.0004
        34.0004
   -733925.99648   -529492.48846
                  21323943.9454                                   21323939.0984
                                                                        51.0004
        36.5004
   -261726.99648   -189060.18045
                  22184361.3834                                   22184354.9304
                                                                        48.5004
        33.2504
  -1030832.45347   -737817.12545
                  23244201.1024                                   23244197.7734
                                                                        44.7504
        32.5004
    -96038.71546    -70564.22344
                  23519148.5704                                   23519145.6524
                                                                        41.7504
        26.5004
   -144250.00446   -102700.40644
                  24522131.3364                                   24522127.6994
                                                                        38.7504
        24.0004
 09 10 22 23 13 30.0000000  0  9G02G04G05G10G13G23G29G30G31
   -745264.34848   -541560.31647
                  20426190.6884                                   20426184.1414
                                                                        52.0004
        43.5004
   -177444.45748   -131156.34846
                  21399715.6334                                   21399712.1844
                                                                        50.5004
        39.0004
  -1394073.23047  -1014656.79345
                  23715793.1644                                   23715788.8754
                                                                        44.5004
        32.5004
  -1369143.60247   -992628.55545
                  22791670.1334                                   22791666.7194
                                                                        44.7504
        34.0004
   -861506.75448   -628906.05146
                  21299666.5704                                   21299661.4064
                                                                        51.0004
        36.5004
   -307499.62948   -224727.21945
                  22175651.5944                                   22175644.9344
                                                                        48.7504
        32.2504
  -1210722.50847   -877991.13745
                  23209969.2344                                   23209965.8134
                                                                        45.7504
        33.7504
   -113314.26247    -84025.71544
                  23515860.8284                                   23515857.5164
                                                                        42.0004
        24.7504
   -170162.02746   -122891.62144
                  24517200.4774                                   24517196.7384
                                                                        40.7504
        24.5004
 09 10 22 23 14  0.0000000  0  9G02G04G05G10G13G23G29G30G31
   -855316.74648   -627315.44547
                  20405248.4694                                   20405241.6644
                                                                        52.5004
        43.0004
   -204010.32448   -151857.03946
                  21394660.3284                                   21394656.5084
                                                                        50.0004
        39.2504
  -1602483.71147  -1177054.57445
                  23676133.7584                                   23676129.5634
                                                                        44.2504
        32.0004
  -1572691.96147  -1151237.60245
                  22752935.6954                                   22752932.0824
                                                                        44.5004
        32.2504
   -988587.98448   -727930.35946
                  21275483.6644                                   21275478.5354
                                                                        51.0004
        37.0004
   -352870.13348   -260080.84845
                  22167017.5554                                   22167010.9304
                                                                        48.2504
        33.5004
  -1390372.44547  -1017978.02045
                  23175782.6334                                   23175779.3834
                                                                        45.5004
        33.0004
   -130288.51647    -97252.42644
                  23512631.6644                                   23512627.8324
                                                                        43.0004
        26.5004
   -195802.99646   -142871.62944
                  24512321.0394                                   24512317.5084
                                                                        41.2504
        27.0004
 09 10 22 23 14 30.0000000  0  9G02G04G05G10G13G23G29G30G31
   -964907.07048   -712710.57447
                  20384393.9534                                   20384387.6524
                                                                        53.0004
        42.7504
   -230254.89848   -172307.37946
                  21389666.4844                                   21389662.7344
                                                                        50.0004
        39.5004
  -1810828.77347  -1339401.37145
                  23636486.5634                                   23636482.3484
                                                                        43.2504
        31.5004
  -1776075.61747  -1309718.34445
                  22714233.3364                                   22714229.4534
                                                                        45.5004
        33.0004
  -1115128.38748   -826533.26646
                  21251403.3364                                   21251398.6254
                                                                        50.7504
        36.2504
   -397800.31648   -295091.39545
                  22158467.9844                                   22158461.5164
                                                                        48.5004
        32.5004
  -1569739.76647  -1157744.68445
                  23141649.9844                                   23141646.7114
                                                                        44.2504
        32.5004
   -146924.32047   -110215.39544
                  23509465.5944                                   23509462.3714
                                                                        44.5004
        28.5004
   -221135.04347   -162610.90244
                  24507501.2194                                   24507496.5864
                                                                        43.5004
        25.5004
 09 10 22 23 15  0.0000000  0  9G02G04G05G10G13G23G29G30G31
  -1074002.60548   -797720.12147
                  20363633.8914                                   20363627.3444
                                                                        52.5004
        43.5004
   -256148.68748   -192484.37546
                  21384738.7734                                   21384735.2274
                                                                        50.5004
        39.0004
  -2019074.26247  -1501670.56244
                  23596858.0234                                   23596854.8594
                                                                        42.0004
        29.7504
  -1979259.96147  -1468043.78545
                  22675568.9454                                   22675564.6764
                                                                        46.0004
        33.5004
  -1241096.21548   -924690.00446
                  21227432.7664                                   21227428.0594
                                                                        50.5004
        36.0004
   -442260.78548   -329735.92245
                  22150007.0234                                   22150000.9614
                                                                        48.5004
        32.0004
  -1748789.26647  -1297263.67645
                  23107578.0704                                   23107575.1174
                                                                        44.5004
        32.7504
   -163191.84047   -122891.34844
                  23506370.2034                                   23506366.8674
                                                                        43.5004
        28.0004
   -246128.66047   -182086.46144
                  24502745.0704                                   24502740.4144
                                                                        43.0004
        26.0004
 09 10 22 23 15 30.0000000  0  9G02G04G05G10G13G23G29G30G31
  -1182579.74248   -882325.73447
                  20342972.1884                                   20342966.1564
                                                                        52.7504
        43.0004
   -281669.35248   -212370.62546
                  21379882.4924                                   21379878.7974
                                                                        50.0004
        39.0004
  -2227195.61347  -1663843.00845
                  23557254.9304                                   23557250.2734
                                                                        44.0004
        31.5004
  -2182220.43047  -1626194.81245
                  22636946.8054                                   22636942.6484
                                                                        47.0004
        33.0004
  -1366465.87948  -1022380.64546
                  21203575.5164                                   21203570.9304
                                                                        50.5004
        36.7504
   -486229.10948   -363996.99245
                  22141640.0314                                   22141633.6564
                                                                        48.7504
        31.7504
  -1927496.87147  -1436516.27745
                  23073570.7664                                   23073567.7934
                                                                        44.7504
        32.5004
   -179072.19147   -135265.60244
                  23503348.1024                                   23503344.6414
                                                                        43.0004
        27.2504
   -270763.36347   -201282.31644
                  24498057.0634                                   24498052.6564
                                                                        43.5004
        25.5004
 09 10 22 23 16  0.0000000  0 10G02G04G05G10G13G23G25G29G30G31
  -1290619.73448   -966512.74647
                  20322413.1414                                   20322406.5354
                                                                        53.0004
        43.5004
   -306801.69148   -231954.28546
                  21375099.9924                                   21375096.0594
                                                                        51.0004
        39.0004
  -2435172.18447  -1825902.68745
                  23517678.4694                                   23517673.2624
                                                                        46.0004
        32.5004
  -2384936.19947  -1784155.13745
                  22598370.6254                                   22598366.5784
                                                                        46.5004
        32.2504
  -1491219.31648  -1119591.07446
                  21179835.6414                                   21179830.9734
                                                                        51.5004
        36.0004
   -529690.21548   -397862.78945
                  22133370.0864                                   22133362.9574
                                                                        48.5004
        31.7504
   -274277.18056   -193206.83253
                  24072715.6564                                   24072712.3284
                                                                        41.2504
        21.7504
  -2105840.86747  -1575485.54745
                  23039633.2114                                   23039629.4654
                                                                        45.0004
        31.0004
   -194549.07447   -147325.49244
                  23500402.9534                                   23500399.5784
                                                                        42.2504
        26.2504
   -295023.14146   -220186.05144
                  24493440.4224                                   24493435.6334
                                                                        41.5004
        24.0004
 09 10 22 23 16 30.0000000  0  9G02G04G05G10G13G23G25G29G30
    177306.92248    177326.20347
                  20601750.4144                                   20601743.7624
                                                                        52.5004
        44.0004
   1243879.23048    976368.48446
                  21670184.5944                                   21670180.7384
                                                                        50.2504
        39.0004
  -1067570.09047   -760238.73845
                  23777924.4774                                   23777919.7814
                                                                        47.0004
        32.0004
  -1011973.42647   -714313.99245
                  22859637.0314                                   22859632.8164
                                                                        45.7504
        32.2504
    -39925.59448     11287.15646
                  21456008.0554                                   21456003.0234
                                                                        51.2504
        36.5004
   1002781.43048    796270.94545
                  22424989.4694                                   22424982.4574
                                                                        48.0004
        32.0004
   1113597.25446    888253.95343
                  24336819.2584                                   24336815.3244
                                                                        40.0004
        19.5004
   -708387.99647   -486561.19945
                  23305559.8364                                   23305556.2034
                                                                        45.2504
        31.0004
   1365799.60947   1068530.66044
                  23797327.0394                                   23797323.6804
                                                                        43.0004
        27.0004
 09 10 22 23 17  0.0000000  0  9G02G04G05G10G13G23G25G29G30
     70369.21948     93998.12547
                  20581400.4534                                   20581394.4384
                                                                        52.7504
        43.0004
   1219545.82848    957407.38346
                  21665554.3834                                   21665550.4964
                                                                        50.5004
        39.0004
  -1275225.34547   -922048.04545
                  23738408.6644                                   23738404.2274
                                                                        45.0004
        31.5004
  -1214167.30547   -871867.66445
                  22821160.8204                                   22821157.1374
                                                                        46.5004
        33.5004
   -163416.52348    -84939.53146
                  21432508.4774                                   21432503.0904
                                                                        50.0004
        37.0004
    960356.89848    763212.86345
                  22416916.3054                                   22416909.5044
                                                                        48.0004
        31.7504
    926314.97346    742319.84843
                  24301180.5164                                   24301176.9184
                                                                        39.7504
        19.7504
   -885971.80547   -624938.17245
                  23271766.7504                                   23271762.2074
                                                                        45.5004
        31.2504
   1351145.77746   1057112.06644
                  23794538.4844                                   23794535.7194
                                                                        41.2504
        27.0004
 09 10 22 23 17 30.0000000  0  9G02G04G05G10G13G23G25G29G30
    -35990.47348     11120.46547
                  20561160.7734                                   20561154.5554
                                                                        52.0004
        43.5004
   1195634.26248    938774.97346
                  21661004.0084                                   21661000.1844
                                                                        50.2504
        38.7504
  -1482691.24647  -1083709.78545
                  23698929.0784                                   23698924.9414
                                                                        44.0004
        32.0004
  -1416070.82047  -1029195.03945
                  22782739.8674                                   22782736.2584
                                                                        46.2504
        34.0004
   -286249.78548   -180653.75446
                  21409133.8054                                   21409128.8634
                                                                        50.0004
        36.5004
    918472.98448    730576.05945
                  22408946.2974                                   22408939.1684
                                                                        48.0004
        32.2504
    739322.10546    596611.17643
                  24265597.1024                                   24265592.6844
                                                                        41.2504
        20.2504
  -1063146.11347   -762996.04745
                  23238051.0234                                   23238048.0354
                                                                        46.0004
        32.7504
   1336924.88346   1046030.82044
                  23791832.5084                                   23791829.8364
                                                                        41.0004
        28.0004
 09 10 22 23 18  0.0000000  0  9G02G04G05G10G13G23G25G29G30
   -141752.73048    -71291.65247
                  20541035.1254                                   20541028.8364
                                                                        53.2504
        43.2504
   1172162.66448    920485.39146
                  21656537.3204                                   21656533.6914
                                                                        50.0004
        38.5004
  -1689946.59847  -1245207.40645
                  23659489.8524                                   23659486.0044
                                                                        46.5004
        32.2504
  -1617662.78147  -1186279.64845
                  22744377.7814                                   22744374.4414
                                                                        46.5004
        34.0004
   -408404.77048   -275839.46946
                  21385888.6174                                   21385884.0274
                                                                        50.2504
        36.2504
    877147.53147    698374.46145
                  22401081.9454                                   22401075.4454
                                                                        47.7504
        31.7504
    552641.75446    451146.08643
                  24230072.7734                                   24230068.9384
                                                                        41.0004
        21.5004
  -1239889.70347   -900718.27345
                  23204418.2814                                   23204415.4304
                                                                        45.2504
        33.0004
   1323152.57447   1035299.09444
                  23789211.7194                                   23789208.8714
                                                                        43.0004
        26.0004
 09 10 22 23 18 30.0000000  0  9G02G04G05G10G13G23G25G29G30
   -246918.24648   -153238.80947
                  20521022.6724                                   20521016.4104
                                                                        53.0004
        43.7504
   1149127.29748    902535.72746
                  21652154.0314                                   21652150.1644
                                                                        50.5004
        38.7504
  -1896990.37547  -1406540.16845
                  23620090.3914                                   23620086.5824
                                                                        46.0004
        33.0004
  -1818942.35947  -1343120.84845
                  22706076.0004                                   22706072.0824
                                                                        47.2504
        33.5004
   -529882.10248   -370497.12546
                  21362771.9454                                   21362767.5824
                                                                        50.5004
        36.7504
    836376.99247    666605.25045
                  22393323.6954                                   22393317.4924
                                                                        47.7504
        32.0004
    366274.52047    305924.92643
                  24194608.3984                                   24194604.7234
                                                                        43.5004
        22.7504
  -1416200.62147  -1038103.36745
                  23170867.2814                                   23170864.4734
                                                                        46.0004
        33.2504
   1309825.14546   1024913.96944
                  23786675.3754                                   23786672.6024
                                                                        40.7504
        25.5004
 09 10 22 23 19  0.0000000  0  9G02G04G05G10G13G23G25G29G30
   -351469.77048   -234707.53547
                  20501127.2584                                   20501121.0274
                                                                        52.0004
        43.2504
   1126543.23048    884937.75046
                  21647856.2664                                   21647852.2114
                                                                        50.0004
        38.0004
  -2103804.57847  -1567694.09045
                  23580734.8594                                   23580731.2464
                                                                        45.7504
        32.0004
  -2019890.94947  -1499704.15645
                  22667836.8754                                   22667832.5314
                                                                        47.2504
        34.0004
   -650664.12548   -464612.96546
                  21339788.0084                                   21339783.2704
                                                                        50.7504
        37.0004
    796176.16048    635279.96945
                  22385673.6094                                   22385667.0664
                                                                        49.0004
        32.5004
    180240.67647    160963.64543
                  24159207.7114                                   24159203.4344
                                                                        43.2504
        22.5004
  -1592060.74647  -1175137.21545
                  23137402.1564                                   23137398.8984
                                                                        45.2504
        33.2504
   1296955.71946   1014885.76244
                  23784227.2194                                   23784223.3094
                                                                        41.5004
        26.0004
 09 10 22 23 19 30.0000000  0  9G02G04G05G10G13G23G25G29G30
   -455408.42648   -315698.71147
                  20481348.2894                                   20481342.0004
                                                                        53.0004
        43.5004
   1104406.86748    867688.62546
                  21643643.9844                                   21643640.2814
                                                                        50.5004
        38.7504
  -2310388.22347  -1728668.33645
                  23541423.6724                                   23541419.3874
                                                                        45.5004
        32.2504
  -2220507.36348  -1656028.62545
                  22629660.7194                                   22629656.7234
                                                                        48.0004
        34.0004
   -770752.06248   -558187.87546
                  21316936.1884                                   21316931.3094
                                                                        51.0004
        36.2504
    756540.78147    604395.26245
                  22378131.1644                                   22378124.7854
                                                                        47.5004
        32.5004
     -5459.39546     16262.37143
                  24123869.6174                                   24123866.1024
                                                                        41.5004
        23.5004
  -1767468.91447  -1311818.90245
                  23104022.9144                                   23104020.2304
                                                                        45.2504
        33.0004
   1284539.81647   1005210.87544
                  23781865.0394                                   23781860.8634
                                                                        42.5004
        26.0004
 09 10 22 23 20  0.0000000  0  9G02G04G05G10G13G23G25G29G30
   -558727.91048   -396207.37147
                  20461687.3594                                   20461680.9574
                                                                        53.0004
        43.0004
   1082722.79748    850791.93846
                  21639517.8834                                   21639513.9414
                                                                        50.2504
        38.0004
  -2516733.29347  -1889456.66445
                  23502157.5864                                   23502152.8444
                                                                        45.2504
        32.7504
  -2420783.74247  -1812088.13345
                  22591549.0634                                   22591545.2814
                                                                        46.5004
        34.0004
   -890138.80148   -651216.45746
                  21294217.5164                                   21294212.6684
                                                                        49.5004
        36.2504
    717475.64147    573954.91445
                  22370697.2034                                   22370691.0864
                                                                        47.2504
        31.0004
   -190816.21946   -128171.37543
                  24088597.1094                                   24088593.7034
                                                                        41.2504
        22.2504
  -1942416.39547  -1448141.59445
                  23070731.4694                                   23070728.5744
                                                                        44.2504
        34.0004
   1272580.86347    995892.15244
                  23779588.9924                                   23779585.7234
                                                                        43.5004
        26.2504
 09 10 22 23 20 30.0000000  0  9G02G04G05G10G13G23G25G29G30
   -661424.64148   -476230.78947
                  20442144.3524                                   20442138.6414
                                                                        52.7504
        43.2504
   1061491.74248    834248.24646
                  21635477.4694                                   21635473.8094
                                                                        50.7504
        38.0004
  -2722834.93447  -2050055.35245
                  23462937.5084                                   23462932.7584
                                                                        45.7504
        33.0004
  -2620714.77747  -1967878.55945
                  22553503.6644                                   22553499.7584
                                                                        47.0004
        33.5004
  -1008820.67648   -743695.79746
                  21271633.0864                                   21271628.2464
                                                                        50.0004
        37.2504
    678981.77347    543959.75045
                  22363372.3674                                   22363365.6334
                                                                        47.5004
        32.5004
   -375824.19946   -272333.35243
                  24053391.5314                                   24053387.7464
                                                                        41.0004
        23.0004
  -2116898.15647  -1584101.39545
                  23037528.8594                                   23037525.8874
                                                                        44.7504
        33.7504
   1261078.41047    986929.25044
                  23777400.4844                                   23777396.1414
                                                                        43.0004
        26.0004
 09 10 22 23 21  0.0000000  0  9G02G04G05G10G13G23G25G29G30
   -763493.79348   -555765.14847
                  20422721.6334                                   20422715.5744
                                                                        52.5004
        43.2504
   1040716.19948    818059.50046
                  21631524.1564                                   21631520.5864
                                                                        50.7504
        38.0004
  -2928686.96147  -2210459.51245
                  23423764.8754                                   23423761.1564
                                                                        45.7504
        33.0004
  -2820294.10547  -2123394.95745
                  22515525.1954                                   22515521.3054
                                                                        46.7504
        34.5004
  -1126793.16848   -835622.44146
                  21249183.3284                                   21249178.6254
                                                                        50.0004
        36.5004
    641061.01248    514411.14545
                  22356156.1484                                   22356149.4454
                                                                        48.7504
        31.5004
   -560476.37146   -416218.00043
                  24018252.9064                                   24018249.2624
                                                                        41.2504
        22.0004
  -2290907.52047  -1719693.05945
                  23004415.9224                                   23004413.1294
                                                                        45.7504
        34.0004
   1250033.69947    978322.99244
                  23775297.9924                                   23775295.2154
                                                                        43.7504
        26.5004
 09 10 22 23 21 30.0000000  0  9G02G04G05G10G13G23G25G29G30
   -864934.51248   -634809.85947
                  20403418.1884                                   20403411.5204
                                                                        53.0004
        43.5004
   1020395.17648    802224.92246
                  21627657.3054                                   21627653.1844
                                                                        50.0004
        38.0004
  -3134286.72347  -2370667.09445
                  23384640.8524                                   23384636.6644
                                                                        45.0004
        33.0004
  -3019519.00847  -2278635.14845
                  22477614.0704                                   22477610.2424
                                                                        47.5004
        34.7504
  -1244054.54348   -926995.04346
                  21226869.3594                                   21226864.7854
                                                                        50.0004
        37.2504
    603712.34848    485308.34045
                  22349049.0474                                   22349042.7664
                                                                        48.0004
        32.5004
   -744769.08646   -559822.62543
                  23983182.7194                                   23983179.0164
                                                                        40.5004
        22.0004
  -2464441.44947  -1854914.25845
                  22971394.0944                                   22971389.8404
                                                                        46.2504
        33.5004
   1239443.80947    970071.12144
                  23773283.2664                                   23773279.8714
                                                                        43.5004
        27.0004
 09 10 22 23 22  0.0000000  0  9G02G04G05G10G13G23G25G29G30
   -965744.82448   -713363.38347
                  20384234.3754                                   20384227.8204
                                                                        52.0004
        43.2504
   1000527.86748    786743.91446
                  21623876.6334                                   21623872.8554
                                                                        50.7504
        38.0004
  -3339630.49647  -2530675.22345
                  23345565.5864                                   23345561.1024
                                                                        45.5004
        33.2504
  -3218385.72747  -2433596.26645
                  22439770.5474                                   22439766.9654
                                                                        47.5004
        34.2504
  -1360602.94148  -1017812.00046
                  21204691.1484                                   21204686.2234
                                                                        50.2504
        36.5004
    566934.81647    456650.59845
                  22342050.5634                                   22342043.6334
                                                                        47.0004
        31.7504
   -928698.82446   -703144.42243
                  23948182.5784                                   23948178.1564
                                                                        40.2504
        20.7504
  -2637495.94147  -1989761.90645
                  22938462.5944                                   22938458.8984
                                                                        46.0004
        33.2504
   1229308.04347    962173.14844
                  23771354.1484                                   23771351.0234
                                                                        43.7504
        25.0004
 09 10 22 23 22 30.0000000  0  9G02G04G05G10G13G23G25G29G30
  -1065920.41048   -791422.30547
                  20365171.9454                                   20365165.7544
                                                                        52.7504
        43.0004
    981116.31648    771618.03546
                  21620182.7814                                   21620178.8714
                                                                        51.2504
        37.5004
  -3544712.73847  -2690479.59445
                  23306539.3364                                   23306534.8014
                                                                        46.0004
        34.2504
  -3416888.26647  -2588273.62145
                  22401997.1254                                   22401993.0274
                                                                        47.5004
        34.5004
  -1476433.77748  -1108069.78146
                  21182649.2344                                   21182644.2114
                                                                        49.7504
        36.5004
    530730.38347    428439.45745
                  22335160.3364                                   22335154.1564
                                                                        47.2504
        31.7504
  -1112258.46146   -846177.84443
                  23913252.1724                                   23913247.9884
                                                                        41.5004
        22.2504
  -2810065.25047  -2124231.48445
                  22905623.6484                                   22905619.8324
                                                                        44.5004
        32.7504
   1219626.47747    954629.04744
                  23769511.6254                                   23769508.9264
                                                                        43.7504
        26.2504
 09 10 22 23 23  0.0000000  0  9G02G04G05G10G13G23G25G29G30
  -1165460.58648   -868986.07047
                  20346229.7664                                   20346223.5784
                                                                        52.5004
        43.5004
    962159.45748    756846.45746
                  21616575.0944                                   21616571.3404
                                                                        50.5004
        37.5004
  -3749531.05147  -2850078.29745
                  23267563.6484                                   23267559.5394
                                                                        47.2504
        34.2504
  -3615024.12947  -2742665.25445
                  22364292.8524                                   22364289.3284
                                                                        47.7504
        34.0004
  -1591546.04748  -1197767.71546
                  21160744.2584                                   21160739.3404
                                                                        49.5004
        36.7504
    495097.69147    400673.76245
                  22328380.1564                                   22328373.2814
                                                                        46.2504
        31.2504
  -1295444.30947   -988919.98443
                  23878393.0394                                   23878389.0314
                                                                        42.5004
        22.2504
  -2982146.68747  -2258320.90645
                  22872877.5084                                   22872874.2464
                                                                        44.2504
        33.0004
   1210396.09447    947436.48044
                  23767755.7114                                   23767752.0664
                                                                        43.7504
        26.5004
 09 10 22 23 23 30.0000000  0  9G02G04G05G10G13G23G25G29G30
  -1264360.90248   -946051.25047
                  20327409.9304                                   20327403.3284
                                                                        52.5004
        43.7504
    943658.94148    742430.46946
                  21613054.6334                                   21613050.8954
                                                                        50.2504
        37.7504
  -3954079.07047  -3009466.37945
                  23228639.4384                                   23228635.3444
                                                                        47.2504
        34.2504
  -3812786.79347  -2896766.04745
                  22326660.1724                                   22326656.5864
                                                                        47.2504
        33.7504
  -1705935.29748  -1286902.29346
                  21138976.8284                                   21138971.9264
                                                                        50.0004
        36.0004
    460038.41847    373354.93445
                  22321708.1094                                   22321702.0594
                                                                        47.0004
        30.2504
  -1478250.30146  -1131366.12943
                  23843606.2894                                   23843602.4804
                                                                        41.5004
        22.7504
  -3153733.30547  -2392024.76245
                  22840225.6484                                   22840222.4804
                                                                        44.2504
        33.0004
   1201618.46147    940596.71144
                  23766085.0004                                   23766081.5474
                                                                        44.2504
        26.2504
 09 10 22 23 24  0.0000000  0  9G02G04G05G10G13G23G25G29G30
  -1362625.90648  -1022621.37547
                  20308710.3754                                   20308704.2734
                                                                        52.7504
        43.2504
    925607.78948    728364.62946
                  21609619.6884                                   21609616.1684
                                                                        50.0004
        37.5004
  -4158359.34447  -3168645.77045
                  23189766.6334                                   23189762.1604
                                                                        46.2504
        33.2504
  -4010178.43447  -3050577.73845
                  22289097.6024                                   22289093.6604
                                                                        47.7504
        35.2504
  -1819606.10248  -1375476.96946
                  21117345.5634                                   21117341.0634
                                                                        50.0004
        36.7504
    425544.65647    346476.75044
                  22315144.3134                                   22315137.7854
                                                                        47.0004
        29.7504
  -1660678.99646  -1273518.23843
                  23808890.9064                                   23808887.0634
                                                                        41.7504
        23.0004
  -3324827.43747  -2525344.84445
                  22807667.0634                                   22807664.0984
                                                                        45.2504
        34.0004
   1193286.28947    934104.12544
                  23764499.6884                                   23764496.9264
                                                                        43.2504
        25.7504
 09 10 22 23 24 30.0000000  0  9G02G04G05G10G13G23G25G29G30
    115173.23848    128910.42647
                  20589926.1254                                   20589920.1294
                                                                        53.0004
        42.5004
   2483430.75448   1942252.66446
                  21906063.6414                                   21906059.8554
                                                                        49.2504
        37.7504
  -2786938.84447  -2100006.39845
                  23450738.5554                                   23450734.3284
                                                                        45.7504
        32.2504
  -2631765.66448  -1976489.88345
                  22551400.6414                                   22551396.9574
                                                                        48.0004
        35.5004
   -357128.07448   -235883.72346
                  21395646.1954                                   21395641.4224
                                                                        49.5004
        36.0004
   1967042.38747   1547643.90245
                  22608481.5164                                   22608474.9884
                                                                        47.5004
        30.7504
   -267295.17247   -187764.51644
                  24074043.3054                                   24074039.2114
                                                                        42.5004
        25.2504
  -1919996.29347  -1430671.22745
                  23074998.1414                                   23074994.8484
                                                                        44.2504
        33.7504
   2760820.43047   2155559.25843
                  24062790.9384                                   24062787.9964
                                                                        44.5004
        23.7504
 09 10 22 23 25  0.0000000  0  9G02G04G05G10G13G23G25G29G30
     18188.94948     53338.23047
                  20571471.0634                                   20571464.6884
                                                                        52.2504
        43.2504
   2466282.66848   1928890.52346
                  21902800.5314                                   21902796.6994
                                                                        50.5004
        37.7504
  -2990669.59847  -2258757.64545
                  23411970.2664                                   23411965.5204
                                                                        45.2504
        33.0004
  -2828400.47347  -2129711.74645
                  22513982.9774                                   22513978.5824
                                                                        47.7504
        35.2504
   -469350.25848   -323329.57446
                  21374290.9384                                   21374286.4774
                                                                        49.7504
        36.7504
   1933684.88747   1521651.16045
                  22602133.9304                                   22602127.3714
                                                                        46.5004
        31.7504
   -448950.65247   -329314.37544
                  24039475.7194                                   24039471.2504
                                                                        42.2504
        24.7504
  -2090090.20347  -1563211.91445
                  23042630.0164                                   23042627.3874
                                                                        44.2504
        34.0004
   2753377.25047   2149759.39844
                  24061374.7344                                   24061371.1804
                                                                        44.0004
        25.2504
 09 10 22 23 25 30.0000000  0  9G02G04G05G10G13G23G25G29G30
    -78155.17248    -21735.13347
                  20553137.0084                                   20553130.6914
                                                                        53.5004
        43.0004
   2449582.75848   1915877.60946
                  21899622.3134                                   21899618.6884
                                                                        50.0004
        38.0004
  -3194123.27047  -2417293.01245
                  23373253.8914                                   23373249.7624
                                                                        45.5004
        34.2504
  -3024654.08647  -2282636.56645
                  22476636.3834                                   22476633.1524
                                                                        47.2504
        34.7504
   -580848.33248   -410211.19546
                  21353073.4844                                   21353068.9224
                                                                        49.2504
        37.0004
   1900891.39847   1496097.83245
                  22595893.7424                                   22595887.0944
                                                                        47.0004
        32.5004
   -630216.06246   -470560.23043
                  24004982.2814                                   24004977.5634
                                                                        41.7504
        22.0004
  -2259681.12547  -1695360.63745
                  23010358.0394                                   23010355.1254
                                                                        45.2504
        34.5004
   2746373.07947   2144301.50644
