     2.11           OBSERVATION DATA    G (GPS)             RINEX VERSION / TYPE
teqc  2019Feb25                         20221121 12:28:54UTCPGM / RUN BY / DATE
OSX ker:10.11.6|Core i5|gcc 4.3 -m64|OSX ker:10.10+|=+      COMMENT
BIT 2 OF LLI FLAGS DATA COLLECTED UNDER A/S CONDITION       COMMENT
04713040                                                    MARKER NAME
3040                                                        MARKER NUMBER
-Unknown-           -Unknown-                               OBSERVER / AGENCY
0220400471          TRIMBLE R7          2.30                REC # / TYPE / VERS
-Unknown-           TRM39105.00     NONE                    ANT # / TYPE
  1449459.2512 -1709243.7259  5952443.9075                  APPROX POSITION XYZ
        0.0000        0.0000        0.0000                  ANTENNA: DELTA H/E/N
     1     1                                                WAVELENGTH FACT L1/2
    20    L1    L2    L5    L6    L7    L8    C1    P1    C2# / TYPES OF OBSERV
          P2    C5    C6    C7    C8    S1    S2    S5    S6# / TYPES OF OBSERV
          S7    S8                                          # / TYPES OF OBSERV
    30.0000                                                 INTERVAL
    15                                                      LEAP SECONDS
Forced Modulo Decimation to 30 seconds                      COMMENT
 SNR is mapped to RINEX snr flag value [0-9]                COMMENT
  L1 & L2: min(max(int(snr_dBHz/6), 0), 9)                  COMMENT
teqc edited: Beidou # 1 - 37 excluded                       COMMENT
  2009    10    31     0     0    0.0000000     GPS         TIME OF FIRST OBS
                                                            END OF HEADER
 09 10 31  0  0  0.0000000  0  8G02G04G05G10G13G16G29G07
  -3459468.67248  -2682336.10546
                  21397976.6024                                   21397970.2934
                                                                        51.5004
        40.0004
   1722766.37947   1342174.00044
                  24370040.3364                                   24370037.2304
                                                                        43.2504
        24.0004
 -15307318.00048 -11890418.77347
                  21022688.9454                                   21022684.4454
                                                                        51.0004
        42.0004
 -13625906.61748 -10584625.12146
                  20480377.9384                                   20480373.7464
                                                                        52.2504
        41.2504
  -4148275.05948  -3219070.86345
                  21967134.5394                                   21967129.3284
                                                                        48.0004
        31.2504
 -11652894.21947  -9045481.20344
                  23539854.3284                                   23539849.0594
                                                                        43.2504
        26.0004
 -10354978.08248  -8040083.61346
                  21924707.5084                                   21924703.6684
                                                                        48.7504
        38.5004
 -13141072.94147 -10201742.47745
                  23141952.6954                                   23141947.7304
                                                                        44.5004
        31.7504
 09 10 31  0  0 30.0000000  0  8G02G04G05G10G13G16G29G07
  -3468075.18748  -2689042.48446
                  21396338.5634                                   21396332.1564
                                                                        51.5004
        39.7504
   1754473.24647   1366880.60244
                  24376073.4534                                   24376070.9454
                                                                        42.7504
        25.2504
 -15448388.99648 -12000344.23846
                  20995844.4924                                   20995839.9774
                                                                        51.0004
        41.5004
 -13744056.63748 -10676690.05546
                  20457894.4224                                   20457890.1334
                                                                        52.2504
        41.5004
  -4161556.73047  -3229420.24245
                  21964607.1174                                   21964602.3244
                                                                        47.7504
        31.7504
 -11758827.98047  -9128026.99244
                  23519695.5704                                   23519690.2734
                                                                        42.5004
        24.5004
 -10433752.42248  -8101466.21146
                  21909717.3834                                   21909713.6994
                                                                        49.7504
        38.0004
 -13297412.55947 -10323565.52345
                  23112201.6094                                   23112197.0474
                                                                        45.2504
        31.2504
 09 10 31  0  1  0.0000000  0  8G02G04G05G10G13G16G29G07
  -3476175.91448  -2695354.73846
                  21394797.2584                                   21394790.5944
                                                                        51.2504
        39.7504
   1786333.38747   1391706.64144
                  24382136.6564                                   24382133.5164
                                                                        43.5004
        25.5004
 -15588941.82848 -12109865.90646
                  20969097.6254                                   20969093.5664
                                                                        51.0004
        41.2504
 -13861600.52048 -10768282.68446
                  20435526.5704                                   20435522.1604
                                                                        52.5004
        40.7504
  -4174288.14847  -3239340.81245
                  21962183.9844                                   21962179.1684
                                                                        47.2504
        31.2504
 -11864107.97747  -9210063.36343
                  23499661.3754                                   23499655.6804
                                                                        42.5004
        23.7504
 -10511861.31248  -8162330.28546
                  21894853.5634                                   21894849.5664
                                                                        48.5004
        37.5004
 -13453242.41447 -10444991.35545
                  23082548.6094                                   23082543.3874
                                                                        44.7504
        30.7504
 09 10 31  0  1 30.0000000  0  8G02G04G05G10G13G16G29G07
  -3483775.82448  -2701276.75046
                  21393350.7034                                   21393344.5784
                                                                        50.7504
        39.7504
   1818341.97347   1416648.33643
                  24388227.9614                                   24388225.2154
                                                                        42.5004
        23.5004
 -15728977.83248 -12218984.86746
                  20942449.9224                                   20942445.6054
                                                                        51.0004
        41.5004
 -13978540.95748 -10859405.10246
                  20413273.8284                                   20413269.4264
                                                                        52.5004
        41.2504
  -4186474.55147  -3248836.70345
                  21959865.3594                                   21959860.4454
                                                                        47.2504
        30.7504
 -11968736.43047  -9291592.03544
                  23479751.6094                                   23479746.1764
                                                                        42.5004
        24.0004
 -10589307.79748  -8222678.19946
                  21880116.2664                                   21880112.1524
                                                                        49.5004
        38.0004
 -13608562.92247 -10566020.31245
                  23052992.1254                                   23052986.5864
                                                                        45.0004
        30.5004
 09 10 31  0  2  0.0000000  0  8G02G04G05G10G13G16G29G07
  -3490875.80148  -2706809.20346
                  21391999.6414                                   21391993.6254
                                                                        50.5004
        39.0004
   1850497.76246   1441704.78543
                  24394346.3134                                   24394343.3324
                                                                        41.5004
        22.2504
 -15868495.16848 -12327699.67247
                  20915900.5474                                   20915896.3674
                                                                        51.0004
        42.0004
 -14094875.82048 -10950055.64546
                  20391135.9384                                   20391131.8594
                                                                        51.7504
        41.5004
  -4198117.57047  -3257909.18045
                  21957649.7034                                   21957644.7894
                                                                        47.5004
        31.5004
 -12072711.58246  -9372611.61744
                  23459965.8204                                   23459960.4534
                                                                        41.2504
        24.0004
 -10666090.99248  -8282509.26246
                  21865504.8054                                   21865500.7344
                                                                        48.2504
        38.2504
 -13763370.71547 -10686649.77745
                  23023532.9384                                   23023527.8484
                                                                        44.5004
        31.0004
 09 10 31  0  2 30.0000000  0  8G02G04G05G10G13G16G29G07
  -3497477.39148  -2711953.30946
                  21390743.8914                                   21390737.2384
                                                                        50.5004
        39.0004
   1882799.68446   1466875.13743
                  24400493.8284                                   24400490.2774
                                                                        41.7504
        21.5004
 -16007491.72348 -12436008.66047
                  20889450.4614                                   20889445.7034
                                                                        51.5004
        42.0004
 -14210603.40248 -11040232.98046
                  20369113.8834                                   20369109.6134
                                                                        52.5004
        41.2504
  -4209219.36347  -3266559.94545
                  21955536.5704                                   21955532.2424
                                                                        47.0004
        31.0004
 -12176031.86347  -9453120.93443
                  23440304.8284                                   23440299.0904
                                                                        42.5004
        22.5004
 -10742210.53948  -8341823.18746
                  21851019.8204                                   21851015.6174
                                                                        49.5004
        38.2504
 -13917662.73447 -10806877.41845
                  22994172.3914                                   22994167.0824
                                                                        44.5004
        30.0004
 09 10 31  0  3  0.0000000  0  8G02G04G05G10G13G16G29G07
  -3503582.26648  -2716710.35546
                  21389581.8834                                   21389575.5204
                                                                        51.0004
        39.2504
   1915245.57846   1492157.66043
                  24406668.1644                                   24406664.8284
                                                                        40.7504
        22.2504
 -16145966.19948 -12543910.84047
                  20863099.5784                                   20863095.5204
                                                                        51.7504
        42.0004
 -14325723.47348 -11129936.94146
                  20347207.1804                                   20347203.0554
                                                                        52.5004
        41.5004
  -4219781.58647  -3274790.26245
                  21953527.3054                                   21953522.3794
                                                                        47.5004
        30.7504
 -12278696.38347  -9533119.25043
                  23420768.2504                                   23420762.1454
                                                                        42.0004
        22.7504
 -10817666.51648  -8400620.05946
                  21836660.8594                                   21836656.7034
                                                                        48.7504
        37.7504
 -14071436.21547 -10926700.97745
                  22964909.6024                                   22964905.2704
                                                                        43.5004
        30.2504
 09 10 31  0  3 30.0000000  0  8G02G04G05G10G13G16G29G07
  -1933773.55948  -1493482.79746
                  21688306.2424                                   21688300.1804
                                                                        50.0004
        38.7504
   3523251.19146   2745148.98843
                  24712661.3284                                   24712657.4774
                                                                        41.5004
        22.7504
 -14708493.77048 -11423802.44547
                  21136641.7034                                   21136637.3444
                                                                        51.7504
        42.0004
 -12864812.36348  -9991564.64846
                  20625209.2814                                   20625205.3794
                                                                        52.5004
        41.5004
  -2654387.87147  -2055002.94945
                  22251411.9064                                   22251407.0634
                                                                        46.5004
        31.0004
 -10805282.71947  -8385004.72743
                  23701149.3754                                   23701143.9534
                                                                        42.7504
        22.5004
  -9317038.21148  -7231299.27346
                  22122221.3284                                   22122216.6604
                                                                        48.5004
        38.0004
 -12649265.07847  -9818515.77045
                  23235540.2504                                   23235535.6334
                                                                        43.2504
        30.0004
 09 10 31  0  4  0.0000000  0  8G02G04G05G10G13G16G29G07
  -1938897.00048  -1497475.07446
                  21687331.6484                                   21687325.1054
                                                                        50.7504
        39.0004
   3555972.59447   2770645.98444
                  24718887.8204                                   24718884.7544
                                                                        42.7504
        24.5004
 -14845926.02348 -11530892.50446
                  21110489.4774                                   21110484.7304
                                                                        51.7504
        41.5004
 -12978720.73848 -10080324.41046
                  20603533.2584                                   20603529.1764
                                                                        52.0004
        41.7504
  -2663885.25847  -2062403.50445
                  22249604.3204                                   22249600.0944
                                                                        46.7504
        31.2504
 -10906640.28946  -8463984.64143
                  23681861.8914                                   23681856.1764
                                                                        41.2504
        23.0004
  -9391174.07448  -7289067.47746
                  22108113.6484                                   22108109.5204
                                                                        49.0004
        38.0004
 -12802000.53147  -9937530.59044
                  23206475.6094                                   23206471.5274
                                                                        43.0004
        29.5004
 09 10 31  0  4 30.0000000  0  8G02G04G05G10G13G16G29G07
  -1943534.70748  -1501088.86746
                  21686448.6564                                   21686442.1684
                                                                        50.0004
        39.0004
   3588827.09047   2796246.73844
                  24725140.0314                                   24725136.9574
                                                                        43.5004
        25.5004
 -14982837.18048 -11637576.53147
                  21084435.8134                                   21084431.5124
                                                                        52.0004
        42.0004
 -13092023.90648 -10168612.58646
                  20581972.3444                                   20581968.2274
                                                                        52.0004
        41.5004
  -2672855.84447  -2069393.57845
                  22247897.7274                                   22247892.8954
                                                                        46.5004
        32.0004
 -11007345.02747  -8542455.86344
                  23662697.8674                                   23662692.4924
                                                                        43.0004
        25.0004
  -9464652.51648  -7346323.40246
                  22094130.9614                                   22094126.7774
                                                                        49.5004
        38.7504
 -12954214.76247 -10056139.18445
                  23177510.5004                                   23177505.9024
                                                                        44.5004
        31.0004
 09 10 31  0  5  0.0000000  0  8G02G04G05G10G13G16G29G07
  -1947689.95748  -1504326.73846
                  21685658.0234                                   21685651.6214
                                                                        49.5004
        39.0004
   3621811.69147   2821949.00044
                  24731416.8444                                   24731414.5164
                                                                        43.2504
        24.2504
 -15119226.93748 -11743854.25847
                  21058481.6564                                   21058477.0664
                                                                        52.0004
        42.5004
 -13204722.64848 -10256429.77346
                  20560526.2274                                   20560522.0744
                                                                        51.7504
        41.2504
  -2681303.46547  -2075976.15245
                  22246289.7734                                   22246285.5824
                                                                        47.0004
        31.5004
 -11107397.70347  -8620418.96943
                  23643658.5164                                   23643653.3444
                                                                        42.5004
        23.7504
  -9537475.05548  -7403068.24246
                  22080273.5004                                   22080269.1724
                                                                        49.0004
        37.7504
 -13105906.88347 -10174340.93045
                  23148644.4774                                   23148640.0664
                                                                        45.5004
        32.5004
 09 10 31  0  5 30.0000000  0  8G02G04G05G10G13G16G29G07
  -1951363.55148  -1507189.28546
                  21684959.0314                                   21684953.2664
                                                                        50.0004
        38.5004
   3654925.52347   2847752.00443
                  24737717.9694                                   24737715.2034
                                                                        42.5004
        22.0004
 -15255092.54348 -11849723.57047
                  21032627.2034                                   21032623.0784
                                                                        51.5004
        42.2504
 -13316814.92648 -10343774.39546
                  20539196.0864                                   20539191.8954
                                                                        53.0004
        41.5004
  -2689229.28147  -2082152.12145
                  22244781.5004                                   22244776.5434
                                                                        45.5004
        31.2504
 -11206796.39547  -8697872.50444
                  23624743.8834                                   23624738.2194
                                                                        42.7504
        25.5004
  -9609640.76248  -7459301.26646
                  22066540.8284                                   22066536.2034
                                                                        48.7504
        38.2504
 -13257073.25847 -10292133.05545
                  23119878.4614                                   23119874.2344
                                                                        44.0004
        32.2504
 09 10 31  0  6  0.0000000  0  7G02G05G10G13G16G29G07
  -1954558.94948  -1509679.22746
                  21684351.2274                                   21684344.8324
                                                                        50.5004
        39.0004
 -15390434.96948 -11955185.18747
                  21006872.5084                                   21006868.1804
                                                                        51.7504
        42.0004
 -13428302.03948 -10430647.47347
                  20517980.5864                                   20517976.7544
                                                                        53.0004
        42.0004
  -2696637.47747  -2087924.75845
                  22243372.2274                                   22243366.8364
                                                                        46.5004
        30.2504
 -11305542.28947  -8774817.36744
                  23605953.4844                                   23605948.0204
                                                                        43.0004
        24.5004
  -9681151.32448  -7515023.78146
                  22052932.2974                                   22052928.3204
                                                                        49.5004
        37.7504
 -13407712.52047 -10409514.21145
                  23091212.9774                                   23091208.6954
                                                                        45.2504
        31.5004
 09 10 31  0  6 30.0000000  0  7G02G05G10G13G16G29G07
  -1957283.02748  -1511801.90246
                  21683832.8054                                   21683826.4734
                                                                        50.5004
        39.0004
 -15525257.28148 -12060241.54747
                  20981216.5394                                   20981212.0274
                                                                        52.0004
        42.2504
 -13539187.29748 -10517051.56246
                  20496879.7974                                   20496875.8794
                                                                        52.5004
        41.2504
  -2703535.25447  -2093299.67244
                  22242059.2734                                   22242054.2584
                                                                        46.5004
        29.7504
 -11403639.29347  -8851256.59843
                  23587285.9694                                   23587280.6334
                                                                        42.2504
        23.2504
  -9752011.93748  -7570239.84846
                  22039447.9384                                   22039443.8754
                                                                        48.7504
        37.7504
 -13557827.31247 -10526486.73445
                  23062647.1174                                   23062642.4804
                                                                        45.0004
        32.5004
 09 10 31  0  7  0.0000000  0  7G02G05G10G13G16G29G07
  -1959533.32048  -1513555.39546
                  21683404.6174                                   21683398.2034
                                                                        50.2504
        38.2504
 -15659553.64148 -12164888.07447
                  20955660.6804                                   20955656.7544
                                                                        51.7504
        42.2504
 -13649465.95748 -10602983.01246
                  20475894.5474                                   20475890.5434
                                                                        52.7504
        41.5004
  -2709920.53947  -2098275.23045
                  22240844.1254                                   22240839.2234
                                                                        46.5004
        30.2504
 -11501082.69147  -8927186.50444
                  23568742.5004                                   23568737.4694
                                                                        42.7504
        24.5004
  -9822218.68048  -7624946.41046
                  22026088.3594                                   22026084.0474
                                                                        49.0004
        38.2504
 -13707411.04347 -10643045.47745
                  23034182.3834                                   23034177.2544
                                                                        45.2504
        30.7504
 09 10 31  0  7 30.0000000  0  7G02G05G10G13G16G29G07
  -1961309.75048  -1514939.63346
                  21683066.5704                                   21683060.4224
                                                                        50.0004
        39.0004
 -15793320.80148 -12269122.21547
                  20930205.5784                                   20930201.3364
                                                                        52.5004
        42.7504
 -13759135.33248 -10688439.68446
                  20455025.1334                                   20455021.5164
                                                                        52.7504
        41.7504
  -2715793.98447  -2102851.97345
                  22239726.6094                                   22239721.8874
                                                                        45.0004
        31.2504
 -11597869.60947  -9002604.90244
                  23550325.1564                                   23550319.4184
                                                                        42.5004
        25.0004
  -9891770.14848  -7679142.35946
                  22012853.2194                                   22012849.1294
                                                                        49.5004
        37.5004
 -13856459.62947 -10759187.17645
                  23005819.0394                                   23005814.1884
                                                                        43.7504
        30.5004
 09 10 31  0  8  0.0000000  0  7G02G05G10G13G16G29G07
  -1962617.80548  -1515958.89846
                  21682817.6484                                   21682811.1414
                                                                        49.7504
        39.2504
 -15926560.87548 -12372945.64847
                  20904851.1254                                   20904846.3484
                                                                        52.2504
        42.0004
 -13868198.24248 -10773423.75847
                  20434271.1334                                   20434267.1914
                                                                        52.7504
        42.0004
  -2721161.93447  -2107034.84044
                  22238705.0164                                   22238700.4064
                                                                        46.0004
        29.5004
 -11694003.25847  -9077514.23843
                  23532031.4844                                   23532025.9844
                                                                        42.7504
        22.5004
  -9960669.98848  -7732830.55146
                  21999741.8594                                   21999737.5904
                                                                        49.5004
        38.0004
 -14004973.53147 -10874912.26645
                  22977557.6024                                   22977552.9694
                                                                        45.0004
        30.2504
 09 10 31  0  8 30.0000000  0  7G02G05G10G13G16G29G07
  -1963461.94148  -1516616.68046
                  21682657.0084                                   21682650.9694
                                                                        49.5004
        38.7504
 -16059275.26648 -12476359.45347
                  20879596.0234                                   20879591.7154
                                                                        52.0004
        42.5004
 -13976656.52748 -10857936.69146
                  20413632.4384                                   20413628.3524
                                                                        52.5004
        41.5004
  -2726028.51247  -2110826.96544
                  22237778.8284                                   22237774.7734
                                                                        45.7504
        29.7504
 -11789485.56247  -9151916.03144
                  23513861.6334                                   23513856.1994
                                                                        42.5004
        25.2504
 -10028921.03948  -7786013.18446
                  21986754.4694                                   21986750.1054
                                                                        50.0004
        38.2504
 -14152953.16447 -10990221.39545
                  22949398.4454                                   22949393.5944
                                                                        44.5004
        30.0004
 09 10 31  0  9  0.0000000  0  7G02G05G10G13G16G29G07
  -1963847.78148  -1516917.33646
                  21682583.3204                                   21682577.2304
                                                                        49.2504
        38.0004
 -16191466.08648 -12579365.28946
                  20854441.3984                                   20854437.3134
                                                                        52.5004
        41.7504
 -14084513.12948 -10941980.79746
                  20393107.8524                                   20393103.9224
                                                                        52.0004
        41.5004
  -2730400.18747  -2114233.46545
                  22236947.0474                                   22236942.4654
                                                                        45.5004
        30.2504
 -11884319.38347  -9225812.52744
                  23495815.5634                                   23495809.8874
                                                                        42.0004
        24.2504
 -10096527.67648  -7838693.68446
                  21973889.2274                                   21973885.0434
                                                                        49.5004
        38.0004
 -14300399.27347 -11105114.52045
                  22921341.0004                                   22921336.2034
                                                                        45.0004
        30.7504
 09 10 31  0  9 30.0000000  0  7G02G05G10G13G16G29G07
  -1963781.74248  -1516865.89846
                  21682595.8364                                   21682589.7894
                                                                        49.7504
        38.2504
 -16323136.12548 -12681965.32047
                  20829385.5634                                   20829380.8094
                                                                        52.5004
        42.7504
 -14191771.68448 -11025558.87146
                  20372697.1884                                   20372692.8754
                                                                        52.5004
        41.2504
  -2734284.15647  -2117259.96144
                  22236207.8674                                   22236203.4654
                                                                        46.0004
        29.7504
 -11978508.84847  -9299206.90243
                  23477892.1094                                   23477886.0824
                                                                        42.5004
        22.7504
 -10163494.58648  -7890875.68446
                  21961145.6094                                   21961141.8714
                                                                        49.2504
        37.7504
 -14447313.93747 -11219593.38745
                  22893383.3754                                   22893378.7664
                                                                        44.0004
        31.2504
 09 10 31  0 10  0.0000000  0  7G02G05G10G13G16G29G07
  -1963266.17248  -1516464.15246
                  21682694.0784                                   21682688.3554
                                                                        49.7504
        38.2504
 -16454284.98448 -12784159.23847
                  20804428.4224                                   20804424.1254
                                                                        52.5004
        42.2504
 -14298432.31248 -11108671.03546
                  20352400.4144                                   20352396.2624
                                                                        52.5004
        41.7504
  -2737683.14547  -2119908.56245
                  22235561.6254                                   22235556.7974
                                                                        45.0004
        30.2504
 -12072053.72347  -9372099.02343
                  23460090.7814                                   23460085.6564
                                                                        43.0004
        23.5004
 -10229822.85948  -7942560.05146
                  21948523.5704                                   21948519.8094
                                                                        49.5004
        38.0004
 -14593695.37147 -11333656.72345
                  22865527.9224                                   22865523.1374
                                                                        44.7504
        31.0004
 09 10 31  0 10 30.0000000  0  7G02G05G10G13G16G29G07
  -1962304.54748  -1515714.84846
                  21682877.2344                                   21682870.9454
                                                                        48.0004
        38.5004
 -16584912.37948 -12885946.82847
                  20779571.0864                                   20779566.3714
                                                                        52.7504
        42.0004
 -14404495.55948 -11191317.72746
                  20332217.2034                                   20332213.0704
                                                                        52.7504
        41.2504
  -2740601.07847  -2122182.30544
                  22235005.9534                                   22235001.4494
                                                                        43.5004
        29.5004
 -12164954.75046  -9444489.43443
                  23442412.8284                                   23442406.6024
                                                                        40.7504
        23.5004
 -10295514.01248  -7993747.96146
                  21936023.1724                                   21936018.9574
                                                                        48.2504
        37.2504
 -14739543.04747 -11447304.33645
                  22837773.5944                                   22837769.3794
                                                                        45.2504
        31.0004
 09 10 31  0 11  0.0000000  0  7G02G05G10G13G16G29G07
  -1960900.94548  -1514621.16046
                  21683144.5394                                   21683137.9534
                                                                        49.5004
        38.5004
 -16715019.29748 -12987328.83247
                  20754812.5234                                   20754808.0514
                                                                        52.0004
        42.5004
 -14509962.47748 -11273499.73846
                  20312147.5394                                   20312143.5314
                                                                        52.0004
        41.5004
  -2743042.20747  -2124084.53145
                  22234541.3444                                   22234537.0204
                                                                        44.5004
        30.2504
 -12257213.78947  -9516379.58644
                  23424856.4224                                   23424850.3484
                                                                        43.0004
        24.5004
 -10360570.63748  -8044441.42646
                  21923643.1884                                   21923639.3054
                                                                        49.0004
        37.5004
 -14884856.04747 -11560535.44545
                  22810121.6884                                   22810117.5594
                                                                        45.5004
        31.5004
 09 10 31  0 11 30.0000000  0  7G02G05G10G13G16G29G07
  -1959053.38748  -1513181.49246
                  21683495.7974                                   21683489.8364
                                                                        49.5004
        38.5004
 -16844600.80548 -13088301.43747
                  20730153.9454                                   20730149.0514
                                                                        52.5004
        43.0004
 -14614828.99648 -11355213.88746
                  20292192.1644                                   20292187.7344
                                                                        52.5004
        41.2504
  -2745005.28147  -2125614.21944
                  22234168.0784                                   22234163.1884
                                                                        45.0004
        29.5004
 -12348826.63347  -9587766.22744
                  23407422.4144                                   23407416.7774
                                                                        43.0004
        25.5004
 -10424989.70348  -8094638.09846
                  21911384.8594                                   21911380.7034
                                                                        49.2504
        38.0004
 -15029628.18747 -11673345.01645
                  22782572.8134                                   22782568.6484
                                                                        46.0004
        32.0004
 09 10 31  0 12  0.0000000  0  7G02G05G10G13G16G29G07
  -1956766.85948  -1511399.80146
                  21683931.1954                                   21683925.1094
                                                                        49.2504
        37.5004
 -16973657.81248 -13188865.33647
                  20705594.9924                                   20705590.6844
                                                                        52.5004
        43.0004
 -14719096.91848 -11436461.61746
                  20272350.5164                                   20272346.3054
                                                                        52.7504
        41.7504
  -2746495.40647  -2126775.36744
                  22233884.3444                                   22233879.7304
                                                                        45.2504
        29.2504
 -12439795.42646  -9658651.02744
                  23390112.1094                                   23390106.2234
                                                                        41.2504
        24.0004
 -10488774.12148  -8144340.22746
                  21899246.9694                                   21899243.0554
                                                                        49.5004
        37.7504
 -15173859.52347 -11785732.95745
                  22755126.3134                                   22755122.5474
                                                                        45.0004
        32.5004
 09 10 31  0 12 30.0000000  0  7G02G05G10G13G16G29G07
  -1954045.46148  -1509279.24646
                  21684449.0554                                   21684442.7194
                                                                        48.2504
        38.2504
 -17102191.71548 -13289021.62147
                  20681135.9924                                   20681131.4144
                                                                        52.2504
        42.5004
 -14822768.41048 -11517244.58246
                  20252622.4064                                   20252618.3054
                                                                        52.5004
        41.5004
  -2747517.78147  -2127572.11344
                  22233689.8834                                   22233684.8914
                                                                        44.0004
        28.0004
 -12530122.12547  -9729035.46544
                  23372923.1884                                   23372917.8634
                                                                        42.0004
        26.5004
 -10551926.98448  -8193550.24646
                  21887229.2194                                   21887225.5744
                                                                        48.2504
        38.0004
 -15317550.54747 -11897699.94145
                  22727783.1024                                   22727778.3444
                                                                        46.2504
        32.2504
 09 10 31  0 13  0.0000000  0  7G02G05G10G13G16G29G07
   -375472.18048   -279222.15646
                  21984841.3834                                   21984835.0824
                                                                        49.2504
        37.5004
 -15654777.73048 -12161166.57047
                  20956569.7664                                   20956565.3984
                                                                        53.0004
        43.0004
 -13350419.86748 -10369960.00046
                  20532801.2274                                   20532796.9964
                                                                        52.7504
        41.5004
  -1172655.35247   -900406.62544
                  22533376.1254                                   22533371.4184
                                                                        44.7504
        27.7504
 -11044384.40247  -8571317.75044
                  23655649.9774                                   23655644.2814
                                                                        42.5004
        26.5004
  -9039027.63748  -7014667.64146
                  22175124.8204                                   22175120.7384
                                                                        48.7504
        37.2504
 -13885274.91047 -10781641.03945
                  23000335.7274                                   23000331.4414
                                                                        46.2504
        32.0004
 09 10 31  0 13 30.0000000  0  7G02G05G10G13G16G29G07
   -371889.18448   -276430.21946
                  21985523.2034                                   21985516.9104
                                                                        49.0004
        37.7504
 -15782263.55948 -12260506.16447
                  20932310.2424                                   20932305.7704
                                                                        52.7504
        42.5004
 -13452898.57848 -10449813.53546
                  20513300.0704                                   20513296.0864
                                                                        52.7504
        41.5004
  -1172751.37147   -900481.43744
                  22533357.3674                                   22533352.9574
                                                                        44.5004
        29.2504
 -11133427.95747  -8640702.34044
                  23638705.7274                                   23638700.0824
                                                                        42.0004
        25.7504
  -9100921.34048  -7062896.50046
                  22163346.6024                                   22163342.6954
                                                                        48.7504
        36.7504
 -14027879.74647 -10892761.56245
                  22973198.9384                                   22973194.4964
                                                                        45.5004
        32.2504
 09 10 31  0 14  0.0000000  0  7G02G05G10G13G16G29G07
   -367879.50048   -273305.80546
                  21986286.5554                                   21986280.3634
                                                                        49.5004
        38.0004
 -15909224.45348 -12359436.72747
                  20908149.9844                                   20908145.6644
                                                                        52.5004
        42.5004
 -13554781.06248 -10529202.50046
                  20493912.6094                                   20493908.3634
                                                                        52.2504
        41.5004
  -1172388.84847   -900198.94144
                  22533427.4614                                   22533422.2384
                                                                        45.2504
        28.2504
 -11221830.52047  -8709587.48044
                  23621883.1254                                   23621877.4804
                                                                        42.5004
        26.5004
  -9162187.52748  -7110636.38346
                  22151687.8364                                   22151684.2774
                                                                        49.7504
        37.5004
 -14169939.29347 -11003457.20745
                  22946165.7194                                   22946161.4454
                                                                        45.7504
        32.2504
 09 10 31  0 14 30.0000000  0  7G02G05G10G13G16G29G07
   -363445.14848   -269850.45346
                  21987130.6024                                   21987123.9454
                                                                        48.5004
        38.0004
 -16035658.98848 -12457957.14547
                  20884090.3674                                   20884086.1844
                                                                        52.5004
        43.0004
 -13656066.73848 -10608126.40246
                  20474638.6254                                   20474634.2854
                                                                        53.0004
        41.7504
  -1171570.42247   -899561.21944
                  22533583.0554                                   22533577.9534
                                                                        43.2504
        29.7504
 -11309591.69946  -8777972.80144
                  23605182.8204                                   23605177.5474
                                                                        41.5004
        25.5004
  -9222826.45348  -7157887.50046
                  22140148.8134                                   22140144.7624
                                                                        48.7504
        37.7504
 -14311451.59047 -11113726.52345
                  22919236.8674                                   22919232.6214
                                                                        46.0004
        31.2504
 09 10 31  0 15  0.0000000  0  7G02G05G10G13G16G29G07
   -358586.07048   -266064.14146
                  21988054.7274                                   21988048.1454
                                                                        49.0004
        37.5004
 -16161564.02348 -12556064.96547
                  20860131.4304                                   20860127.0984
                                                                        52.0004
        42.7504
 -13756753.10248 -10686583.31246
                  20455478.6024                                   20455474.0164
                                                                        52.2504
        41.5004
  -1170296.37947   -898568.46144
                  22533824.9774                                   22533820.9924
                                                                        45.2504
        28.7504
 -11396709.25046  -8845856.60944
                  23588604.5864                                   23588599.5514
                                                                        41.5004
        26.0004
  -9282836.95348  -7204648.92246
                  22128729.3524                                   22128725.4694
                                                                        49.2504
        38.2504
 -14452411.70347 -11223565.53945
                  22892413.1644                                   22892408.3834
                                                                        45.2504
        31.5004
 09 10 31  0 15 30.0000000  0  7G02G05G10G13G16G29G07
   -353303.14148   -261947.58246
                  21989060.1414                                   21989054.0514
                                                                        49.0004
        37.5004
 -16286937.30948 -12653758.42647
                  20836273.4694                                   20836269.3484
                                                                        52.2504
        42.7504
 -13856838.56248 -10764571.99246
                  20436432.9304                                   20436428.4844
                                                                        52.5004
        41.5004
  -1168568.13347   -897221.83244
                  22534154.5864                                   22534149.8324
                                                                        44.5004
        29.0004
 -11483181.83646  -8913237.84444
                  23572149.4614                                   23572144.4774
                                                                        41.7504
        25.7504
  -9342218.57048  -7250920.31646
                  22117429.1564                                   22117425.3554
                                                                        48.2504
        38.2504
 -14592816.35947 -11332971.72345
                  22865695.2974                                   22865690.1374
                                                                        46.7504
        31.5004
 09 10 31  0 16  0.0000000  0  7G02G05G10G13G16G29G07
   -347601.96148   -257505.10946
                  21990145.2424                                   21990138.9694
                                                                        49.0004
        37.2504
 -16411780.82048 -12751039.07447
                  20812517.0004                                   20812512.9264
                                                                        52.0004
        42.5004
 -13956325.83648 -10842094.54746
                  20417501.0864                                   20417497.0744
                                                                        52.0004
        41.2504
  -1166391.87547   -895526.09844
                  22534568.4844                                   22534563.5514
                                                                        44.5004
        28.2504
 -11569012.36747  -8980118.76644
                  23555817.0944                                   23555811.2154
                                                                        43.0004
        26.5004
  -9400975.18048  -7296704.68046
                  22106247.9384                                   22106244.3364
                                                                        49.5004
        37.2504
 -14732666.32447 -11441945.69545
                  22839082.6954                                   22839077.9064
                                                                        47.2504
        32.5004
 09 10 31  0 16 30.0000000  0  7G02G05G10G13G16G29G07
   -341487.78948   -252740.84446
                  21991308.5314                                   21991302.3404
                                                                        48.5004
        37.2504
 -16536097.02748 -12847908.84847
                  20788860.3834                                   20788855.8674
                                                                        52.2504
        42.7504
 -14055218.03948 -10919153.41446
                  20398682.4384                                   20398678.4344
                                                                        52.5004
        41.5004
  -1163773.34047   -893485.73044
                  22535066.5784                                   22535061.9884
                                                                        43.5004
        27.7504
 -11654204.25447  -9046502.07044
                  23539605.2894                                   23539600.4104
                                                                        42.2504
        27.2504
  -9459111.35948  -7342005.60246
                  22095185.2114                                   22095181.4384
                                                                        48.0004
        38.0004
 -14871963.35547 -11550488.79745
                  22812574.9694                                   22812570.6374
                                                                        47.0004
        32.2504
 09 10 31  0 17  0.0000000  0  7G02G05G10G13G16G29G07
   -334961.25848   -247655.25846
                  21992550.2274                                   21992544.2464
                                                                        49.2504
        37.2504
 -16659882.94548 -12944365.39547
                  20765304.6954                                   20765300.4734
                                                                        52.0004
        42.7504
 -14153513.12148 -10995746.99246
                  20379977.5784                                   20379973.5084
                                                                        52.0004
        41.2504
  -1160713.50847   -891101.52344
                  22535648.8134                                   22535644.5864
                                                                        44.5004
        27.7504
 -11738755.38747  -9112386.05544
                  23523515.1334                                   23523510.5474
                                                                        43.0004
        26.0004
  -9516625.97748  -7386822.18746
                  22084240.6564                                   22084236.9534
                                                                        48.7504
        37.7504
 -15010703.62547 -11658598.15245
                  22786173.6884                                   22786169.0434
                                                                        46.7504
        32.0004
 09 10 31  0 17 30.0000000  0  8G02G08G05G10G13G16G29G07
   -328022.82048   -242248.68746
                  21993870.7274                                   21993864.9694
                                                                        48.2504
        37.5004
   2914822.54756   2311111.43853
                  24626064.3914                                   24626061.9964
                                                                        41.2504
        20.0004
 -16783136.12548 -13040406.83247
                  20741850.3914                                   20741845.9804
                                                                        51.5004
        43.0004
 -14251209.17648 -11071873.78946
                  20361386.6954                                   20361382.1994
                                                                        51.2504
        40.5004
  -1157213.57447   -888374.41844
                  22536315.1484                                   22536310.6174
                                                                        43.2504
        28.0004
 -11822664.58646  -9177769.86744
                  23507548.2814                                   23507543.0634
                                                                        41.7504
        25.0004
  -9573518.56647  -7431154.07446
                  22073414.2194                                   22073410.5084
                                                                        47.5004
        38.0004
 -15148883.49247 -11766270.89845
                  22759879.7034                                   22759874.4614
                                                                        47.7504
        32.2504
 09 10 31  0 18  0.0000000  0  8G02G08G05G10G13G16G29G07
   -320678.92647   -236526.18746
                  21995268.6174                                   21995262.3524
                                                                        47.7504
        37.5004
   2723489.18446   2162020.57043
                  24589654.6724                                   24589652.1604
                                                                        41.0004
        20.2504
 -16905859.60548 -13136035.50447
                  20718496.6094                                   20718492.1724
                                                                        51.7504
        43.7504
 -14348310.18048 -11147536.91446
                  20342908.8834                                   20342904.6764
                                                                        52.0004
        41.5004
