     2.11           OBSERVATION DATA    G (GPS)             RINEX VERSION / TYPE
teqc  2019Feb25                         20221121 12:28:28UTCPGM / RUN BY / DATE
OSX ker:10.11.6|Core i5|gcc 4.3 -m64|OSX ker:10.10+|=+      COMMENT
BIT 2 OF LLI FLAGS DATA COLLECTED UNDER A/S CONDITION       COMMENT
04712910                                                    MARKER NAME
2910                                                        MARKER NUMBER
-Unknown-           -Unknown-                               OBSERVER / AGENCY
0220400471          TRIMBLE R7          2.30                REC # / TYPE / VERS
-Unknown-           TRM39105.00     NONE                    ANT # / TYPE
  1449459.6610 -1709241.9316  5952441.7864                  APPROX POSITION XYZ
        0.0000        0.0000        0.0000                  ANTENNA: DELTA H/E/N
     1     1                                                WAVELENGTH FACT L1/2
    20    L1    L2    L5    L6    L7    L8    C1    P1    C2# / TYPES OF OBSERV
          P2    C5    C6    C7    C8    S1    S2    S5    S6# / TYPES OF OBSERV
          S7    S8                                          # / TYPES OF OBSERV
    30.0000                                                 INTERVAL
    15                                                      LEAP SECONDS
Forced Modulo Decimation to 30 seconds                      COMMENT
 SNR is mapped to RINEX snr flag value [0-9]                COMMENT
  L1 & L2: min(max(int(snr_dBHz/6), 0), 9)                  COMMENT
teqc edited: Beidou # 1 - 37 excluded                       COMMENT
  2009    10    18     0     0    0.0000000     GPS         TIME OF FIRST OBS
                                                            END OF HEADER
 09 10 18  0  0  0.0000000  0  8G02G04G10G05G13G23G29G25
 -10234558.91048  -7953232.74247
                  20429706.3284                                   20429700.5354
                                                                        51.0004
        43.0004
  -2042964.60248  -1583262.35245
                  22163297.5164                                   22163294.0164
                                                                        50.5004
        35.7504
 -19446940.66848 -15132133.93046
                  21846364.4694                                   21846361.0204
                                                                        49.0004
        37.0004
 -15645913.40647 -12178624.74646
                  22667701.5554                                   22667697.6174
                                                                        46.0004
        36.2504
 -11967202.10948  -9295200.86746
                  21152378.1094                                   21152373.3634
                                                                        49.7504
        36.0004
  -3828924.02047  -2969925.73044
                  22815992.8984                                   22815986.8164
                                                                        44.7504
        29.2504
 -16997506.50047 -13198678.20745
                  22496855.1334                                   22496851.1564
                                                                        46.5004
        34.7504
  -8218184.44546  -6361867.21544
                  23411698.9844                                   23411695.6954
                                                                        40.2504
        26.5004
 09 10 18  0  0 30.0000000  0  8G02G04G10G05G13G23G29G25
 -10303353.23448  -8006838.69547
                  20416615.3674                                   20416609.7384
                                                                        51.0004
        42.2504
  -2039302.35948  -1580408.66045
                  22163994.4454                                   22163990.4454
                                                                        49.7504
        35.5004
 -19623644.37548 -15269825.09446
                  21812739.0554                                   21812735.2304
                                                                        49.2504
        37.0004
 -15832097.85947 -12323703.52746
                  22632272.1484                                   22632268.2854
                                                                        45.5004
        36.5004
 -12049135.89848  -9359045.37946
                  21136786.7584                                   21136781.9494
                                                                        50.7504
        36.7504
  -3837383.99247  -2976517.92644
                  22814382.6954                                   22814376.4384
                                                                        45.0004
        29.0004
 -17143306.07047 -13312288.26645
                  22469110.1954                                   22469106.1804
                                                                        47.0004
        34.2504
  -8378417.12546  -6486723.77044
                  23381208.0164                                   23381204.4454
                                                                        40.0004
        26.0004
 09 10 18  0  1  0.0000000  0  8G02G04G10G05G13G23G29G25
 -10371543.89548  -8059974.26247
                  20403639.1024                                   20403633.5394
                                                                        51.5004
        42.5004
  -2035286.08648  -1577279.12545
                  22164758.4384                                   22164754.7704
                                                                        49.0004
        35.0004
 -19799945.66048 -15407202.70346
                  21779189.9774                                   21779186.0984
                                                                        48.7504
        37.7504
 -16017983.01247 -12468549.09846
                  22596899.4614                                   22596895.2664
                                                                        47.5004
        37.0004
 -12130380.19148  -9422352.63746
                  21121326.6884                                   21121321.8404
                                                                        50.7504
        36.0004
  -3845387.25847  -2982754.24644
                  22812859.9844                                   22812853.5664
                                                                        45.7504
        29.5004
 -17288575.65647 -13425485.34045
                  22441466.1884                                   22441462.6054
                                                                        46.7504
        35.0004
  -8538217.74646  -6611243.76644
                  23350799.2734                                   23350795.0744
                                                                        41.7504
        26.5004
 09 10 18  0  1 30.0000000  0  8G02G04G10G05G13G23G29G25
 -10439131.55948  -8112639.95747
                  20390777.6414                                   20390771.1564
                                                                        51.7504
        42.2504
  -2030918.18748  -1573875.58645
                  22165589.6724                                   22165586.1094
                                                                        49.2504
        35.2504
 -19975842.39148 -15544265.05146
                  21745717.8834                                   21745714.3834
                                                                        49.0004
        37.0004
 -16203567.27047 -12613160.17646
                  22561584.2114                                   22561579.7154
                                                                        47.0004
        36.0004
 -12210936.48448  -9485123.77346
                  21105996.9224                                   21105992.3794
                                                                        51.0004
        37.0004
  -3852937.04747  -2988637.22344
                  22811423.3674                                   22811417.2464
                                                                        46.0004
        29.5004
 -17433313.41847 -13538268.01245
                  22413923.7274                                   22413919.8324
                                                                        46.5004
        35.2504
  -8697584.68447  -6735425.76644
                  23320472.5234                                   23320468.6334
                                                                        42.5004
        27.0004
 09 10 18  0  2  0.0000000  0  8G02G04G10G05G13G23G29G25
 -10506114.57848  -8164834.51647
                  20378031.5704                                   20378025.2704
                                                                        52.0004
        43.0004
  -2026198.00848  -1570197.55145
                  22166487.8204                                   22166484.5784
                                                                        48.7504
        35.5004
 -20151330.42248 -15681008.93446
                  21712323.6024                                   21712320.0664
                                                                        49.7504
        37.5004
 -16388846.38347 -12757533.47346
                  22526326.4384                                   22526322.6954
                                                                        47.2504
        36.7504
 -12290802.14548  -9547356.74646
                  21090799.1254                                   21090794.4614
                                                                        51.0004
        36.2504
  -3860033.21147  -2994166.69944
                  22810073.1174                                   22810066.1954
                                                                        45.7504
        28.5004
 -17577515.71147 -13650633.43045
                  22386482.6254                                   22386479.2234
                                                                        47.5004
        35.0004
  -8856512.46946  -6859265.55944
                  23290230.0554                                   23290225.7544
                                                                        41.5004
        27.7504
 09 10 18  0  2 30.0000000  0  8G02G04G10G05G13G23G29G25
 -10572494.36348  -8216559.01647
                  20365399.6484                                   20365393.5474
                                                                        52.2504
        42.0004
  -2021129.36348  -1566247.98445
                  22167452.4224                                   22167448.5704
                                                                        49.2504
        35.0004
 -20326409.17648 -15817433.91046
                  21679006.9774                                   21679002.9494
                                                                        49.7504
        36.5004
 -16573819.77747 -12901668.57046
                  22491127.3674                                   22491123.3164
                                                                        47.2504
        37.0004
 -12369979.46948  -9609053.35946
                  21075732.2344                                   21075727.6724
                                                                        51.0004
        36.5004
  -3866679.98047  -2999345.99644
                  22808808.0474                                   22808801.6914
                                                                        45.7504
        28.2504
 -17721181.91047 -13762581.10545
                  22359144.1254                                   22359140.2034
                                                                        47.0004
        35.5004
  -9015000.70746  -6982762.86344
                  23260070.2894                                   23260066.2234
                                                                        41.7504
        28.0004
 09 10 18  0  3  0.0000000  0  8G02G04G10G05G13G23G29G25
  -9062848.79348  -7040211.80146
                  20652675.5864                                   20652669.5394
                                                                        53.0004
        41.7504
   -440294.05548   -334428.28145
                  22468275.2664                                   22468271.9064
                                                                        49.0004
        35.0004
 -18925650.60548 -14725933.70346
                  21945562.7814                                   21945558.7154
                                                                        48.5004
        37.2504
 -15183059.00848 -11817958.85246
                  22755779.7424                                   22755776.0944
                                                                        48.2504
        36.7504
 -10873045.70748  -8442611.46146
                  21360589.1724                                   21360584.3524
                                                                        51.5004
        36.5004
  -2297458.80947  -1776576.26244
                  23107420.7974                                   23107414.0394
                                                                        45.0004
        27.5004
 -16288884.50847 -12646505.19945
                  22631701.1334                                   22631697.2854
                                                                        46.0004
        35.0004
  -7597621.07447  -5878311.18444
                  23529788.7814                                   23529785.0394
                                                                        43.0004
        27.0004
 09 10 18  0  3 30.0000000  0  8G02G04G10G05G13G23G29G25
  -9128021.91848  -7090996.05147
                  20640273.5234                                   20640267.5554
                                                                        52.7504
        42.7504
   -434533.48048   -329939.54745
                  22469371.4924                                   22469368.0164
                                                                        49.0004
        34.5004
 -19099903.94148 -14861715.50446
                  21912403.4454                                   21912399.4304
                                                                        49.7504
        36.7504
 -15367413.66448 -11961611.80946
                  22720698.3524                                   22720694.4964
                                                                        48.0004
        36.2504
 -10950846.21148  -8503235.23046
                  21345784.5704                                   21345779.4654
                                                                        50.7504
        36.5004
  -2303212.52047  -1781059.66444
                  23106325.6564                                   23106319.2234
                                                                        44.2504
        27.0004
 -16431470.73847 -12757611.34845
                  22604567.9384                                   22604564.3094
                                                                        46.5004
        35.0004
  -7755221.43446  -6001116.62544
                  23499797.7194                                   23499795.1884
                                                                        41.0004
        26.2504
 09 10 18  0  4  0.0000000  0  8G02G04G10G05G13G23G29G25
  -9192593.89548  -7141311.85947
                  20627986.2114                                   20627980.1414
                                                                        52.2504
        42.5004
   -428431.15648   -325184.52045
                  22470533.1414                                   22470529.2114
                                                                        48.0004
        34.7504
 -19273742.48048 -14997174.09046
                  21879322.8204                                   21879319.0824
                                                                        49.0004
        37.2504
 -15551457.68448 -12105022.72346
                  22685675.8134                                   22685671.4694
                                                                        48.5004
        36.7504
 -11027960.23448  -8563324.07446
                  21331109.6414                                   21331105.2974
                                                                        51.5004
        36.2504
  -2308524.95747  -1785199.22744
                  23105314.6094                                   23105308.4304
                                                                        45.5004
        27.0004
 -16573515.91847 -12868295.89545
                  22577537.5784                                   22577533.7194
                                                                        45.0004
        35.2504
  -7912375.19546  -6123574.01244
                  23469892.2894                                   23469889.0514
                                                                        40.7504
        25.2504
 09 10 18  0  4 30.0000000  0  8G02G04G10G05G13G23G29G25
  -9256564.27048  -7191158.89547
                  20615812.8594                                   20615806.7274
                                                                        52.2504
        42.5004
   -421988.46948   -320164.25045
                  22471758.8984                                   22471755.2774
                                                                        48.7504
        34.7504
 -19447163.45748 -15132307.31646
                  21846322.0554                                   21846318.3634
                                                                        49.5004
        37.0004
 -15735187.94148 -12248189.12946
                  22650713.3754                                   22650709.4304
                                                                        48.5004
        36.7504
 -11104388.02048  -8622878.19546
                  21316566.0634                                   21316561.8794
                                                                        50.7504
        36.5004
  -2313397.88347  -1788996.28544
                  23104388.1804                                   23104380.9384
                                                                        45.2504
        27.7504
 -16715017.00847 -12978556.47345
                  22550611.0004                                   22550607.0204
                                                                        47.0004
        35.2504
  -8069079.77046  -6245681.47744
                  23440072.2194                                   23440068.5274
                                                                        41.0004
        25.7504
 09 10 18  0  5  0.0000000  0  8G02G04G10G05G13G23G29G25
  -9319932.61748  -7240536.81647
                  20603754.2274                                   20603748.1484
                                                                        51.7504
        42.0004
   -415207.10947   -314880.10245
                  22473049.1644                                   22473046.3554
                                                                        47.7504
        34.2504
 -19620164.20748 -15267113.07446
                  21813400.7584                                   21813396.9844
                                                                        49.7504
        36.7504
 -15918601.73048 -12391108.93046
                  22615811.2114                                   22615807.0084
                                                                        49.0004
        36.5004
 -11180129.20348  -8681897.29346
                  21302153.4224                                   21302148.7894
                                                                        51.0004
        37.0004
  -2317833.06647  -1792452.28144
                  23103544.1564                                   23103537.1764
                                                                        44.7504
        27.5004
 -16855971.53547 -13088391.15645
                  22523787.8674                                   22523784.4264
                                                                        47.2504
        35.7504
  -8225332.02746  -6367436.44944
                  23410339.0704                                   23410334.9104
                                                                        41.7504
        25.7504
 09 10 18  0  5 30.0000000  0  8G02G04G10G05G13G23G29G25
  -9382699.71548  -7289446.24647
                  20591809.9454                                   20591803.3364
                                                                        51.7504
        42.2504
   -408088.65248   -309333.25445
                  22474404.2894                                   22474400.6564
                                                                        48.0004
        34.5004
 -19792742.73047 -15401589.83246
                  21780560.2424                                   21780556.4924
                                                                        47.7504
        37.5004
 -16101697.15648 -12533780.66046
                  22580968.9064                                   22580964.6254
                                                                        48.7504
        36.7504
 -11255184.09848  -8740381.62146
                  21287870.8674                                   21287866.1414
                                                                        50.7504
        36.2504
  -2321832.68047  -1795568.87144
                  23102782.2814                                   23102775.9734
                                                                        45.7504
        29.0004
 -16996377.53147 -13197798.42245
                  22497069.4614                                   22497065.9614
                                                                        45.5004
        35.5004
  -8381129.02746  -6488836.66844
                  23380692.0704                                   23380687.8014
                                                                        41.7504
        26.0004
 09 10 18  0  6  0.0000000  0  8G02G04G10G05G13G23G29G25
  -9444867.93048  -7337889.00047
                  20579979.6954                                   20579973.7154
                                                                        51.5004
        42.2504
   -400637.40248   -303527.09445
                  22475821.9844                                   22475818.5514
                                                                        48.0004
        35.0004
 -19964899.17648 -15535737.71146
                  21747799.7424                                   21747796.4304
                                                                        48.7504
        37.5004
 -16284474.55548 -12676204.59446
                  22546187.6414                                   22546183.3204
                                                                        48.2504
        37.2504
 -11329555.60948  -8798333.44546
                  21273718.1174                                   21273713.6254
                                                                        50.7504
        36.2504
  -2325401.26647  -1798349.58244
                  23102103.5864                                   23102097.3164
                                                                        43.0004
        28.2504
 -17136235.23847 -13306778.44945
                  22470455.6334                                   22470451.7894
                                                                        45.5004
        35.5004
  -8536470.86747  -6609882.23444
                  23351131.3284                                   23351127.1134
                                                                        42.7504
        28.0004
 09 10 18  0  6 30.0000000  0  8G02G04G10G05G13G23G29G25
  -9506438.12948  -7385865.77747
                  20568263.3834                                   20568257.2384
                                                                        52.0004
        43.0004
   -392855.59048   -297463.34845
                  22477302.4924                                   22477299.1484
                                                                        48.5004
        34.5004
 -20136632.09048 -15669555.55146
                  21715120.5944                                   21715116.4964
                                                                        49.0004
        37.5004
 -16466932.05147 -12818379.22346
                  22511466.8054                                   22511462.4454
                                                                        47.7504
        36.7504
 -11403244.31648  -8855753.22745
                  21259695.5864                                   21259690.8594
                                                                        50.7504
        35.5004
  -2328542.18747  -1800797.05144
                  23101505.6484                                   23101499.4344
                                                                        44.0004
        27.7504
 -17275543.44947 -13415330.29745
                  22443946.1414                                   22443941.8324
                                                                        46.2504
        35.2504
  -8691355.25447  -6730571.32444
                  23321657.7274                                   23321654.0084
                                                                        42.5004
        27.5004
 09 10 18  0  7  0.0000000  0  8G02G04G10G05G13G23G29G25
  -9567412.48848  -7433378.25847
                  20556660.0234                                   20556654.0594
                                                                        51.5004
        42.5004
   -384747.28148   -291145.19945
                  22478846.0554                                   22478842.5084
                                                                        48.0004
        33.7504
 -20307941.10548 -15803043.08246
                  21682521.2974                                   21682517.3674
                                                                        49.5004
        37.7504
 -16649069.55948 -12960304.51646
                  22476807.3674                                   22476803.1954
                                                                        48.5004
        37.7504
 -11476253.19548  -8912643.27746
                  21245802.3754                                   21245797.9104
                                                                        49.7504
        36.7504
  -2331259.77347  -1802914.65244
                  23100988.7504                                   23100982.1254
                                                                        43.5004
        27.2504
 -17414302.00447 -13523453.84045
                  22417541.3204                                   22417537.4454
                                                                        47.5004
        35.5004
  -8845782.00046  -6850903.81244
                  23292271.3914                                   23292267.7704
                                                                        41.5004
        28.2504
 09 10 18  0  7 30.0000000  0  8G02G04G10G05G13G23G29G25
  -9627788.05148  -7480424.14547
                  20545171.4304                                   20545165.1524
                                                                        51.5004
        42.7504
   -376311.50447   -284571.87145
                  22480450.7584                                   22480447.6294
                                                                        47.7504
        34.5004
 -20478820.96548 -15936196.21546
                  21650004.0864                                   21650000.2854
                                                                        49.5004
        37.7504
 -16830881.79747 -13101976.36346
                  22442209.2734                                   22442205.1884
                                                                        47.2504
        37.0004
 -11548579.53548  -8969001.45346
                  21232039.5784                                   21232034.6994
                                                                        50.5004
        37.0004
  -2333553.11347  -1804701.68744
                  23100552.1334                                   23100546.4384
                                                                        43.2504
        27.5004
 -17552505.49648 -13631144.87145
                  22391242.0554                                   22391237.8794
                                                                        48.5004
        35.7504
  -8999745.49647  -6970875.33244
                  23262972.5234                                   23262969.1724
                                                                        42.0004
        27.5004
 09 10 18  0  8  0.0000000  0  8G02G04G10G05G13G23G29G25
  -9687567.57448  -7527005.59847
                  20533795.5554                                   20533789.3324
                                                                        52.0004
        42.7504
   -367551.87947   -277746.21145
                  22482118.1334                                   22482114.7344
                                                                        47.0004
        34.5004
 -20649271.34848 -16069014.68446
                  21617568.5864                                   21617565.0554
                                                                        49.2504
        38.0004
 -17012368.82447 -13243394.78546
                  22407673.8204                                   22407669.8914
                                                                        47.5004
        36.7504
 -11620225.71948  -9024829.65646
                  21218405.5554                                   21218401.0904
                                                                        50.0004
        36.7504
  -2335426.54747  -1806161.52344
                  23100195.6254                                   23100189.6524
                                                                        44.0004
        28.5004
 -17690154.05547 -13738403.47746
                  22365048.5704                                   22365044.4184
                                                                        46.7504
        36.0004
  -9153245.12946  -7090485.37544
                  23233762.0704                                   23233758.6724
                                                                        41.2504
        27.5004
 09 10 18  0  8 30.0000000  0  8G02G04G10G05G13G23G29G25
  -9746751.84448  -7573123.20347
                  20522533.1254                                   20522526.9104
                                                                        50.7504
        43.0004
   -358471.05948   -270670.27045
                  22483846.1884                                   22483843.0084
                                                                        48.7504
        34.0004
 -20819290.27748 -16201496.94546
                  21585214.8524                                   21585211.1134
                                                                        48.7504
        38.0004
 -17193528.57047 -13384558.19146
                  22373200.2664                                   22373196.0314
                                                                        47.5004
        38.5004
 -11691192.93448  -9080128.79746
                  21204900.8984                                   21204896.3484
                                                                        50.5004
        36.0004
  -2336882.82847  -1807296.30144
                  23099918.9534                                   23099912.1994
                                                                        44.0004
        28.0004
 -17827246.18448 -13845228.50446
                  22338960.6724                                   22338956.9264
                                                                        48.0004
        36.5004
  -9306279.07046  -7209732.61744
                  23204641.1954                                   23204637.0474
                                                                        41.5004
        26.2504
 09 10 18  0  9  0.0000000  0  8G02G04G10G05G13G23G29G25
  -9805340.69548  -7618776.86347
                  20511384.1884                                   20511378.0234
                                                                        50.7504
        42.5004
   -349070.09448   -263344.88745
                  22485634.9774                                   22485631.4494
                                                                        48.2504
        34.5004
 -20988875.59848 -16333641.35546
                  21552943.8134                                   21552939.9024
                                                                        49.5004
        37.7504
 -17374358.68048 -13525464.74246
                  22338789.3834                                   22338785.1484
                                                                        48.2504
        37.2504
 -11761480.84448  -9134898.59846
                  21191525.7194                                   21191521.1604
                                                                        50.5004
        36.2504
  -2337923.52747  -1808107.20344
                  23099720.7034                                   23099713.6604
                                                                        43.0004
        27.2504
 -17963779.39548 -13951618.02046
                  22312979.3984                                   22312975.5234
                                                                        48.2504
        36.0004
  -9458843.88747  -7328614.27344
                  23175608.8754                                   23175605.0204
                                                                        42.5004
        25.2504
 09 10 18  0  9 30.0000000  0  8G02G04G10G05G13G23G29G25
  -9863334.83648  -7663967.09447
                  20500348.0474                                   20500342.1884
                                                                        51.0004
        42.2504
   -339350.95347   -255771.55145
                  22487484.3524                                   22487480.9844
                                                                        47.5004
        33.0004
 -21158024.81248 -16465445.93046
                  21520755.9534                                   21520751.8714
                                                                        49.5004
        37.7504
 -17554856.86347 -13666112.64846
                  22304441.6724                                   22304437.6254
                                                                        47.0004
        37.5004
 -11831090.51648  -9189139.90646
                  21178279.2814                                   21178274.5514
                                                                        50.7504
        36.2504
  -2338551.51647  -1808596.53544
                  23099601.3054                                   23099594.2664
                                                                        43.0004
        27.0004
 -18099752.02748 -14057570.70346
                  22287105.1094                                   22287101.0084
                                                                        49.0004
        36.7504
  -9610937.52047  -7447128.75844
                  23146666.7424                                   23146663.2234
                                                                        42.5004
        27.2504
 09 10 18  0 10  0.0000000  0  8G02G04G10G05G13G23G29G25
  -9920734.32848  -7708693.97747
                  20489425.5864                                   20489418.6484
                                                                        52.2504
        42.2504
   -329315.75448   -247951.93745
                  22489394.2194                                   22489390.5554
                                                                        48.2504
        33.2504
 -21326736.51648 -16596909.58646
                  21488650.8444                                   21488646.9614
                                                                        49.7504
        37.5004
 -17735021.86747 -13806500.93746
                  22270157.3134                                   22270153.4494
                                                                        47.2504
        37.5004
 -11900022.51248  -9242853.14146
                  21165161.8984                                   21165157.2664
                                                                        50.5004
        36.2504
  -2338769.39147  -1808766.32044
                  23099559.2974                                   23099553.2074
                                                                        43.0004
        27.7504
 -18235162.34848 -14163085.23845
                  22261337.0314                                   22261332.7704
                                                                        49.0004
        35.7504
  -9762557.47347  -7565274.11744
                  23117814.2894                                   23117810.5434
                                                                        43.0004
        27.5004
 09 10 18  0 10 30.0000000  0  8G02G04G10G05G13G23G29G25
  -9977539.79348  -7752958.00047
                  20478615.7274                                   20478609.4614
                                                                        51.2504
        42.0004
   -318966.34848   -239887.46945
                  22491363.4224                                   22491360.0904
                                                                        48.0004
        33.7504
 -21495007.95748 -16728030.18046
                  21456630.0084                                   21456626.3244
                                                                        50.0004
        38.0004
 -17914850.77047 -13946627.32446
                  22235936.7504                                   22235933.2034
                                                                        47.7504
        37.5004
 -11968277.64148  -9296038.96546
                  21152173.4844                                   21152168.9924
                                                                        51.0004
        36.0004
  -2338579.41847  -1808618.29344
                  23099596.2664                                   23099589.4454
                                                                        43.2504
        27.5004
 -18370008.26248 -14268159.98046
                  22235676.5004                                   22235672.5474
                                                                        48.2504
        36.5004
  -9913701.40247  -7683048.62544
                  23089052.6564                                   23089048.6254
                                                                        44.0004
        28.5004
 09 10 18  0 11  0.0000000  0  9G02G04G10G05G13G23G29G16G25
 -10033758.50848  -7796764.84847
                  20467917.9224                                   20467911.4774
                                                                        51.7504
        42.2504
   -308311.39547   -231584.94945
                  22493391.0784                                   22493387.5904
                                                                        46.5004
        33.7504
 -21662844.03548 -16858811.52346
                  21424692.0864                                   21424688.3204
                                                                        49.0004
        38.5004
 -18094348.28148 -14086495.51246
                  22201779.6254                                   22201775.1884
                                                                        48.2504
        36.7504
 -12035862.98848  -9348702.86346
                  21139312.5634                                   21139307.6724
                                                                        51.2504
        36.5004
  -2337990.44547  -1808159.38744
                  23099707.2344                                   23099701.4414
                                                                        42.2504
        26.0004
 -18504294.87948 -14372798.89846
                  22210122.3834                                   22210118.3444
                                                                        48.0004
        36.0004
   1374435.01256   1107563.03953
                  24216494.1024                                   24216489.8794
                                                                        40.2504
        20.5004
 -10064373.61747  -7800455.53944
                  23060381.1804                                   23060376.7894
                                                                        43.5004
        27.5004
 09 10 18  0 11 30.0000000  0  9G02G04G10G05G13G23G29G16G25
 -10089391.25848  -7840115.10547
                  20457331.2034                                   20457325.0704
                                                                        52.5004
        42.0004
   -297353.07048   -223046.01645
                  22495476.8054                                   22495472.9804
                                                                        48.0004
        33.2504
 -21830242.78548 -16989252.10546
                  21392836.6414                                   21392832.8714
                                                                        49.0004
        38.7504
 -18273512.32048 -14226103.82446
                  22167685.8984                                   22167681.2734
                                                                        49.0004
        38.0004
 -12102779.54748  -9400845.64146
                  21126578.5084                                   21126573.6724
                                                                        50.5004
        36.0004
  -2337005.17247  -1807391.66444
                  23099895.5554                                   23099888.9654
                                                                        43.5004
        26.5004
 -18638019.88747 -14477000.20345
                  22184675.7274                                   22184671.5594
                                                                        47.7504
        35.7504
   1218726.98846    986232.15243
                  24186863.5474                                   24186859.0904
                                                                        41.2504
        22.0004
 -10214571.74647  -7917493.01244
                  23031799.5314                                   23031795.2504
                                                                        44.5004
        27.7504
 09 10 18  0 12  0.0000000  0  9G02G04G10G05G13G23G29G16G25
  -8569019.85248  -6655410.17647
                  20746648.5234                                   20746642.0434
                                                                        52.0004
        42.5004
   1289322.93847   1013324.85545
                  22797411.1094                                   22797407.3794
                                                                        47.7504
        33.5004
 -20421779.78548 -15891748.48046
                  21660858.4304                                   21660854.7774
                                                                        49.7504
        38.7504
 -16876918.39548 -13137848.83646
                  22433448.9694                                   22433444.3554
                                                                        48.7504
        38.0004
 -10593609.27748  -8224868.80546
                  21413764.1804                                   21413759.6564
                                                                        50.7504
        36.0004
   -760209.52347   -578719.74644
                  23399949.6804                                   23399943.4614
                                                                        43.0004
        27.7504
 -17195760.93448 -13353162.05146
                  22459128.0474                                   22459124.2704
                                                                        48.7504
        37.0004
   2638916.71546   2092873.55143
                  24457117.0784                                   24457112.2344
                                                                        41.5004
        22.0004
  -8788872.09447  -6806558.19144
                  23303100.6414                                   23303096.1374
                                                                        43.2504
        26.0004
 09 10 18  0 12 30.0000000  0  9G02G04G10G05G13G23G29G16G25
  -8623488.06248  -6697852.96147
                  20736283.1884                                   20736277.1024
                                                                        52.5004
        42.0004
   1300876.44147   1022327.53545
                  22799609.2894                                   22799605.9694
                                                                        47.2504
        33.0004
 -20588303.77748 -16021507.41446
                  21629170.1254                                   21629166.4224
                                                                        49.5004
        38.5004
 -17055415.65648 -13276937.60546
                  22399482.0084                                   22399477.6884
                                                                        49.5004
        38.0004
 -10659196.80948  -8275975.96146
                  21401283.5084                                   21401278.6254
                                                                        50.7504
        36.5004
   -758445.30147   -577345.05144
                  23400285.0474                                   23400279.1524
                                                                        44.5004
        27.2504
 -17328364.51648 -13456489.52046
                  22433894.4694                                   22433890.9924
                                                                        49.2504
        36.5004
   2484157.10246   1972281.65643
                  24427667.3754                                   24427662.9264
                                                                        41.5004
        22.2504
  -8938121.59447  -6922856.49244
                  23274699.0704                                   23274695.5664
                                                                        43.2504
        27.5004
 09 10 18  0 13  0.0000000  0  9G02G04G10G05G13G23G29G16G25
  -8677371.44948  -6739839.91447
                  20726029.4454                                   20726023.6024
                                                                        53.0004
        42.0004
   1312727.60247   1031562.14545
                  22801864.3834                                   22801861.4184
                                                                        46.7504
        33.2504
 -20754384.05148 -16150920.59846
                  21597565.9774                                   21597561.8834
                                                                        49.7504
        38.5004
 -17233573.36348 -13415761.74246
                  22365579.6804                                   22365576.0634
                                                                        49.2504
        38.2504
 -10724117.80548  -8326563.76246
                  21388929.4924                                   21388924.6724
                                                                        50.5004
        36.2504
   -756291.65647   -575666.89544
                  23400695.6024                                   23400688.6844
                                                                        45.5004
        27.0004
 -17460401.05548 -13559375.12546
                  22408768.9224                                   22408764.6254
                                                                        48.2504
        36.2504
   2329878.98046   1852064.99243
                  24398308.9694                                   24398304.5944
                                                                        40.2504
        22.0004
  -9086889.89847  -7038779.81244
                  23246389.6334                                   23246385.9384
                                                                        43.7504
        27.0004
 09 10 18  0 13 30.0000000  0  9G02G04G10G05G13G23G29G16G25
  -8730666.80548  -6781368.87147
                  20715887.8754                                   20715881.8404
                                                                        52.5004
        42.5004
   1324879.21947   1041030.94945
                  22804176.9224                                   22804173.8014
                                                                        47.2504
        33.0004
 -20920013.97348 -16279982.92246
                  21566047.5704                                   21566043.9304
                                                                        49.5004
        38.5004
 -17411384.89548 -13554316.13346
                  22331743.1414                                   22331739.2894
                                                                        49.2504
        38.5004
 -10788368.55148  -8376629.27346
                  21376702.7114                                   21376698.1094
                                                                        50.5004
        36.0004
   -753747.25047   -573684.21544
                  23401180.1174                                   23401172.9614
                                                                        46.0004
        27.5004
 -17591864.48847 -13661814.16445
                  22383751.8134                                   22383748.3244
                                                                        47.0004
        35.7504
   2176089.18046   1732228.82843
                  24369043.5784                                   24369039.5044
                                                                        39.7504
        20.0004
  -9235170.09047  -7154322.80544
                  23218172.9144                                   23218168.9844
                                                                        44.5004
        27.7504
 09 10 18  0 14  0.0000000  0  9G02G04G10G05G13G23G29G16G25
  -8783370.25448  -6822436.52346
                  20705858.5554                                   20705852.4184
                                                                        52.7504
        41.7504
   1337333.16047   1050735.28145
                  22806547.2584                                   22806543.5904
                                                                        47.0004
        33.2504
 -21085187.84448 -16408689.93446
                  21534616.4694                                   21534612.4534
                                                                        50.5004
        38.7504
 -17588844.30548 -13692596.18446
                  22297973.6564                                   22297969.6914
                                                                        50.0004
        38.5004
 -10851946.27048  -8426170.35246
                  21364604.1414                                   21364599.1844
                                                                        51.0004
        36.0004
   -750809.99247   -571395.43444
                  23401738.1954                                   23401731.4494
                                                                        45.0004
        24.7504
 -17722749.60248 -13763802.56245
                  22358845.3524                                   22358842.0824
                                                                        48.2504
        35.2504
   2022794.07846   1612778.14543
                  24339871.8834                                   24339867.8364
                                                                        41.0004
        19.5004
  -9382956.32047  -7269480.88744
                  23190050.6954                                   23190045.8524
                                                                        44.7504
        27.7504
 09 10 18  0 14 30.0000000  0  9G02G04G10G05G13G23G29G16G25
  -8835483.88748  -6863044.55946
                  20695941.8674                                   20695936.0164
                                                                        52.7504
        41.7504
   1350085.91047   1060672.48445
                  22808973.8594                                   22808970.0474
                                                                        47.7504
        32.2504
 -21249904.55948 -16537040.64846
                  21503271.3984                                   21503267.9104
                                                                        50.5004
        39.5004
 -17765950.90248 -13830601.43446
                  22264271.5084                                   22264267.3364
                                                                        50.2504
        38.0004
 -10914852.89148  -8475188.50446
                  21352633.3834                                   21352628.6214
                                                                        50.7504
        36.2504
   -747483.97347   -568803.72743
                  23402371.2424                                   23402364.5204
                                                                        44.5004
        22.2504
 -17853055.46948 -13865339.58646
                  22334049.0554                                   22334045.1804
                                                                        49.0004
        36.0004
   1869994.92646   1493713.88743
                  24310795.9924                                   24310791.3754
                                                                        39.7504
        19.2504
  -9530247.46947  -7384253.19944
                  23162021.8054                                   23162017.8484
                                                                        44.5004
        28.5004
 09 10 18  0 15  0.0000000  0  9G02G04G10G05G13G23G29G16G25
  -8887007.30148  -6903192.66046
                  20686137.5554                                   20686130.7194
                                                                        52.7504
        41.5004
   1363136.93847   1070842.09445
                  22811457.7424                                   22811453.8984
                                                                        46.0004
        31.5004
 -21414161.44948 -16665033.01246
                  21472014.7814                                   21472010.8444
                                                                        50.5004
        38.5004
 -17942701.50048 -13968329.28546
                  22230637.3674                                   22230633.1914
                                                                        50.2504
        38.5004
 -10977088.14148  -8523683.50845
                  21340790.5084                                   21340785.7974
                                                                        50.0004
        35.5004
   -743770.62947   -565910.19944
                  23403077.8364                                   23403071.5314
                                                                        44.2504
        24.7504
 -17982779.66048 -13966423.37146
                  22309363.3524                                   22309359.2234
                                                                        49.0004
        36.0004
   1717695.20746   1375038.83243
                  24281813.8674                                   24281809.7504
                                                                        41.2504
        19.2504
  -9677040.19547  -7498637.11344
                  23134088.0084                                   23134083.6334
                                                                        45.2504
        27.5004
 09 10 18  0 15 30.0000000  0  9G02G04G10G05G13G23G29G16G25
  -8937940.94548  -6942881.18047
                  20676444.8674                                   20676438.6644
                                                                        53.0004
        42.0004
   1376484.35247   1081242.60945
                  22813997.8914                                   22813994.2114
                                                                        45.7504
        32.0004
 -21577956.31248 -16792665.39546
                  21440845.6564                                   21440841.9734
                                                                        50.2504
        38.5004
 -18119093.71148 -14105777.77746
                  22197070.9384                                   22197066.7304
                                                                        50.2504
        38.2504
 -11038652.98048  -8571656.11746
                  21329075.4774                                   21329070.7664
                                                                        50.5004
        36.0004
   -739672.12547   -562716.59444
                  23403857.8524                                   23403851.2344
                                                                        45.2504
        26.0004
 -18111920.28948 -14067052.43745
                  22284788.5314                                   22284784.5204
                                                                        48.5004
        35.7504
   1565897.55547   1256754.93843
                  24252928.4924                                   24252922.5944
                                                                        42.5004
        19.2504
  -9823331.97747  -7612630.68444
                  23106249.7114                                   23106244.8094
                                                                        46.0004
        28.5004
 09 10 18  0 16  0.0000000  0 10G02G04G10G05G13G23G29G16G07G25
  -8988288.19948  -6982112.71947
                  20666864.1884                                   20666858.1724
                                                                        52.2504
        42.2504
   1390123.21147   1091870.27745
                  22816592.9144                                   22816589.7544
                                                                        45.7504
        32.2504
 -21741289.15648 -16919937.64846
                  21409764.4064                                   21409760.9574
                                                                        50.7504
        39.0004
 -18295128.03948 -14242947.31246
                  22163572.6334                                   22163568.5434
