     2.11           OBSERVATION DATA    G (GPS)             RINEX VERSION / TYPE
teqc  2019Feb25                         20221121 12:28:41UTCPGM / RUN BY / DATE
OSX ker:10.11.6|Core i5|gcc 4.3 -m64|OSX ker:10.10+|=+      COMMENT
BIT 2 OF LLI FLAGS DATA COLLECTED UNDER A/S CONDITION       COMMENT
04712971                                                    MARKER NAME
2971                                                        MARKER NUMBER
-Unknown-           -Unknown-                               OBSERVER / AGENCY
0220400471          TRIMBLE R7          2.30                REC # / TYPE / VERS
-Unknown-           TRM39105.00     NONE                    ANT # / TYPE
  1449459.0497 -1709242.8172  5952442.0169                  APPROX POSITION XYZ
        0.0000        0.0000        0.0000                  ANTENNA: DELTA H/E/N
     1     1                                                WAVELENGTH FACT L1/2
    20    L1    L2    L5    L6    L7    L8    C1    P1    C2# / TYPES OF OBSERV
          P2    C5    C6    C7    C8    S1    S2    S5    S6# / TYPES OF OBSERV
          S7    S8                                          # / TYPES OF OBSERV
    30.0000                                                 INTERVAL
    15                                                      LEAP SECONDS
Forced Modulo Decimation to 30 seconds                      COMMENT
 SNR is mapped to RINEX snr flag value [0-9]                COMMENT
  L1 & L2: min(max(int(snr_dBHz/6), 0), 9)                  COMMENT
teqc edited: Beidou # 1 - 37 excluded                       COMMENT
  2009    10    24    23    11    0.0000000     GPS         TIME OF FIRST OBS
                                                            END OF HEADER
 09 10 24 23 11  0.0000000  0  8G02G04G05G10G13G23G25G29
   -141879.59458    -71894.64557
                  20557885.6094                                   20557880.0394
                                                                        52.5004
        43.0004
    -27939.59058    -15626.55956
                  21717472.9144                                   21717469.7344
                                                                        50.5004
        38.7504
   -279854.04357   -140908.34455
                  23622507.6954                                   23622504.0084
                                                                        45.7504
        32.5004
   -272857.46957   -143086.51255
                  22696412.9924                                   22696409.8524
                                                                        46.5004
        33.2504
   -163763.36758    -82936.96956
                  21395386.0234                                   21395381.5204
                                                                        50.5004
        37.2504
    -53992.56258    -28016.94155
                  22442637.2504                                   22442630.8484
                                                                        48.5004
        33.7504
   -246788.60557   -127828.36754
                  24208432.9924                                   24208429.9804
                                                                        43.7504
        27.0004
   -238874.26257   -121625.64855
                  23183288.3054                                   23183285.4924
                                                                        44.5004
        32.7504
 09 10 24 23 11 30.0000000  0  8G02G04G05G10G13G23G25G29
   -247564.51648   -154246.50847
                  20537774.2424                                   20537768.6334
                                                                        52.2504
        43.2504
    -51574.10548    -34043.07846
                  21712975.4924                                   21712972.2734
                                                                        50.0004
        38.2504
   -488155.76247   -303221.39545
                  23582869.0084                                   23582865.2074
                                                                        45.0004
        30.2504
   -474903.07447   -300524.63345
                  22657965.4064                                   22657962.6644
                                                                        45.5004
        33.0004
   -285399.97748   -177718.72746
                  21372239.1334                                   21372234.9654
                                                                        49.7504
        37.0004
    -95454.64848    -60324.96945
                  22434747.1724                                   22434741.3164
                                                                        48.5004
        33.0004
   -434200.51247   -273863.44544
                  24172769.3054                                   24172766.6454
                                                                        43.0004
        25.5004
   -415853.94947   -259531.76245
                  23149610.2034                                   23149607.0944
                                                                        44.5004
        32.5004
 09 10 24 23 12  0.0000000  0  8G02G04G05G10G13G23G25G29
   -352717.80548   -236184.12147
                  20517764.3914                                   20517758.6024
                                                                        52.5004
        43.5004
    -74846.25448    -52177.23446
                  21708547.3834                                   21708543.5274
                                                                        50.7504
        38.7504
   -696305.36347   -465415.83245
                  23543259.4924                                   23543256.0664
                                                                        43.7504
        30.7504
   -676693.10247   -457763.60545
                  22619566.1484                                   22619563.0784
                                                                        46.5004
        33.7504
   -406423.30548   -272022.71546
                  21349209.0944                                   21349204.8444
                                                                        49.7504
        36.5004
   -136435.01647    -92257.69945
                  22426948.5864                                   22426943.0044
                                                                        47.7504
        32.7504
   -621356.31247   -419699.02044
                  24137154.6884                                   24137151.8404
                                                                        42.2504
        24.5004
   -592459.87147   -397146.62945
                  23116002.7504                                   23116000.2504
                                                                        45.2504
        32.7504
 09 10 24 23 12 30.0000000  0  8G02G04G05G10G13G23G25G29
   -457047.91048   -317480.32047
                  20497910.8594                                   20497905.2624
                                                                        52.5004
        43.5004
    -97466.56648    -69803.47346
                  21704242.5164                                   21704239.4064
                                                                        50.2504
        38.5004
   -904009.79747   -627263.42245
                  23503734.7424                                   23503731.0084
                                                                        44.0004
        31.0004
   -877934.13347   -614574.77045
                  22581271.7114                                   22581267.9064
                                                                        46.5004
        34.0004
   -526541.23048   -365621.14546
                  21326351.4064                                   21326347.5204
                                                                        50.2504
        37.2504
   -176644.40648   -123589.65645
                  22419297.1094                                   22419291.0394
                                                                        48.0004
        32.2504
   -807961.66846   -565105.60543
                  24101644.4454                                   24101641.5554
                                                                        40.2504
        23.0004
   -768397.92247   -534241.02345
                  23082523.0784                                   23082519.8204
                                                                        45.0004
        32.5004
 09 10 24 23 13  0.0000000  0  8G02G04G05G10G13G23G25G29
   -560458.35248   -398059.87147
                  20478232.5944                                   20478227.0164
                                                                        52.0004
        43.0004
   -119340.91848    -86848.44146
                  21700080.1174                                   21700077.1414
                                                                        50.7504
        38.5004
  -1111171.25047   -788687.90245
                  23464312.8674                                   23464310.2894
                                                                        43.5004
        33.0004
  -1078528.18447   -770881.79345
                  22543099.5394                                   22543095.8954
                                                                        47.2504
        34.0004
   -645656.95748   -458438.44546
                  21303684.6024                                   21303680.7544
                                                                        49.5004
        37.0004
   -215988.57448   -154247.39545
                  22411810.2664                                   22411804.0634
                                                                        48.2504
        32.2504
   -993917.93446   -710006.38743
                  24066257.2274                                   24066255.1024
                                                                        39.0004
        20.0004
   -943570.02047   -670738.57845
                  23049189.0704                                   23049185.1454
                                                                        46.0004
        33.5004
 09 10 24 23 13 30.0000000  0  8G02G04G05G10G13G23G25G29
   -662910.52348   -477892.70347
                  20458736.4454                                   20458730.4144
                                                                        52.0004
        42.7504
   -140432.89848   -103283.75446
                  21696066.5234                                   21696063.0434
                                                                        50.7504
        38.5004
  -1317749.31247   -949657.77045
                  23425002.3284                                   23424999.5234
                                                                        44.5004
        32.7504
  -1278434.58647   -926653.00445
                  22505058.3984                                   22505055.7734
                                                                        47.5004
        34.0004
   -763731.88748   -550444.73046
                  21281214.9454                                   21281210.9924
                                                                        50.0004
        36.7504
   -254431.34048   -184202.77045
                  22404495.0314                                   22404488.8404
                                                                        48.0004
        32.5004
  -1179184.50846   -854369.79743
                  24031002.8594                                   24030999.6134
                                                                        40.0004
        20.2504
  -1117935.98847   -806608.05945
                  23016007.7894                                   23016004.6604
                                                                        45.0004
        32.5004
 09 10 24 23 14  0.0000000  0  8G02G04G05G10G13G23G25G29
   -764391.28948   -556968.61747
                  20439425.2894                                   20439419.6374
                                                                        52.0004
        43.5004
   -160731.75448   -119101.05546
                  21692203.5084                                   21692200.3134
                                                                        51.2504
        38.0004
  -1523729.18447  -1110161.53145
                  23385806.0314                                   23385802.7854
                                                                        45.7504
        33.7504
  -1477638.73447  -1081876.96545
                  22467150.9454                                   22467147.5984
                                                                        47.0004
        33.7504
   -880753.04348   -641629.95346
                  21258946.9534                                   21258942.9654
                                                                        50.2504
        37.0004
   -291962.26647   -213447.65645
                  22397352.9844                                   22397347.0354
                                                                        46.7504
        31.2504
  -1363745.32447   -998183.28543
                  23995882.4844                                   23995878.4734
                                                                        42.5004
        20.7504
  -1291480.25447   -941837.20345
                  22982983.0314                                   22982980.1024
                                                                        44.5004
        32.7504
 09 10 24 23 14 30.0000000  0  8G02G04G05G10G13G23G25G29
   -864902.60548   -635289.14147
                  20420298.6804                                   20420293.0904
                                                                        52.7504
        43.2504
   -180241.41448   -134303.41046
                  21688491.1334                                   21688488.4224
                                                                        51.0004
        38.7504
  -1729110.84047  -1270199.10945
                  23346723.1564                                   23346719.8164
                                                                        45.7504
        33.5004
  -1676140.26247  -1236553.45745
                  22429377.4454                                   22429373.7774
                                                                        46.7504
        33.5004
   -996721.59048   -731995.03946
                  21236878.7504                                   21236874.1524
                                                                        50.2504
        37.0004
   -328585.51647   -241985.26245
                  22390383.8364                                   22390377.8674
                                                                        47.7504
        31.7504
  -1547599.98047  -1141446.55143
                  23960895.5784                                   23960891.7544
                                                                        43.5004
        22.2504
  -1464202.53147  -1076425.87145
                  22950114.5784                                   22950112.1134
                                                                        43.5004
        33.0004
 09 10 24 23 15  0.0000000  0  8G02G04G05G10G13G23G25G29
   -964450.97748   -712859.30547
                  20401355.3054                                   20401349.5704
                                                                        52.2504
        42.7504
   -198971.20348   -148898.03946
                  21684926.8914                                   21684923.7624
                                                                        50.7504
        38.5004
  -1933899.64847  -1429774.76645
                  23307753.1564                                   23307749.5004
                                                                        46.5004
        32.5004
  -1873944.30947  -1390686.49645
                  22391736.3364                                   22391733.2464
                                                                        47.0004
        33.5004
  -1111643.75448   -821544.70746
                  21215009.7894                                   21215005.4924
                                                                        50.2504
        37.0004
   -364310.32447   -269822.75845
                  22383585.7194                                   22383578.9964
                                                                        46.7504
        30.0004
  -1730753.02347  -1284163.18443
                  23926043.1334                                   23926039.6684
                                                                        42.7504
        22.7504
  -1636107.44947  -1210377.64845
                  22917402.6174                                   22917399.4064
                                                                        44.7504
        32.5004
 09 10 24 23 15 30.0000000  0  8G02G04G05G10G13G23G25G29
  -1063037.22348   -789679.76647
                  20382594.9064                                   20382589.4774
                                                                        52.0004
        43.5004
   -216923.62948   -162886.93446
                  21681510.6724                                   21681507.6254
                                                                        49.7504
        38.0004
  -2138094.72347  -1588887.85245
                  23268895.6484                                   23268891.7154
                                                                        45.0004
        31.2504
  -2071049.69947  -1544275.11745
                  22354229.0234                                   22354225.5824
                                                                        47.5004
        34.5004
  -1225520.40248   -910279.68446
                  21193339.6094                                   21193335.4304
                                                                        50.0004
        36.7504
   -399139.54747   -296962.39145
                  22376957.7734                                   22376951.2344
                                                                        47.5004
        30.2504
  -1913202.84047  -1426331.82444
                  23891323.3284                                   23891320.6334
                                                                        42.0004
        25.2504
  -1807194.28147  -1343691.98845
                  22884845.7504                                   22884843.0744
                                                                        44.2504
        33.5004
 09 10 24 23 16  0.0000000  0  8G02G04G05G10G13G23G25G29
  -1160684.28548   -865768.37147
                  20364013.1024                                   20364007.7074
                                                                        52.2504
        43.0004
   -234124.38348   -176290.10946
                  21678237.4384                                   21678234.5984
                                                                        50.5004
        37.5004
  -2341717.27047  -1747554.75445
                  23230147.3914                                   23230144.4144
                                                                        44.2504
        31.7504
  -2267477.71548  -1697335.91845
                  22316849.5084                                   22316846.4884
                                                                        48.0004
        34.7504
  -1338374.59848   -998217.91046
                  21171864.0314                                   21171860.2544
                                                                        50.0004
        37.2504
   -433099.24247   -323424.48445
                  22370495.1564                                   22370488.9144
                                                                        47.2504
        31.5004
  -2094969.78547  -1567968.39844
                  23856734.9614                                   23856731.5944
                                                                        42.5004
        24.2504
  -1977483.96147  -1476385.16845
                  22852440.4774                                   22852437.6844
                                                                        44.5004
        33.5004
 09 10 24 23 16 30.0000000  0  8G02G04G05G10G13G23G25G29
  -1257403.06648   -941133.63347
                  20345608.3284                                   20345602.7274
                                                                        53.0004
        43.2504
   -250586.30148   -189117.61346
                  21675105.0084                                   21675101.7304
                                                                        50.5004
        37.7504
  -2544776.37147  -1905782.54345
                  23191506.4224                                   23191503.3954
                                                                        45.5004
        33.0004
  -2463237.31647  -1849875.85945
                  22279597.9224                                   22279594.4064
                                                                        47.7504
        34.2504
  -1450216.21948  -1085367.05946
                  21150581.3204                                   21150576.8634
                                                                        50.7504
        36.7504
   -466202.16847   -349218.96545
                  22364195.7504                                   22364189.6684
                                                                        47.2504
        31.2504
  -2276062.37547  -1709079.47343
                  23822274.0234                                   23822271.0594
                                                                        42.0004
        23.0004
  -2146985.07047  -1608463.89145
                  22820185.7584                                   22820182.6684
                                                                        45.5004
        34.0004
 09 10 24 23 17  0.0000000  0  8G02G04G05G10G13G23G25G29
  -1353203.54348  -1015783.31247
                  20327378.1954                                   20327372.6214
                                                                        52.5004
        43.7504
   -266321.68048   -201378.99246
                  21672110.2814                                   21672107.3874
                                                                        50.0004
        38.2504
  -2747280.41447  -2063577.86345
                  23152971.3134                                   23152968.2194
                                                                        45.0004
        33.2504
  -2658336.11748  -2001900.89145
                  22242471.6644                                   22242468.8164
                                                                        48.0004
        35.5004
  -1561055.69948  -1171735.35946
                  21129489.0944                                   21129485.0164
                                                                        49.2504
        36.7504
   -498460.80547   -374355.58645
                  22358057.4454                                   22358051.1214
                                                                        46.0004
        32.0004
  -2456487.93046  -1849670.65244
                  23787939.7814                                   23787937.2584
                                                                        40.2504
        25.2504
  -2315705.75447  -1739934.48045
                  22788079.5004                                   22788075.9384
                                                                        45.0004
        35.0004
 09 10 24 23 17 30.0000000  0  8G02G04G05G10G13G23G25G29
  -1448096.11348  -1089725.58647
                  20309320.6564                                   20309315.2974
                                                                        52.2504
        43.2504
   -281343.02348   -213083.98846
                  21669252.1174                                   21669249.0124
                                                                        50.7504
        37.5004
  -2949237.92647  -2220947.29745
                  23114540.3284                                   23114537.1954
                                                                        46.0004
        34.0004
  -2852782.85548  -2153417.76645
                  22205469.6174                                   22205466.5664
                                                                        48.0004
        34.5004
  -1670903.34448  -1257330.82446
                  21108585.6334                                   21108581.4804
                                                                        50.5004
        36.5004
   -529887.81647   -398844.16845
                  22352077.2194                                   22352071.1374
                                                                        47.7504
        32.2504
  -2636254.30546  -1989748.18043
                  23753731.3364                                   23753728.6334
                                                                        40.2504
        22.5004
  -2483654.33647  -1870803.46545
                  22756119.5554                                   22756116.5164
                                                                        45.5004
        34.0004
 09 10 24 23 18  0.0000000  0  8G02G04G05G10G13G23G25G29
  -1542089.99248  -1162967.58247
                  20291434.1254                                   20291428.7464
                                                                        52.0004
        44.0004
   -295661.66048   -224241.39546
                  21666527.1884                                   21666524.0474
                                                                        50.5004
        37.5004
  -3150656.54347  -2377896.83645
                  23076211.5314                                   23076208.0164
                                                                        45.7504
        34.5004
  -3046585.08648  -2304432.45345
                  22168590.5084                                   22168587.1214
                                                                        48.0004
        34.5004
  -1779768.33248  -1342160.64546
                  21087869.6094                                   21087865.3204
                                                                        49.5004
        36.7504
   -560494.94148   -422693.86345
                  22346253.1644                                   22346247.0704
                                                                        48.5004
        32.2504
  -2815368.68446  -2129317.71943
                  23719647.2194                                   23719643.5824
                                                                        41.0004
        22.5004
  -2650837.96947  -2001076.39845
                  22724305.4614                                   22724302.1954
                                                                        44.7504
        32.5004
 09 10 24 23 18 30.0000000  0  8G02G04G05G10G13G23G25G29
    -59774.50848     -7916.52047
                  20573509.4844                                   20573503.7114
                                                                        51.7504
        43.0004
   1266127.82848    992737.39546
                  21963726.1724                                   21963723.1094
                                                                        50.2504
        37.5004
  -1776120.34047  -1306829.61345
                  23337777.5164                                   23337773.9574
                                                                        46.5004
        34.0004
  -1664327.04348  -1227348.23845
                  22431625.1954                                   22431621.5634
                                                                        48.0004
        34.0004
   -312239.06648   -198631.27346
                  21367130.8204                                   21367126.4884
                                                                        50.0004
        37.0004
    985123.64847    781684.25845
                  22640374.2584                                   22640367.9924
                                                                        46.5004
        31.7504
  -1418415.20746  -1040782.45743
                  23985478.6174                                   23985474.5744
                                                                        41.7504
        23.5004
  -1241841.46147   -903157.00045
                  22992428.8444                                   22992425.1414
                                                                        44.5004
        33.0004
 09 10 24 23 19  0.0000000  0  8G02G04G05G10G13G23G25G29
   -152006.88748    -79785.87547
                  20555958.1334                                   20555952.7934
                                                                        51.5004
        42.7504
   1253171.79348    982641.73846
                  21961260.5474                                   21961257.4804
                                                                        49.5004
        37.7504
  -1976491.65647  -1462963.09845
                  23299647.3364                                   23299644.0044
                                                                        45.5004
        32.5004
  -1856869.79348  -1377381.53145
                  22394985.6414                                   22394982.1524
                                                                        48.5004
        35.0004
   -419173.53148   -281956.76246
                  21346781.7734                                   21346777.6564
                                                                        49.5004
        37.2504
    956112.98047    759078.52045
                  22634853.8754                                   22634847.5394
                                                                        46.5004
        31.0004
  -1596254.13747  -1179358.32043
                  23951636.8364                                   23951632.7854
                                                                        42.5004
        22.7504
  -1407524.55147  -1032260.61745
                  22960900.2504                                   22960897.0514
                                                                        45.0004
        32.7504
 09 10 24 23 19 30.0000000  0  8G02G04G05G10G13G23G25G29
   -243380.13348   -150985.79747
                  20538570.3444                                   20538564.9774
                                                                        52.0004
        43.0004
   1240872.50448    973057.92246
                  21958920.1644                                   21958916.9534
                                                                        49.7504
        37.2504
  -2176358.51247  -1618703.50445
                  23261614.4384                                   23261610.6914
                                                                        45.7504
        32.5004
  -2048801.60547  -1526938.76645
                  22358461.9304                                   22358459.1254
                                                                        47.5004
        34.7504
   -525164.10248   -364546.77746
                  21326612.4224                                   21326608.2344
                                                                        49.5004
        36.7504
    927875.39547    737075.20745
                  22629480.1724                                   22629474.0084
                                                                        46.2504
        31.5004
  -1773472.86347  -1317450.81243
                  23917913.0004                                   23917909.2074
                                                                        42.2504
        22.5004
  -1572476.29347  -1160794.35245
                  22929510.5394                                   22929507.3914
                                                                        44.5004
        33.5004
 09 10 24 23 20  0.0000000  0  8G02G04G05G10G13G23G25G29
   -333901.23448   -221521.75847
                  20521344.7974                                   20521339.3484
                                                                        52.2504
        43.0004
   1229220.57448    963978.53146
                  21956703.0864                                   21956700.2464
                                                                        50.5004
        37.5004
  -2375725.50047  -1774054.37145
                  23223676.3054                                   23223672.1374
                                                                        47.2504
        33.2504
  -2240127.29747  -1676023.70345
                  22322054.1024                                   22322050.8674
                                                                        47.2504
        35.0004
   -630217.79348   -446406.75046
                  21306621.5784                                   21306616.8484
                                                                        49.0004
        37.0004
    900401.29347    715666.80545
                  22624252.0234                                   22624245.9184
                                                                        44.7504
        30.2504
  -1950075.96947  -1455063.59043
                  23884306.4614                                   23884302.7464
                                                                        42.0004
        22.7504
  -1736701.62947  -1288762.10945
                  22898259.5164                                   22898256.3714
                                                                        44.2504
        32.7504
 09 10 24 23 20 30.0000000  0  8G02G04G05G10G13G23G25G29
   -423578.87948   -291400.44547
                  20504279.6564                                   20504274.3634
                                                                        51.5004
        43.0004
   1218205.27348    955395.30146
                  21954606.4614                                   21954603.4534
                                                                        49.0004
        37.0004
  -2574599.76247  -1929021.29745
                  23185831.3984                                   23185828.1604
                                                                        47.5004
        34.5004
  -2430854.09847  -1824641.94945
                  22285759.6724                                   22285756.8594
                                                                        47.2504
        34.7504
   -734343.35548   -527543.58646
                  21286807.0084                                   21286802.4734
                                                                        49.5004
        37.0004
    873679.76247    694844.81645
                  22619166.7344                                   22619161.0704
                                                                        45.5004
        31.5004
  -2126069.75446  -1592201.58243
                  23850816.2894                                   23850812.2154
                                                                        41.5004
        22.7504
  -1900206.94547  -1416168.82845
                  22867145.3754                                   22867142.2544
                                                                        44.2504
        33.5004
 09 10 24 23 21  0.0000000  0  8G02G04G05G10G13G23G25G29
   -512427.37948   -360633.05147
                  20487372.3204                                   20487366.8094
                                                                        51.5004
        43.5004
   1207810.00848    947295.19946
                  21952628.0084                                   21952625.2584
                                                                        49.5004
        36.7504
  -2772994.00847  -2083614.17245
                  23148078.3204                                   23148074.9494
                                                                        47.2504
        35.0004
  -2620994.33647  -1972803.10945
                  22249577.5554                                   22249574.6334
                                                                        47.5004
        35.5004
   -837555.28948   -607968.52046
                  21267166.2114                                   21267162.1294
                                                                        48.7504
        37.2504
    847693.87147    674596.06345
                  22614221.9224                                   22614216.3834
                                                                        46.2504
        31.0004
  -2301466.09446  -1728873.96943
                  23817438.6024                                   23817435.6994
                                                                        40.0004
        22.2504
  -2063004.55947  -1543024.07845
                  22836166.1174                                   22836163.4774
                                                                        44.2504
        33.7504
 09 10 24 23 21 30.0000000  0  8G02G04G05G10G13G23G25G29
   -600451.47348   -429223.20747
                  20470621.9924                                   20470616.2734
                                                                        51.5004
        43.0004
   1198028.10948    939673.05546
                  21950766.8204                                   21950763.6454
                                                                        48.0004
        36.7504
  -2970910.78147  -2237834.99645
                  23110415.8674                                   23110412.3484
                                                                        47.7504
        34.5004
  -2810550.46147  -2120509.14845
                  22213505.7894                                   22213502.9494
                                                                        47.0004
        35.5004
   -939857.58248   -687684.55546
                  21247698.8914                                   21247694.9884
                                                                        48.2504
        37.0004
    822436.96947    654915.35945
                  22609416.0554                                   22609409.3714
                                                                        47.2504
        30.7504
  -2476267.12946  -1865082.46143
                  23784175.1174                                   23784171.9804
                                                                        39.5004
        23.5004
  -2225096.96147  -1669329.79745
                  22805320.9064                                   22805318.0164
                                                                        44.2504
        34.0004
 09 10 24 23 22  0.0000000  0  8G02G04G05G10G13G23G25G29
   -687661.02048   -497178.64147
                  20454026.5704                                   20454021.2344
                                                                        51.0004
        43.5004
   1188848.02048    932519.98046
                  21949019.6644                                   21949016.4884
                                                                        49.5004
        37.5004
  -3168358.12147  -2391690.01245
                  23072842.7424                                   23072839.9964
                                                                        47.7504
        34.0004
  -2999529.82847  -2267765.77345
                  22177543.7194                                   22177540.8954
                                                                        47.0004
        35.7504
  -1041260.09848   -766699.52346
                  21228402.6334                                   21228398.3634
                                                                        49.0004
        37.0004
    797896.77347    635793.11345
                  22604746.2734                                   22604739.4534
                                                                        46.2504
        30.0004
  -2650480.07046  -2000832.76244
                  23751023.7114                                   23751020.7894
                                                                        40.7504
        26.0004
  -2386492.17647  -1795092.21945
                  22774608.4454                                   22774605.6524
                                                                        45.2504
        35.0004
 09 10 24 23 22 30.0000000  0  8G02G04G05G10G13G23G25G29
   -774064.46148   -564505.98447
                  20437584.5234                                   20437578.9774
                                                                        52.2504
        43.2504
   1180258.33248    925826.86346
                  21947385.0394                                   21947381.3754
                                                                        49.0004
        37.0004
  -3365342.71547  -2545184.48045
                  23035357.8834                                   23035355.1604
                                                                        47.5004
        33.7504
  -3187939.46547  -2414578.44545
                  22141691.1954                                   22141688.1294
                                                                        47.0004
        35.5004
  -1141771.59048   -845020.14546
                  21209276.0864                                   21209271.8444
                                                                        48.7504
        37.0004
    774062.31347    617220.78544
                  22600211.0004                                   22600204.1454
                                                                        46.0004
        29.2504
  -2824110.86747  -2136129.44544
                  23717983.2584                                   23717980.1524
                                                                        42.5004
        26.5004
  -2547195.99247  -1920315.87545
                  22744027.3594                                   22744024.4964
                                                                        45.5004
        35.2504
 09 10 24 23 23  0.0000000  0  8G02G04G05G10G13G23G25G29
   -859673.34848   -631214.26247
                  20421293.7274                                   20421287.8674
                                                                        51.5004
        42.7504
   1172246.23048    919583.78546
                  21945860.4224                                   21945856.6804
                                                                        49.7504
        36.2504
  -3561873.67247  -2698325.45745
                  22997959.5634                                   22997955.8324
                                                                        47.5004
        34.2504
  -3375788.49648  -2560954.30545
                  22105944.6804                                   22105941.4104
                                                                        48.0004
        35.5004
  -1241402.72348   -922654.75846
                  21190316.7584                                   21190312.9574
                                                                        48.7504
        37.0004
    750919.75847    599187.63345
                  22595807.0944                                   22595800.2424
                                                                        45.7504
        30.7504
  -2997168.13746  -2270979.22344
                  23685051.7734                                   23685048.1994
                                                                        41.5004
        26.0004
  -2707218.16847  -2045008.42245
                  22713576.0314                                   22713572.9064
                                                                        45.5004
        34.5004
 09 10 24 23 23 30.0000000  0  8G02G04G05G10G13G23G25G29
   -944488.89548   -697304.35547
                  20405153.7424                                   20405148.0434
                                                                        52.2504
        43.0004
   1164808.28148    913788.14146
                  21944444.5554                                   21944441.1644
                                                                        49.7504
        37.2504
  -3757950.43447  -2851112.51645
                  22960647.0864                                   22960643.1804
                                                                        47.5004
        34.2504
  -3563076.12547  -2706892.76245
                  22070305.0704                                   22070301.6684
                                                                        46.7504
        35.7504
  -1340155.09048   -999604.62146
                  21171524.6804                                   21171520.8484
                                                                        49.5004
        37.0004
    728465.50447    581690.83645
                  22591533.7274                                   22591527.3834
                                                                        46.2504
        30.7504
  -3169651.25447  -2405381.77744
                  23652229.6024                                   23652225.3794
                                                                        42.5004
        24.5004
  -2866557.63347  -2169169.00445
                  22683254.7034                                   22683251.2774
                                                                        44.2504
        34.0004
 09 10 24 23 24  0.0000000  0  8G02G04G05G10G13G23G25G29
  -1028520.30948   -762783.37147
                  20389163.1024                                   20389157.7344
                                                                        52.0004
        43.7504
   1157932.66848    908430.54746
                  21943136.0004                                   21943133.1024
                                                                        49.7504
        37.0004
  -3953580.69947  -3003551.66045
                  22923419.8674                                   22923415.8094
                                                                        47.7504
        33.7504
  -3749809.78548  -2852399.53146
                  22034771.3134                                   22034767.8554
                                                                        49.0004
        36.2504
  -1438038.16448  -1075877.12946
                  21152898.1484                                   21152893.9024
                                                                        49.7504
        37.2504
    706687.91047    564721.28945
                  22587389.5554                                   22587383.7464
                                                                        46.2504
        31.5004
  -3341566.54347  -2539341.79344
                  23619514.6414                                   23619511.2734
                                                                        42.2504
        26.7504
  -3025221.72347  -2292803.27345
                  22653062.0004                                   22653058.6604
                                                                        44.2504
        33.5004
 09 10 24 23 24 30.0000000  0  8G02G04G05G10G13G23G25G29
  -1111773.67648   -827656.14547
                  20373320.8524                                   20373314.8524
                                                                        52.0004
        43.2504
   1151611.80948    903505.23046
                  21941933.1804                                   21941930.2194
                                                                        49.5004
        37.0004
  -4148768.14147  -3155645.75045
                  22886277.1174                                   22886272.8714
                                                                        47.7504
        34.5004
  -3935992.85947  -2997477.27746
                  21999341.1414                                   21999337.9534
                                                                        47.7504
        36.0004
  -1535057.58248  -1151476.68746
                  21134436.2034                                   21134431.7704
                                                                        49.5004
        37.0004
    685578.88347    548272.68845
                  22583373.0394                                   22583367.0474
                                                                        46.0004
        31.2504
  -3512917.11746  -2672861.79744
                  23586907.7034                                   23586904.3014
                                                                        40.5004
        24.0004
  -3183214.48847  -2415914.49245
                  22622996.6174                                   22622993.6094
                                                                        44.5004
        33.5004
 09 10 24 23 25  0.0000000  0  8G02G04G05G10G13G23G25G29
  -1194259.97748   -891931.20747
                  20357623.9384                                   20357618.3554
                                                                        51.5004
        42.7504
   1145832.61348    899001.97346
                  21940833.7814                                   21940830.8594
                                                                        50.0004
        37.0004
  -4343521.95347  -3307401.94545
                  22849216.1094                                   22849212.7734
                                                                        47.2504
        34.7504
  -4121634.59848  -3142133.16845
                  21964015.0784                                   21964011.6134
                                                                        48.2504
        35.5004
  -1631224.63748  -1226412.05146
                  21116135.8594                                   21116131.7194
                                                                        49.5004
        37.2504
    665124.82047    532334.43045
                  22579480.3594                                   22579474.7704
                                                                        45.0004
        30.7504
  -3683711.71547  -2805948.55943
                  23554406.7814                                   23554402.8484
                                                                        42.0004
        23.0004
  -3340544.59447  -2538509.35945
                  22593057.6954                                   22593054.2584
                                                                        44.0004
        33.7504
 09 10 24 23 25 30.0000000  0  8G02G04G05G10G13G23G25G29
  -1275983.39148   -955611.77747
                  20342072.5004                                   20342066.7704
                                                                        51.2504
        42.7504
   1140588.89548    894915.94946
                  21939835.9774                                   21939832.7344
                                                                        49.7504
        36.7504
  -4537844.32447  -3458821.96145
                  22812237.7894                                   22812234.7034
                                                                        47.5004
        34.5004
  -4306737.05148  -3286368.83646
                  21928791.1564                                   21928788.0864
                                                                        48.7504
        36.5004
  -1726543.16048  -1300686.20346
                  21097997.2894                                   21097993.1024
                                                                        50.5004
        37.0004
    645319.36347    516901.59445
                  22575711.7424                                   22575705.8404
                                                                        46.0004
        30.5004
  -3853951.80546  -2938603.19943
                  23522010.3754                                   23522007.0594
                                                                        41.2504
        22.5004
  -3497213.94547  -2660589.29345
                  22563244.5164                                   22563241.2074
                                                                        44.5004
        32.7504
 09 10 24 23 26  0.0000000  0  8G02G04G05G10G13G23G25G29
  -1356946.91848  -1018700.14847
                  20326665.7344                                   20326660.2274
                                                                        52.0004
        42.5004
   1135875.59848    891243.29346
                  21938939.3834                                   21938935.6644
                                                                        49.5004
        36.0004
  -4731736.25047  -3609906.63345
                  22775341.8134                                   22775338.1024
                                                                        47.2504
        34.5004
  -4491301.38748  -3430185.21145
                  21893669.6484                                   21893666.5394
                                                                        48.7504
        35.7504
  -1821016.64848  -1374301.91046
                  21080019.7734                                   21080015.7384
                                                                        49.7504
        37.0004
    626156.81347    501969.72745
                  22572065.0634                                   22572058.6764
                                                                        45.5004
        30.0004
  -4023637.80546  -3070825.96143
                  23489720.3754                                   23489717.4064
                                                                        40.7504
        22.7504
  -3653223.66447  -2782155.25845
                  22533557.2194                                   22533553.7464
                                                                        45.0004
        33.7504
 09 10 24 23 26 30.0000000  0  8G02G04G05G10G13G23G25G29
    138260.75448    146396.73447
                  20611194.0474                                   20611188.4144
                                                                        51.0004
        42.5004
   2707099.80548   2115573.89146
                  22237932.9924                                   22237929.6644
                                                                        48.7504
        36.2504
  -3349780.37148  -2533057.86345
                  23038319.0004                                   23038315.6564
                                                                        48.0004
        35.0004
  -3099910.11748  -2345984.28946
                  22158442.6094                                   22158439.6724
                                                                        48.7504
        36.2504
   -339232.57448   -219664.95346
                  21361993.9924                                   21361989.8984
                                                                        50.2504
        36.7504
   2183044.86747   1715129.23844
                  22868330.9304                                   22868324.5744
                                                                        44.0004
        29.2504
  -2617352.70347  -1975019.41444
                  23757327.9064                                   23757324.4844
                                                                        43.0004
        25.0004
  -2233157.30147  -1675609.97745
                  22803786.6484                                   22803783.3014
                                                                        46.0004
        34.0004
 09 10 24 23 27  0.0000000  0  8G02G04G05G10G13G23G25G29
     58789.16848     84470.82047
                  20596070.9694                                   20596065.5984
                                                                        52.2504
        42.7504
   2703414.34848   2112702.12145
                  22237231.9224                                   22237228.4494
                                                                        49.0004
        35.5004
  -3542832.57848  -2683488.12945
                  23001583.0004                                   23001579.3364
                                                                        48.2504
        35.5004
  -3283418.55148  -2488977.86746
                  22123522.4844                                   22123518.7344
                                                                        48.0004
        36.0004
   -432042.79348   -291984.60546
                  21344332.4844                                   21344328.2734
                                                                        49.2504
        36.2504
   2165134.67647   1701173.25045
                  22864922.8524                                   22864916.8244
                                                                        47.2504
        30.0004
  -2785950.01247  -2106393.88744
                  23725245.0634                                   23725241.4774
                                                                        43.0004
        25.2504
  -2387868.42647  -1796164.01645
                  22774346.0004                                   22774342.9774
                                                                        46.5004
        34.5004
 09 10 24 23 27 30.0000000  0  8G02G04G05G10G13G23G25G29
    -19937.62948     23125.25847
                  20581089.9694                                   20581084.3404
                                                                        52.5004
        42.7504
   2700238.69948   2110227.59046
                  22236627.2584                                   22236623.8754
                                                                        49.0004
        36.5004
  -3735462.90648  -2833589.66845
                  22964926.2344                                   22964922.6804
                                                                        48.7504
        35.5004
  -3466396.59448  -2631558.17246
                  22088702.6954                                   22088699.1844
                                                                        48.2504
        36.0004
   -524022.46948   -363657.06246
                  21326829.4614                                   21326825.2624
                                                                        49.5004
        37.5004
   2147846.20747   1687701.70344
                  22861633.1564                                   22861627.0164
