     2.11           OBSERVATION DATA    G (GPS)             RINEX VERSION / TYPE
teqc  2019Feb25                         20221121 12:28:07UTCPGM / RUN BY / DATE
OSX ker:10.11.6|Core i5|gcc 4.3 -m64|OSX ker:10.10+|=+      COMMENT
BIT 2 OF LLI FLAGS DATA COLLECTED UNDER A/S CONDITION       COMMENT
04712810                                                    MARKER NAME
2810                                                        MARKER NUMBER
-Unknown-           -Unknown-                               OBSERVER / AGENCY
0220400471          TRIMBLE R7          2.30                REC # / TYPE / VERS
-Unknown-           TRM39105.00     NONE                    ANT # / TYPE
  1449461.0827 -1709240.4297  5952442.9247                  APPROX POSITION XYZ
        0.0000        0.0000        0.0000                  ANTENNA: DELTA H/E/N
     1     1                                                WAVELENGTH FACT L1/2
    20    L1    L2    L5    L6    L7    L8    C1    P1    C2# / TYPES OF OBSERV
          P2    C5    C6    C7    C8    S1    S2    S5    S6# / TYPES OF OBSERV
          S7    S8                                          # / TYPES OF OBSERV
    30.0000                                                 INTERVAL
    15                                                      LEAP SECONDS
Forced Modulo Decimation to 30 seconds                      COMMENT
 SNR is mapped to RINEX snr flag value [0-9]                COMMENT
  L1 & L2: min(max(int(snr_dBHz/6), 0), 9)                  COMMENT
teqc edited: Beidou # 1 - 37 excluded                       COMMENT
  2009    10     8     0     0    0.0000000     GPS         TIME OF FIRST OBS
                                                            END OF HEADER
 09 10  8  0  0  0.0000000  0  9G02G04G12G13G29G10G23G30G31
 -15107818.44948 -11718306.41047
                  20564356.5864                                   20564350.5864
                                                                        52.0004
        43.5004
  -6699314.87148  -5190741.82046
                  21021981.7344                                   21021978.2504
                                                                        51.5004
        41.5004
  -1361709.07447  -1049939.72744
                  24521809.4454                                   24521805.8524
                                                                        42.7504
        28.0004
 -17359756.69148 -13464813.03546
                  21551448.6484                                   21551443.9064
                                                                        51.0004
        36.7504
  -6377967.82447  -4928337.07444
                  23779377.7664                                   23779374.6414
                                                                        43.2504
        28.5004
  -4915176.82447  -3813606.84844
                  23623521.5474                                   23623517.7934
                                                                        43.0004
        27.0004
  -9144801.35548  -7090664.43745
                  21978303.9694                                   21978297.7074
                                                                        48.7504
        34.0004
  -6066716.98447  -4704024.27344
                  23127691.9844                                   23127688.4384
                                                                        43.2504
        27.0004
  -6641503.47346  -5146366.55144
                  24145363.0554                                   24145359.5944
                                                                        40.7504
        28.0004
 09 10  8  0  0 30.0000000  0  8G02G04G13G29G10G23G30G31
 -15226636.62948 -11810892.01247
                  20541746.3674                                   20541740.2734
                                                                        52.7504
        42.7504
  -6734140.04748  -5217878.32046
                  21015354.5634                                   21015350.8014
                                                                        52.5004
        41.0004
 -17498852.66848 -13573199.52046
                  21524979.2664                                   21524975.2854
                                                                        50.0004
        36.2504
  -6561676.98447  -5071487.02744
                  23744419.9144                                   23744416.1414
                                                                        44.2504
        29.0004
  -5120336.32447  -3973471.34844
                  23584480.1644                                   23584476.7704
                                                                        43.2504
        28.0004
  -9198759.56648  -7132709.80545
                  21968036.0864                                   21968029.8594
                                                                        48.5004
        34.2504
  -6091427.12947  -4723278.93744
                  23122989.5004                                   23122986.1214
                                                                        43.5004
        27.5004
  -6674763.79347  -5172283.69944
                  24139033.9064                                   24139029.7544
                                                                        42.5004
        27.5004
 09 10  8  0  1  0.0000000  0  8G02G04G13G29G10G23G30G31
 -15344852.24248 -11903008.06647
                  20519250.7274                                   20519244.8284
                                                                        52.0004
        42.5004
  -6768423.46948  -5244592.69146
                  21008830.4844                                   21008826.7234
                                                                        52.7504
        41.0004
 -17637283.60248 -13681067.74646
                  21498636.7734                                   21498632.5164
                                                                        50.7504
        36.0004
  -6745017.27047  -5214349.56644
                  23709530.5004                                   23709527.3164
                                                                        43.7504
        28.0004
  -5325250.64147  -4133144.79344
                  23545486.5944                                   23545482.9694
                                                                        42.2504
        27.2504
  -9252067.78548  -7174248.67245
                  21957892.3524                                   21957885.6954
                                                                        49.0004
        34.5004
  -6115549.19547  -4742075.36344
                  23118399.2194                                   23118395.7774
                                                                        43.2504
        27.0004
  -6707476.96947  -5197774.52044
                  24132808.7664                                   24132804.9734
                                                                        42.0004
        25.5004
 09 10  8  0  1 30.0000000  0  8G02G04G13G29G10G23G30G31
 -15462460.99248 -11994651.25847
                  20496870.4454                                   20496864.1684
                                                                        52.0004
        43.5004
  -6802163.73448  -5270883.77746
                  21002409.9384                                   21002406.3834
                                                                        52.5004
        40.7504
 -17775045.08648 -13788414.28146
                  21472421.8284                                   21472417.0274
                                                                        50.0004
        36.7504
  -6927983.32847  -5356920.49244
                  23674713.1094                                   23674709.9144
                                                                        44.0004
        28.7504
  -5529914.74247  -4292623.27744
                  23506540.1564                                   23506536.5274
                                                                        42.0004
        28.0004
  -9304724.19948  -7215279.64545
                  21947871.9454                                   21947865.2734
                                                                        49.5004
        34.2504
  -6139083.06647  -4760413.45744
                  23113921.2664                                   23113917.2424
                                                                        44.0004
        27.5004
  -6739642.19546  -5222838.35544
                  24126688.0864                                   24126684.3794
                                                                        41.5004
        27.2504
 09 10  8  0  2  0.0000000  0  8G02G04G13G29G10G23G30G31
 -15579458.76648 -12085818.34847
                  20474606.6804                                   20474600.1914
                                                                        52.0004
        42.7504
  -6835359.10948  -5296750.29346
                  20996093.1174                                   20996089.3754
                                                                        52.5004
        40.5004
 -17912132.18448 -13895235.34445
                  21446335.0474                                   21446330.7424
                                                                        50.7504
        35.7504
  -7110569.39847  -5499195.31244
                  23639968.1024                                   23639965.4804
                                                                        43.7504
        28.2504
  -5734323.58247  -4451902.87544
                  23467642.7114                                   23467639.1134
                                                                        42.2504
        29.5004
  -9356727.16448  -7255801.44145
                  21937975.8594                                   21937969.6524
                                                                        49.2504
        34.5004
  -6162027.94947  -4778292.61344
                  23109554.7194                                   23109551.2774
                                                                        43.5004
        27.7504
  -6771258.17246  -5247474.22344
                  24120671.3284                                   24120667.5824
                                                                        41.7504
        26.7504
 09 10  8  0  2 30.0000000  0  8G02G04G13G29G10G23G30G31
 -15695846.62948 -12176510.19147
                  20452458.7504                                   20452452.6764
                                                                        52.5004
        43.0004
  -6868013.70348  -5322195.45746
                  20989879.0784                                   20989875.9614
                                                                        53.0004
        40.2504
 -18048545.77748 -14001531.60546
                  21420376.4144                                   21420371.8244
                                                                        50.5004
        36.0004
  -7292775.26247  -5641173.86744
                  23605295.6644                                   23605292.3014
                                                                        43.2504
        27.7504
  -5938476.71147  -4610983.18444
                  23428793.2734                                   23428790.2384
                                                                        42.5004
        29.2504
  -9408080.23848  -7295816.83645
                  21928203.7504                                   21928196.9574
                                                                        49.7504
        33.7504
  -6184388.47747  -4795716.40644
                  23105299.9224                                   23105296.5594
                                                                        44.0004
        28.0004
  -6802329.04747  -5271685.32844
                  24114758.6334                                   24114754.5784
                                                                        42.2504
        26.5004
 09 10  8  0  3  0.0000000  0  8G02G04G13G29G10G23G30G31
 -15811629.26248 -12266730.42247
                  20430425.8754                                   20430419.8794
                                                                        51.7504
        42.2504
  -6900134.12948  -5347224.34846
                  20983766.9774                                   20983763.2664
                                                                        53.0004
        40.7504
 -18184289.21948 -14107305.61745
                  21394544.8834                                   21394540.8364
                                                                        51.2504
        35.5004
  -7474603.69147  -5782858.31244
                  23570694.3914                                   23570691.6414
                                                                        43.0004
        27.2504
  -6142377.59846  -4769866.93744
                  23389992.1024                                   23389988.9734
                                                                        40.7504
        28.5004
  -9458790.27048  -7335331.13345
                  21918554.0234                                   21918547.4304
                                                                        50.0004
        34.0004
  -6206173.27047  -4812691.56644
                  23101154.5084                                   23101150.4844
                                                                        44.5004
        28.0004
  -6832862.78547  -5295477.86744
                  24108948.2034                                   24108944.5314
                                                                        42.0004
        25.5004
 09 10  8  0  3 30.0000000  0  9G02G04G05G13G29G10G23G30G31
 -15926810.48848 -12356482.01647
                  20408507.8674                                   20408501.5784
                                                                        51.7504
        43.5004
  -6931727.21148  -5371842.32446
                  20977754.9384                                   20977751.2424
                                                                        53.0004
        41.0004
   -334644.35257   -244780.30154
                  24178512.9534                                   24178508.9884
                                                                        43.7504
        28.7504
 -18319366.28948 -14212560.43445
                  21368840.6954                                   21368836.1994
                                                                        51.0004
        35.7504
  -7656057.27347  -5924250.64844
                  23536165.0004                                   23536161.8054
                                                                        44.2504
        29.2504
  -6346029.23446  -4928556.46944
                  23351238.4774                                   23351235.4264
                                                                        41.7504
        28.7504
  -9508863.96148  -7374349.59445
                  21909025.2424                                   21909018.8014
                                                                        49.7504
        34.2504
  -6227389.84447  -4829223.97344
                  23097117.0314                                   23097113.7584
                                                                        44.7504
        29.7504
  -6862866.08647  -5318857.08244
                  24103239.6094                                   24103235.3364
                                                                        42.7504
        25.0004
 09 10  8  0  4  0.0000000  0  9G02G04G05G13G29G10G23G30G31
 -14465969.03948 -11218164.00447
                  20686496.7114                                   20686490.5514
                                                                        52.2504
        43.0004
  -5387376.93448  -4168452.47346
                  21271635.0394                                   21271631.2584
                                                                        52.5004
        40.7504
   1036087.50447    823322.48444
                  24439353.7814                                   24439350.6024
                                                                        42.5004
        28.2504
 -16878354.42648 -13089694.02746
                  21643056.0634                                   21643051.6094
                                                                        51.0004
        36.2504
  -6261711.09847  -4837747.10944
                  23801500.3284                                   23801497.1094
                                                                        44.7504
        28.7504
  -4974006.36347  -3859447.69544
                  23612325.8594                                   23612322.4654
                                                                        43.2504
        27.2504
  -7982884.44148  -6185274.62945
                  22199409.5314                                   22199403.0204
                                                                        49.0004
        34.0004
  -4672623.53547  -3617717.77044
                  23392979.5474                                   23392975.8484
                                                                        44.2504
        29.7504
  -5316923.92247  -4114226.84044
                  24397422.6644                                   24397418.2114
                                                                        42.5004
        26.0004
 09 10  8  0  4 30.0000000  0  9G02G04G05G13G29G10G23G30G31
 -14579959.52348 -11306987.74647
                  20664804.8364                                   20664798.6994
                                                                        52.5004
        43.0004
  -5417934.85548  -4192263.84846
                  21265820.0554                                   21265816.4534
                                                                        53.0004
        40.5004
    831554.32447    663946.04744
                  24400432.7974                                   24400429.5204
                                                                        43.0004
        27.0004
 -17012108.97748 -13193918.38345
                  21617603.2194                                   21617599.2854
                                                                        50.5004
        35.5004
  -6442422.64147  -4978561.25044
                  23767111.7034                                   23767108.8204
                                                                        46.0004
        29.7504
  -5177167.72747  -4017755.23044
                  23573665.5084                                   23573661.5234
                                                                        43.7504
        27.5004
  -8031704.39848  -6223316.17245
                  22190119.4454                                   22190112.8404
                                                                        49.5004
        33.5004
  -4692726.38747  -3633382.37544
                  23389153.5314                                   23389150.7114
                                                                        44.0004
        28.2504
  -5345888.26247  -4136796.46144
                  24391910.5474                                   24391906.2424
                                                                        43.0004
        26.5004
 09 10  8  0  5  0.0000000  0  9G02G04G05G13G29G10G23G30G31
 -14693351.95748 -11395345.48447
                  20643227.0944                                   20643221.3164
                                                                        52.7504
        43.0004
  -5447976.53948  -4215672.96146
                  21260103.4144                                   21260099.9264
                                                                        52.5004
        40.5004
    627190.16447    504701.27744
                  24361543.3914                                   24361539.8244
                                                                        42.2504
        27.0004
 -17145198.66848 -13297624.64546
                  21592277.6334                                   21592272.7664
                                                                        50.7504
        36.5004
  -6622758.03947  -5119082.30545
                  23732795.4454                                   23732792.1954
                                                                        45.5004
        30.5004
  -5380079.65647  -4175868.41844
                  23535052.8444                                   23535048.4614
                                                                        45.0004
        28.5004
  -8079898.71948  -6260870.20745
                  22180947.8524                                   22180941.5354
                                                                        49.5004
        34.0004
  -4712275.57847  -3648615.53944
                  23385433.7974                                   23385429.9844
                                                                        44.0004
        27.2504
  -5374335.38747  -4158963.07044
                  24386497.6174                                   24386493.4454
                                                                        43.0004
        27.2504
 09 10  8  0  5 30.0000000  0  9G02G04G05G13G29G10G23G30G31
 -14806142.34048 -11483234.08647
                  20621763.9384                                   20621757.6414
                                                                        52.2504
        42.7504
  -5477500.07848  -4238678.32446
                  21254485.0234                                   21254481.6134
                                                                        52.7504
        41.0004
    422999.96147    345592.06344
                  24322687.5784                                   24322683.4454
                                                                        43.5004
        28.5004
 -17277619.23848 -13400809.59446
                  21567078.6484                                   21567074.4024
                                                                        51.0004
        36.5004
  -6802711.86347  -5259306.03544
                  23698551.1334                                   23698548.4224
                                                                        45.0004
        29.7504
  -5582736.62947  -4333782.93044
                  23496487.9304                                   23496484.2854
                                                                        45.2504
        28.7504
  -8127465.73848  -6297935.45345
                  22171896.6804                                   22171890.7934
                                                                        49.2504
        34.2504
  -4731270.32847  -3663416.64844
                  23381819.0944                                   23381815.6994
                                                                        43.2504
        27.5004
  -5402263.92246  -4180725.57044
                  24381183.0314                                   24381178.1374
                                                                        40.7504
        25.0004
 09 10  8  0  6  0.0000000  0  9G02G04G05G13G29G10G23G30G31
 -14918325.20748 -11570649.31647
                  20600415.9694                                   20600409.8284
                                                                        52.2504
        42.7504
  -5506503.24248  -4261278.28546
                  21248966.2974                                   21248962.6644
                                                                        51.7504
        41.0004
    218989.92647    186623.22344
                  24283865.5474                                   24283862.0274
                                                                        44.2504
        29.7504
 -17409364.26648 -13503468.08646
                  21542008.5864                                   21542004.1684
                                                                        51.5004
        36.7504
  -6982277.22347  -5399227.05544
                  23664381.7114                                   23664377.6564
                                                                        45.0004
        29.2504
  -5785132.07047  -4491493.62944
                  23457973.7584                                   23457970.0124
                                                                        44.7504
        29.5004
  -8174402.64148  -6334509.68045
                  22162964.7734                                   22162958.3594
                                                                        49.2504
        34.0004
  -4749708.91047  -3677784.39144
                  23378310.1804                                   23378306.7114
                                                                        42.5004
        26.5004
  -5429671.67246  -4202082.27344
                  24375967.6484                                   24375963.3164
                                                                        39.5004
        26.2504
 09 10  8  0  6 30.0000000  0  9G02G04G05G13G29G10G23G30G31
 -15029899.79348 -11657590.53947
                  20579183.9064                                   20579177.8444
                                                                        52.2504
        43.0004
  -5534987.17648  -4283473.56246
                  21243546.1254                                   21243542.1374
                                                                        53.0004
        40.5004
     15162.16847     27796.41444
                  24245078.3204                                   24245074.9264
                                                                        43.0004
        28.0004
 -17540432.56248 -13605599.22346
                  21517067.0394                                   21517062.5354
                                                                        51.0004
        36.7504
  -7161451.63347  -5538843.45344
                  23630285.2504                                   23630281.7854
                                                                        43.7504
        29.0004
  -5987263.80147  -4648998.87145
                  23419509.3054                                   23419506.0634
                                                                        45.7504
        30.5004
  -8220711.06648  -6370594.21145
                  22154152.4304                                   22154146.5514
                                                                        49.0004
        34.0004
  -4767594.30147  -3691721.06244
                  23374906.6484                                   23374903.6294
                                                                        42.2504
        27.2504
  -5456561.19146  -4223035.14844
                  24370850.5004                                   24370846.1294
                                                                        41.2504
        24.7504
 09 10  8  0  7  0.0000000  0  9G02G04G05G13G29G10G23G30G31
 -15140865.81248 -11744057.56647
                  20558067.7424                                   20558061.8244
                                                                        52.2504
        43.0004
  -5562954.34048  -4305266.14546
                  21238223.9304                                   21238220.3954
                                                                        52.5004
        40.7504
   -188482.09047   -130887.34444
                  24206326.0864                                   24206322.2464
                                                                        42.2504
        27.7504
 -17670823.76648 -13707203.02746
                  21492254.3754                                   21492250.3094
                                                                        51.2504
        36.5004
  -7340233.02347  -5678153.59444
                  23596264.0234                                   23596260.8444
                                                                        43.7504
        29.2504
  -6189130.26247  -4806297.39845
                  23381095.3754                                   23381092.4304
                                                                        44.5004
        30.2504
  -8266393.07048  -6406190.55545
                  22145459.7424                                   22145453.6684
                                                                        49.0004
        34.2504
  -4784930.13747  -3705229.52744
                  23371608.0704                                   23371604.2894
                                                                        43.0004
        28.0004
  -5482935.21546  -4243586.36344
                  24365831.6334                                   24365827.0904
                                                                        39.2504
        24.7504
 09 10  8  0  7 30.0000000  0  9G02G04G05G13G29G10G23G30G31
 -15251226.06248 -11830052.57047
                  20537066.8984                                   20537060.8164
                                                                        52.0004
        42.7504
  -5590410.20348  -4326660.39546
                  21232999.2274                                   21232995.5354
                                                                        52.2504
        41.2504
   -391944.73046   -289429.64144
                  24167608.2504                                   24167605.0744
                                                                        41.0004
        28.5004
 -17800539.84448 -13808280.80546
                  21467570.5864                                   21467566.2974
                                                                        51.7504
        36.5004
  -7518622.66047  -5817158.49645
                  23562317.8134                                   23562314.5824
                                                                        43.5004
        30.0004
  -6390732.76247  -4963390.24245
                  23342731.5554                                   23342728.1524
                                                                        43.0004
        30.2504
  -8311454.08248  -6441303.06645
                  22136884.8674                                   22136878.5474
                                                                        49.2504
        33.5004
  -4801722.76247  -3718314.68744
                  23368412.2034                                   23368408.7194
                                                                        43.2504
        26.2504
  -5508799.33646  -4263740.21144
                  24360909.3284                                   24360905.2704
                                                                        40.0004
        24.5004
 09 10  8  0  8  0.0000000  0  9G02G04G05G13G29G10G23G30G31
 -15360979.04348 -11915574.37947
                  20516181.5944                                   20516175.8554
                                                                        51.7504
        42.7504
  -5617355.57848  -4347656.82446
                  21227871.9694                                   21227868.1094
                                                                        51.7504
        40.0004
   -595223.12147   -447828.30144
                  24128925.9144                                   24128922.7384
                                                                        42.0004
        29.2504
 -17929577.81248 -13908829.72346
                  21443015.5944                                   21443010.8484
                                                                        51.5004
        36.2504
  -7696617.69947  -5955855.92645
                  23528447.2974                                   23528443.2384
                                                                        43.7504
        30.5004
  -6592068.90247  -5120275.50444
                  23304418.4384                                   23304415.1054
                                                                        44.2504
        28.2504
  -8355895.09048  -6475932.42645
                  22128428.0704                                   22128421.7384
                                                                        49.2504
        33.7504
  -4817974.43047  -3730978.32444
                  23365319.2894                                   23365316.4064
                                                                        43.0004
        28.0004
  -5534155.73446  -4283498.43444
                  24356084.4384                                   24356080.0084
                                                                        40.7504
        26.2504
 09 10  8  0  8 30.0000000  0  9G02G04G05G13G29G10G23G30G31
 -15470123.09448 -12000621.69947
                  20495412.4144                                   20495406.0554
                                                                        52.0004
        43.0004
  -5643791.28548  -4368256.05146
                  21222841.2114                                   21222837.3284
                                                                        51.7504
        40.7504
   -798314.19546   -606081.03144
                  24090278.4534                                   24090275.6804
                                                                        41.5004
        29.2504
 -18057936.06248 -14008848.82446
                  21418589.5314                                   21418584.6484
                                                                        51.5004
        36.5004
  -7874214.53547  -6094243.05945
                  23494651.4454                                   23494647.8244
                                                                        43.7504
        30.0004
  -6793135.21547  -5276950.53545
                  23266157.2114                                   23266153.2034
                                                                        42.7504
        30.0004
  -8399717.09848  -6510079.46545
                  22120089.2034                                   22120082.6884
                                                                        49.7504
        33.5004
  -4833686.87547  -3743221.78544
                  23362330.0634                                   23362326.3484
                                                                        43.2504
        28.0004
  -5559005.30946  -4302861.72744
                  24351356.1644                                   24351351.7464
                                                                        41.7504
        26.0004
 09 10  8  0  9  0.0000000  0  9G02G04G05G13G29G10G23G30G31
 -15578656.41848 -12085193.11747
                  20474759.0554                                   20474753.2304
                                                                        52.0004
        42.7504
  -5669718.24248  -4388458.90646
                  21217907.3524                                   21217904.1024
                                                                        51.7504
        40.5004
  -1001215.33647   -764185.79344
                  24051668.1564                                   24051664.4574
                                                                        43.2504
        29.7504
 -18185613.12148 -14108337.41046
                  21394293.3134                                   21394288.6174
                                                                        51.7504
        37.0004
  -8051409.60947  -6232317.11345
                  23460932.3204                                   23460928.9884
                                                                        43.5004
        30.5004
  -6993928.74647  -5433413.03944
                  23227947.2424                                   23227943.6604
                                                                        44.2504
        29.0004
  -8442920.50448  -6543744.44545
                  22111867.6564                                   22111861.3954
                                                                        49.5004
        34.0004
  -4848861.91847  -3755046.52344
                  23359442.0784                                   23359439.2894
                                                                        42.0004
        28.7504
  -5583349.53947  -4321831.23444
                  24346723.7584                                   24346719.1334
                                                                        42.5004
        24.0004
 09 10  8  0  9 30.0000000  0  9G02G04G05G13G29G10G23G30G31
 -15686580.30148 -12169289.64847
                  20454221.7424                                   20454215.9304
                                                                        51.7504
        42.7504
  -5695140.21148  -4408268.23846
                  21213069.7734                                   21213066.2274
                                                                        51.0004
        40.5004
  -1203926.74247   -922142.69945
                  24013093.4144                                   24013089.8714
                                                                        42.5004
        30.2504
 -18312609.83248 -14207295.94946
                  21370126.7734                                   21370122.2664
                                                                        52.0004
        36.5004
  -8228203.13347  -6370078.27744
                  23427288.7894                                   23427285.8594
                                                                        43.2504
        29.5004
  -7194449.77347  -5589663.23045
                  23189789.4694                                   23189785.7274
                                                                        44.2504
        30.0004
  -8485509.43048  -6576930.64545
                  22103763.2424                                   22103756.9344
                                                                        49.0004
        33.5004
  -4863505.04347  -3766456.77344
                  23356655.8204                                   23356652.8324
                                                                        43.5004
        28.0004
  -5607193.12546  -4340410.65244
                  24342185.9454                                   24342182.0664
                                                                        38.7504
        25.2504
 09 10  8  0 10  0.0000000  0  9G02G04G05G13G29G10G23G30G31
 -15793893.68048 -12252910.46547
                  20433800.9614                                   20433794.9774
                                                                        53.2504
        43.0004
  -5720058.67248  -4427685.28146
                  21208327.7734                                   21208324.7304
                                                                        52.2504
        40.2504
  -1406446.31646  -1079950.16444
                  23974555.0004                                   23974551.1914
                                                                        41.0004
        27.2504
 -18438923.79748 -14305722.37546
                  21346089.8914                                   21346085.6844
                                                                        51.5004
        36.7504
  -8404591.95347  -6507524.08244
                  23393723.5864                                   23393720.5784
                                                                        43.0004
        29.0004
  -7394695.19547  -5745698.59845
                  23151684.3834                                   23151680.5474
                                                                        42.5004
        30.2504
  -8527485.06648  -6609638.94545
                  22095775.3914                                   22095769.1564
                                                                        49.5004
        33.7504
  -4877618.47747  -3777454.27744
                  23353970.0634                                   23353966.8714
                                                                        43.5004
        27.2504
  -5630538.07046  -4358601.54343
                  24337743.0784                                   24337739.2304
                                                                        39.2504
        22.7504
 09 10  8  0 10 30.0000000  0  9G02G04G05G13G29G10G23G30G31
 -15900597.89148 -12336056.60247
                  20413495.6644                                   20413489.7384
                                                                        52.5004
        43.0004
  -5744477.17648  -4446712.69146
                  21203681.4384                                   21203677.6524
                                                                        51.7504
        40.5004
  -1608774.10547  -1237608.15644
                  23936053.3364                                   23936049.1684
                                                                        42.0004
        28.5004
 -18564556.15648 -14403617.69146
                  21322182.7664                                   21322178.1094
                                                                        51.2504
        36.5004
  -8580575.83647  -6644654.37144
                  23360234.8364                                   23360231.1334
                                                                        43.2504
        29.0004
  -7594665.61347  -5901519.69945
                  23113631.1414                                   23113627.6054
                                                                        44.7504
        31.0004
  -8568851.45748  -6641872.50445
                  22087903.2584                                   22087897.1644
                                                                        49.7504
        32.7504
  -4891207.34847  -3788043.02344
                  23351384.1094                                   23351381.0204
                                                                        43.7504
        27.5004
  -5653388.68446  -4376407.24643
                  24333394.6174                                   24333391.4104
                                                                        37.0004
        22.7504
 09 10  8  0 11  0.0000000  0  9G02G04G05G13G29G10G23G30G31
 -16006692.66048 -12418727.85547
                  20393306.6884                                   20393300.4454
                                                                        52.2504
        43.2504
  -5768398.39148  -4465352.77746
                  21199129.5314                                   21199125.7344
                                                                        50.7504
        40.2504
  -1810908.41847  -1395115.44145
                  23897588.3914                                   23897584.8054
                                                                        43.7504
        30.2504
 -18689506.16848 -14500981.43446
                  21298405.6724                                   21298401.3714
                                                                        50.7504
        36.5004
  -8756152.76647  -6781467.54345
                  23326823.5234                                   23326820.5634
                                                                        43.0004
        31.0004
  -7794358.94547  -6057124.89145
                  23075630.4304                                   23075627.4574
                                                                        45.2504
        31.2504
  -8609610.48048  -6673632.78945
                  22080147.3984                                   22080141.1254
                                                                        48.7504
        33.5004
  -4904274.53147  -3798225.25044
                  23348897.7344                                   23348893.9384
                                                                        42.0004
        25.2504
  -5675747.21946  -4393829.49244
                  24329140.5864                                   24329137.1334
                                                                        39.7504
        24.5004
 09 10  8  0 11 30.0000000  0  9G02G04G05G13G29G10G23G30G31
 -16112177.12548 -12500923.53947
                  20373233.3134                                   20373227.5984
                                                                        51.7504
        43.0004
  -5791823.32848  -4483606.01646
                  21194671.9064                                   21194668.5904
                                                                        50.5004
        40.2504
  -2012847.32047  -1552470.37545
                  23859161.0004                                   23859157.0314
                                                                        44.2504
        31.0004
 -18813772.25048 -14597812.11346
                  21274758.5864                                   21274753.9694
                                                                        51.2504
        37.0004
  -8931320.21947  -6917961.63745
                  23293490.6724                                   23293486.9654
                                                                        43.5004
        31.0004
  -7993773.05147  -6212512.54745
                  23037682.9774                                   23037679.4264
                                                                        44.5004
        30.0004
  -8649763.94548  -6704921.21145
                  22072506.5554                                   22072500.2304
                                                                        49.0004
        32.5004
  -4916823.27747  -3808003.49244
                  23346509.5394                                   23346505.7504
                                                                        42.2504
        26.7504
  -5697616.56246  -4410870.56644
                  24324979.3204                                   24324975.0274
                                                                        39.2504
        25.5004
 09 10  8  0 12  0.0000000  0  9G02G04G05G13G29G10G23G30G31
 -16217051.66448 -12582643.95747
                  20353276.4534                                   20353270.8714
                                                                        52.5004
        43.0004
  -5814755.27048  -4501475.19546
                  21190307.7734                                   21190304.8364
                                                                        51.5004
        40.2504
  -2214590.42647  -1709672.77745
                  23820770.0784                                   23820766.5784
                                                                        44.7504
        30.2504
 -18937355.03148 -14694110.49246
                  21251241.6644                                   21251237.1994
                                                                        51.0004
        36.2504
  -9106076.84047  -7054135.61345
                  23260235.3204                                   23260231.7154
                                                                        42.5004
        30.7504
  -8192906.75447  -6367681.69145
                  22999789.7974                                   22999786.0044
                                                                        44.5004
        30.5004
  -8689314.60548  -6735739.94145
                  22064980.4844                                   22064974.1954
                                                                        49.0004
        33.5004
  -4928857.70747  -3817380.98844
                  23344219.4924                                   23344216.1954
                                                                        42.0004
        25.0004
  -5719000.13746  -4427533.10544
                  24320910.2504                                   24320905.9384
                                                                        41.2504
        26.7504
 09 10  8  0 12 30.0000000  0  9G02G04G05G13G29G10G23G30G31
 -16321315.95348 -12663888.85947
                  20333435.8284                                   20333429.6254
                                                                        52.7504
        43.0004
  -5837195.59048  -4518961.07446
                  21186037.7504                                   21186034.1334
                                                                        50.5004
        41.0004
  -2416135.55947  -1866720.93045
                  23782417.3594                                   23782414.0744
                                                                        44.2504
        30.0004
 -19060253.43448 -14789875.60946
                  21227854.9144                                   21227850.6954
                                                                        50.7504
        36.7504
  -9280420.47347  -7189987.77345
                  23227058.7734                                   23227055.8874
                                                                        43.0004
        30.7504
  -8391757.73447  -6522630.50445
                  22961949.3444                                   22961945.7624
                                                                        44.5004
        30.7504
  -8728264.97748  -6766090.88345
                  22057568.4844                                   22057562.3984
                                                                        49.2504
        33.0004
  -4940380.85247  -3826360.08644
                  23342026.6564                                   23342023.7234
                                                                        42.7504
        26.0004
  -5739900.48846  -4443819.11344
                  24316933.3364                                   24316929.1764
                                                                        40.2504
        27.5004
 09 10  8  0 13  0.0000000  0  9G02G04G05G13G29G10G23G30G31
 -14849547.71148 -11517056.46547
                  20613503.8364                                   20613498.1294
                                                                        52.5004
        43.5004
  -4283727.80148  -3308466.67246
                  21481652.7424                                   21481649.2894
                                                                        51.2504
        40.0004
  -1042056.32047   -796009.86344
                  24043896.6414                                   24043892.4064
                                                                        43.0004
        29.7504
 -17607043.61348 -13657504.32046
                  21504391.8284                                   21504387.6054
                                                                        51.2504
        36.7504
  -7878924.59047  -6097913.03945
                  23493754.3984                                   23493751.3054
                                                                        42.7504
        30.0004
  -7014899.36747  -5449753.84845
                  23223956.5314                                   23223953.3954
                                                                        44.2504
        31.0004
  -7191197.48448  -5568376.00045
                  22350062.8984                                   22350056.3054
                                                                        49.2504
        32.5004
  -3375977.10946  -2607344.18744
                  23639722.8134                                   23639719.6524
                                                                        41.2504
        26.2504
  -4184901.13347  -3232131.34044
                  24612840.0634                                   24612835.6884
                                                                        42.7504
        28.0004
 09 10  8  0 13 30.0000000  0  9G02G04G05G13G29G10G23G30G31
 -14952592.16048 -11597350.83647
                  20593894.9224                                   20593889.0824
                                                                        53.0004
        43.5004
  -4305194.30148  -3325193.89846
                  21477567.9224                                   21477564.5234
                                                                        51.5004
        40.0004
  -1243202.98847   -952747.51245
                  24005618.9454                                   24005615.4494
                                                                        42.0004
        30.0004
 -17728571.48448 -13752201.22746
                  21481265.3524                                   21481260.9774
                                                                        50.7504
        37.2504
  -8052437.60547  -6233117.95745
                  23460735.8134                                   23460732.8834
                                                                        43.2504
        30.7504
  -7213181.77747  -5604259.55945
                  23186224.8914                                   23186221.5204
                                                                        44.0004
        32.0004
  -7228955.37548  -5597797.75845
                  22342877.9534                                   22342871.4344
                                                                        49.2504
        32.5004
  -3386489.35247  -2615535.55944
                  23637722.8204                                   23637719.0274
                                                                        42.5004
        26.7504
  -4204844.84847  -3247671.93744
                  24609044.3284                                   24609040.0944
                                                                        43.0004
        27.0004
 09 10  8  0 14  0.0000000  0  9G02G04G05G13G29G10G23G30G31
 -15055027.89148 -11677170.89847
                  20574402.4454                                   20574396.3554
                                                                        52.7504
        43.5004
  -4326178.21948  -3341544.90646
                  21473574.6024                                   21473570.9614
                                                                        52.0004
        40.0004
  -1444149.26246  -1109328.93045
                  23967379.8834                                   23967376.5354
                                                                        41.7504
        30.5004
 -17849415.23848 -13846365.11346
                  21458269.8284                                   21458265.2814
                                                                        50.5004
        36.7504
  -8225534.17247  -6367998.37144
                  23427796.7894                                   23427793.3094
                                                                        42.5004
        29.7504
  -7411179.07047  -5758543.15245
                  23148547.0784                                   23148543.6134
                                                                        44.2504
        32.0004
  -7266121.73448  -5626758.57045
                  22335805.2344                                   22335798.5744
                                                                        48.7504
        32.7504
  -3396502.58246  -2623338.08644
                  23635817.6094                                   23635814.1684
                                                                        41.5004
        27.2504
  -4224315.90247  -3262844.19144
                  24605339.2664                                   24605334.6724
                                                                        42.0004
        25.0004
 09 10  8  0 14 30.0000000  0  9G02G04G05G13G29G10G23G30G31
 -15156854.29748 -11756516.15647
                  20555025.3204                                   20555019.3714
                                                                        52.2504
        43.5004
  -4346682.34448  -3357522.19546
                  21469672.9774                                   21469669.2304
                                                                        51.5004
        39.7504
  -1644894.12947  -1265753.47345
                  23929179.8524                                   23929176.2074
                                                                        44.2504
        30.5004
 -17969574.56648 -13939995.91446
                  21435404.0634                                   21435399.6954
                                                                        50.2504
        36.5004
  -8398211.93747  -6502552.46545
                  23394936.9614                                   23394933.5634
                                                                        43.5004
        30.2504
  -7608889.28547  -5912603.06245
                  23110923.9224                                   23110920.2774
                                                                        44.5004
        30.7504
  -7302698.98048  -5655260.33245
                  22328844.9384                                   22328838.2074
                                                                        49.2504
        33.0004
  -3406020.48047  -2630754.66044
                  23634005.5634                                   23634002.6914
                                                                        42.2504
        27.7504
  -4243317.15646  -3277650.35943
                  24601723.1334                                   24601718.7154
                                                                        41.2504
        22.0004
 09 10  8  0 15  0.0000000  0  9G02G04G05G13G29G10G23G30G31
 -15258071.81248 -11835386.94547
                  20535764.1564                                   20535758.5664
                                                                        52.2504
        43.2504
  -4366709.03148  -3373127.44946
                  21465862.3134                                   21465858.8524
                                                                        50.5004
        39.7504
  -1845436.16447  -1422019.96145
                  23891017.4844                                   23891013.6134
                                                                        44.5004
        30.5004
 -18089047.95348 -14033091.83246
                  21412668.8754                                   21412664.2424
                                                                        50.7504
        36.7504
  -8570468.88747  -6636778.64145
                  23362158.1724                                   23362154.6254
                                                                        44.0004
        31.0004
  -7806310.85947  -6066438.05145
                  23073356.2114                                   23073352.6804
                                                                        43.5004
        31.0004
