     2.11           OBSERVATION DATA    G (GPS)             RINEX VERSION / TYPE
teqc  2019Feb25                         20221121 12:28:47UTCPGM / RUN BY / DATE
OSX ker:10.11.6|Core i5|gcc 4.3 -m64|OSX ker:10.10+|=+      COMMENT
BIT 2 OF LLI FLAGS DATA COLLECTED UNDER A/S CONDITION       COMMENT
04713001                                                    MARKER NAME
3001                                                        MARKER NUMBER
-Unknown-           -Unknown-                               OBSERVER / AGENCY
0220400471          TRIMBLE R7          2.30                REC # / TYPE / VERS
-Unknown-           TRM39105.00     NONE                    ANT # / TYPE
  1449458.4749 -1709242.9043  5952441.7246                  APPROX POSITION XYZ
        0.0000        0.0000        0.0000                  ANTENNA: DELTA H/E/N
     1     1                                                WAVELENGTH FACT L1/2
    20    L1    L2    L5    L6    L7    L8    C1    P1    C2# / TYPES OF OBSERV
          P2    C5    C6    C7    C8    S1    S2    S5    S6# / TYPES OF OBSERV
          S7    S8                                          # / TYPES OF OBSERV
    30.0000                                                 INTERVAL
    15                                                      LEAP SECONDS
Forced Modulo Decimation to 30 seconds                      COMMENT
 SNR is mapped to RINEX snr flag value [0-9]                COMMENT
  L1 & L2: min(max(int(snr_dBHz/6), 0), 9)                  COMMENT
teqc edited: Beidou # 1 - 37 excluded                       COMMENT
  2009    10    27    23    11   30.0000000     GPS         TIME OF FIRST OBS
                                                            END OF HEADER
 09 10 27 23 11 30.0000000  0  8G02G04G05G10G13G23G29G30
   -166598.18758   -117242.08657
                  20434476.8834                                   20434470.9964
                                                                        52.0004
        42.5004
    -21657.24658    -15772.41056
                  21994522.3524                                   21994518.6334
                                                                        48.0004
        36.0004
   -357564.72357   -231707.06255
                  22967299.5394                                   22967295.7424
                                                                        47.7504
        35.0004
   -357558.52757   -250476.09455
                  22059618.8284                                   22059615.3634
                                                                        46.0004
        35.5004
   -192069.00858   -135169.54756
                  21200549.8524                                   21200545.4064
                                                                        48.7504
        36.7504
    -50494.50857    -35989.12555
                  22620523.1094                                   22620516.0354
                                                                        45.5004
        30.2504
   -304852.09057   -215253.07055
                  22697819.3204                                   22697815.8054
                                                                        46.0004
        35.0004
     -4665.38357     -3533.24253
                  24158604.9064                                   24158601.5164
                                                                        43.7504
        23.7504
 09 10 27 23 12  0.0000000  0  8G02G04G05G10G13G23G29G30
   -256540.38348   -187326.85947
                  20417361.2734                                   20417355.7894
                                                                        52.5004
        43.2504
    -34138.93048    -25498.40646
                  21992146.9064                                   21992143.5634
                                                                        48.0004
        36.0004
   -558999.98448   -388669.62145
                  22928968.2504                                   22928963.6054
                                                                        48.0004
        35.2504
   -549587.96148   -400109.42646
                  22023077.3444                                   22023073.1764
                                                                        48.0004
        36.2504
   -295556.10548   -215808.80546
                  21180856.9304                                   21180852.2464
                                                                        49.5004
        36.7504
    -78309.70747    -57663.32045
                  22615229.8284                                   22615223.7154
                                                                        46.5004
        30.7504
   -469117.23647   -343251.88345
                  22666560.6644                                   22666556.7114
                                                                        46.0004
        34.5004
     -8092.48847     -6203.59043
                  24157952.0784                                   24157948.9804
                                                                        42.2504
        22.2504
 09 10 27 23 12 30.0000000  0  7G02G04G05G10G13G23G29
   -345584.18048   -256711.62547
                  20400416.8054                                   20400411.0704
                                                                        52.0004
        42.7504
    -45948.11748    -34700.37546
                  21989899.5394                                   21989896.6684
                                                                        49.0004
        36.0004
   -759870.04747   -545191.76245
                  22890743.2194                                   22890739.7774
                                                                        47.7504
        34.5004
   -740941.98448   -549216.50846
                  21986663.6024                                   21986659.7934
                                                                        48.7504
        36.7504
   -398059.27048   -295681.36746
                  21161351.3054                                   21161346.7774
                                                                        50.0004
        36.7504
   -105336.39147    -78723.08645
                  22610086.8834                                   22610080.7074
                                                                        45.7504
        30.2504
   -632588.32047   -470631.93445
                  22635452.7664                                   22635449.1134
                                                                        46.0004
        34.0004
 09 10 27 23 13  0.0000000  0  7G02G04G05G10G13G23G29
   -433593.74248   -325290.53547
                  20383669.1724                                   20383663.1414
                                                                        51.7504
        42.7504
    -56951.21548    -43274.22745
                  21987806.1024                                   21987802.6254
                                                                        49.0004
        35.7504
   -960036.84847   -701165.96545
                  22852652.5864                                   22852649.0864
                                                                        47.2504
        35.5004
   -931482.19148   -697689.37146
                  21950404.9224                                   21950401.4144
                                                                        48.0004
        37.0004
   -499443.14548   -374681.77046
                  21142058.2584                                   21142053.7114
                                                                        50.0004
        37.0004
   -131441.54347    -99064.74645
                  22605119.0394                                   22605112.5904
                                                                        45.7504
        30.0004
   -795127.27047   -597285.64545
                  22604523.0314                                   22604519.0984
                                                                        45.7504
        33.5004
 09 10 27 23 13 30.0000000  0  7G02G04G05G10G13G23G29
   -520513.64848   -393020.31247
                  20367128.7194                                   20367122.6764
                                                                        53.0004
        43.0004
    -67094.31248    -51177.94546
                  21985875.5554                                   21985871.8794
                                                                        49.7504
        36.0004
  -1159443.73848   -856547.97745
                  22814707.0234                                   22814703.3364
                                                                        48.2504
        35.2504
  -1121151.84048   -845483.89146
                  21914312.0394                                   21914308.7704
                                                                        49.0004
        37.0004
   -599651.66848   -452766.30946
                  21122989.6414                                   21122985.1994
                                                                        49.5004
        37.2504
   -156571.56247   -118646.59844
                  22600336.4534                                   22600330.4104
                                                                        46.2504
        29.2504
   -956677.50847   -723168.94145
                  22573780.8364                                   22573777.1884
                                                                        46.2504
        34.5004
 09 10 27 23 14  0.0000000  0  7G02G04G05G10G13G23G29
   -606332.20348   -459891.92647
                  20350798.0004                                   20350791.8094
                                                                        52.2504
        42.5004
    -76367.90248    -58404.10545
                  21984111.0784                                   21984107.8554
                                                                        49.5004
        35.7504
  -1358076.01248  -1011326.45745
                  22776908.5234                                   22776905.1294
                                                                        49.0004
        35.7504
  -1309936.72348   -992589.00046
                  21878387.3834                                   21878383.7544
                                                                        49.0004
        36.2504
   -698673.78548   -529926.39546
                  21104145.9144                                   21104141.5944
                                                                        50.7504
        37.0004
   -180717.46947   -137461.62944
                  22595741.7034                                   22595735.5904
                                                                        46.2504
        28.5004
  -1117223.91047   -848270.02745
                  22543229.9304                                   22543226.3244
                                                                        46.2504
        35.2504
 09 10 27 23 14 30.0000000  0  7G02G04G05G10G13G23G29
   -691060.39848   -525913.87947
                  20334674.6174                                   20334668.9414
                                                                        52.0004
        42.5004
    -84784.55148    -64962.53945
                  21982509.4224                                   21982506.2384
                                                                        48.0004
        35.0004
  -1555942.79748  -1165508.34446
                  22739256.0164                                   22739252.1604
                                                                        48.7504
        36.2504
  -1497845.25048  -1139011.19146
                  21842629.6024                                   21842626.1454
                                                                        48.5004
        36.5004
   -796519.93748   -606170.18746
                  21085526.3914                                   21085521.8364
                                                                        49.7504
        36.7504
   -203891.80547   -155519.56244
                  22591332.9384                                   22591325.8914
                                                                        45.5004
        29.5004
  -1276775.77747   -972596.16045
                  22512868.3054                                   22512864.7974
                                                                        46.7504
        35.5004
 09 10 27 23 15  0.0000000  0  7G02G04G05G10G13G23G29
   -774715.96148   -591100.07047
                  20318755.4454                                   20318749.6804
                                                                        53.5004
        43.0004
    -92364.44947    -70869.00845
                  21981066.7894                                   21981063.7194
                                                                        47.7504
        35.7504
  -1753059.72348  -1319105.98046
                  22701746.5004                                   22701742.0274
                                                                        49.2504
        36.0004
  -1684893.42248  -1284763.01646
                  21807034.9614                                   21807032.0314
                                                                        48.5004
        36.5004
   -893208.02748   -681511.56246
                  21067127.1804                                   21067123.0514
                                                                        49.2504
        36.2504
   -226115.06647   -172836.40644
                  22587103.0164                                   22587096.8954
                                                                        47.0004
        29.5004
  -1435348.60947  -1096159.40246
                  22482693.2584                                   22482689.5594
                                                                        46.0004
        36.2504
 09 10 27 23 15 30.0000000  0  7G02G04G05G10G13G23G29
    718100.97748    572133.89147
                  20602829.0084                                   20602823.1994
                                                                        52.7504
        42.7504
   1476288.23448   1151457.75045
                  22279571.6644                                   22279568.5514
                                                                        48.5004
        35.2504
   -374021.30148   -244530.59845
                  22964168.2274                                   22964164.6174
                                                                        49.0004
        35.5004
   -295675.41848   -202255.46946
                  22071394.6254                                   22071391.6094
                                                                        49.0004
        37.0004
    586662.35948    471634.20746
                  21348737.3594                                   21348732.8484
                                                                        48.7504
        36.7504
   1328008.39547   1038168.90244
                  22882842.9844                                   22882836.6454
                                                                        46.0004
        29.0004
    -17537.91047      8628.17646
                  22752493.1724                                   22752490.1414
                                                                        45.7504
        36.5004
 09 10 27 23 16  0.0000000  0  7G02G04G05G10G13G23G29
    636516.69548    508561.69547
                  20587304.3914                                   20587298.3094
                                                                        52.7504
        43.0004
   1470302.47348   1146793.52345
                  22278433.0314                                   22278429.4694
                                                                        48.0004
        34.7504
   -569706.12548   -397012.21146
                  22926930.5474                                   22926926.7704
                                                                        48.7504
        36.0004
   -481069.70748   -346718.54746
                  22036115.5704                                   22036112.3834
                                                                        49.2504
        37.2504
    492216.39148    398039.93846
                  21330764.7034                                   21330760.5514
                                                                        49.7504
        36.5004
   1307606.77347   1022271.52744
                  22878961.0704                                   22878954.4264
                                                                        46.7504
        28.7504
   -174219.54747   -113461.39546
                  22722677.4224                                   22722674.4104
                                                                        47.0004
        36.2504
 09 10 27 23 16 30.0000000  0  7G02G04G05G10G13G23G29
    555932.42648    445768.74647
                  20571969.6564                                   20571963.8324
                                                                        52.5004
        42.5004
   1465075.35248   1142720.43045
                  22277437.7424                                   22277434.3364
                                                                        48.0004
        35.0004
   -764708.36348   -548962.02045
                  22889822.4694                                   22889819.4734
                                                                        48.5004
        35.7504
   -665670.12948   -490563.04746
                  22000986.9304                                   22000983.5744
                                                                        48.2504
        37.5004
    398855.73048    325291.35246
                  21312999.2114                                   21312994.6724
                                                                        48.7504
        36.5004
   1288077.07447   1007053.61344
                  22875244.6254                                   22875237.6134
                                                                        46.5004
        29.0004
   -329989.25047   -234840.36745
                  22693035.6094                                   22693032.3094
                                                                        46.7504
        35.7504
 09 10 27 23 17  0.0000000  0  7G02G04G05G10G13G23G29
    476327.21148    383738.70347
                  20556821.0084                                   20556815.3874
                                                                        52.5004
        42.5004
   1460583.73848   1139220.42245
                  22276583.2504                                   22276579.9734
                                                                        48.2504
        35.5004
   -959045.55548   -700393.62146
                  22852841.9064                                   22852838.3674
                                                                        49.5004
        36.2504
   -849494.80947   -633803.09446
                  21966006.4614                                   21966003.3134
                                                                        47.7504
        36.7504
    306559.19148    253371.95346
                  21295435.3984                                   21295430.9104
                                                                        49.0004
        36.5004
   1269395.86747    992496.82444
                  22871689.2034                                   22871683.1414
                                                                        44.5004
        28.5004
   -484864.25047   -355522.16845
                  22663563.6334                                   22663560.4694
                                                                        46.5004
        35.7504
 09 10 27 23 17 30.0000000  0  7G02G04G05G10G13G23G29
    397680.83248    322455.82447
                  20541855.0704                                   20541849.7274
                                                                        52.5004
        42.2504
   1456806.04748   1136276.74645
                  22275864.4774                                   22275861.2384
                                                                        48.0004
        34.5004
  -1152736.53148   -851321.67246
                  22815983.5634                                   22815980.1764
                                                                        49.5004
        36.5004
  -1032561.97348   -776452.84846
                  21931170.0314                                   21931166.6564
                                                                        48.7504
        37.2504
    215306.84848    182266.23445
                  21278070.6804                                   21278066.7504
                                                                        48.5004
        35.7504
   1251540.79347    978583.77744
                  22868291.1804                                   22868285.1374
                                                                        44.5004
        29.2504
   -638863.53547   -475521.58646
                  22634258.6484                                   22634255.1524
                                                                        46.0004
        36.2504
 09 10 27 23 18  0.0000000  0  7G02G04G05G10G13G23G29
    319977.46548    261907.80947
                  20527068.7274                                   20527063.0354
                                                                        52.0004
        42.2504
   1453723.82448   1133874.98445
                  22275277.7424                                   22275274.7274
                                                                        49.0004
        35.5004
  -1345794.50448  -1001756.47346
                  22779245.8444                                   22779242.4454
                                                                        49.0004
        36.5004
  -1214884.95748   -918522.70746
                  21896475.0394                                   21896471.4964
                                                                        48.2504
        37.0004
    125082.26248    111961.37146
                  21260901.2194                                   21260897.3284
                                                                        49.2504
        36.2504
   1234493.29347    965300.02744
                  22865047.2974                                   22865041.5514
                                                                        45.2504
        28.5004
   -791999.64547   -594848.41045
                  22605117.7344                                   22605114.6994
                                                                        47.0004
        35.0004
 09 10 27 23 18 30.0000000  0  7G02G04G05G10G13G23G29
    243199.09848    202080.51647
                  20512458.1644                                   20512452.1214
                                                                        51.7504
        42.7504
   1451318.39847   1132000.60945
                  22274819.7114                                   22274816.9534
                                                                        47.7504
        34.5004
  -1538236.09448  -1151710.93746
                  22742625.5234                                   22742622.2584
                                                                        49.0004
        36.7504
  -1396480.23848  -1060025.53546
                  21861918.5314                                   21861915.0634
                                                                        49.2504
        37.2504
     35868.45748     42444.13346
                  21243925.1644                                   21243920.4804
                                                                        48.5004
        36.2504
   1218234.22347    952630.66444
                  22861953.8984                                   22861947.5514
                                                                        46.2504
        29.7504
   -944290.05547   -713516.25045
                  22576138.1414                                   22576134.4384
                                                                        47.0004
        35.5004
 09 10 27 23 19  0.0000000  0  7G02G04G05G10G13G23G29
    167328.49648    142960.55147
                  20498020.6484                                   20498014.7974
                                                                        52.7504
        42.7504
   1449569.55147   1130637.85945
                  22274487.4844                                   22274483.9964
                                                                        47.7504
        34.5004
  -1730074.38748  -1301195.28546
                  22706119.7974                                   22706115.8444
                                                                        48.5004
        36.0004
  -1577360.82048  -1200971.34046
                  21827498.1094                                   21827494.7544
                                                                        48.7504
        37.0004
    -52353.24248    -26300.06646
                  21227136.6484                                   21227132.0434
                                                                        48.5004
        36.0004
   1202743.28547    940559.82845
                  22859005.9534                                   22858999.7704
                                                                        46.5004
        30.0004
  -1095747.18047   -831534.79745
                  22547316.9774                                   22547312.9734
                                                                        47.5004
        35.2504
 09 10 27 23 19 30.0000000  0  7G02G04G05G10G13G23G29
     92352.28948     84537.53947
                  20483753.2734                                   20483747.4064
                                                                        52.7504
        43.2504
   1448463.30948   1129775.85245
                  22274277.0234                                   22274273.6564
                                                                        48.0004
        34.2504
  -1921322.47347  -1450219.73845
                  22669726.4924                                   22669722.6484
                                                                        47.7504
        35.7504
  -1757539.71548  -1341370.44546
                  21793211.2814                                   21793207.9414
                                                                        48.5004
        37.0004
   -139594.83248    -94280.50046
                  21210535.1724                                   21210530.8364
                                                                        49.5004
        36.2504
   1188005.44947    929075.80545
                  22856201.5474                                   22856195.3284
                                                                        46.2504
        30.2504
  -1246385.05148   -948915.01645
                  22518650.9614                                   22518647.6644
                                                                        48.2504
        35.2504
 09 10 27 23 20  0.0000000  0  7G02G04G05G10G13G23G29
     18257.66848     26801.46547
                  20469653.5864                                   20469647.5274
                                                                        52.2504
        42.2504
   1447983.96948   1129402.35245
                  22274185.5944                                   22274182.7194
                                                                        48.5004
        35.5004
  -2111989.88748  -1598791.74646
                  22633443.5314                                   22633439.8404
                                                                        48.0004
        36.2504
  -1937026.54348  -1481230.28146
                  21759055.9844                                   21759052.4844
                                                                        48.7504
        37.2504
   -225870.63748   -161508.39846
                  21194117.6954                                   21194113.2814
                                                                        49.7504
        36.0004
   1174005.55547    918166.81644
                  22853537.1564                                   22853530.9494
                                                                        46.5004
        29.2504
  -1396211.91448  -1065663.25045
                  22490140.1884                                   22490136.5944
                                                                        48.2504
        35.0004
 09 10 27 23 20 30.0000000  0  7G02G04G05G10G13G23G29
    -54969.38348    -30258.59847
                  20455718.7424                                   20455712.6334
                                                                        53.0004
        42.5004
   1448116.48448   1129505.58645
                  22274211.0164                                   22274208.1294
                                                                        48.5004
        34.2504
  -2302088.94548  -1746920.91846
                  22597268.8834                                   22597265.4614
                                                                        48.0004
        36.7504
  -2115833.45748  -1620560.37946
                  21725029.8594                                   21725026.3714
                                                                        49.5004
        36.7504
   -311193.57048   -227993.78546
                  21177880.7734                                   21177876.7304
                                                                        49.7504
        36.5004
   1160727.49647    907820.26644
                  22851010.2584                                   22851004.2384
                                                                        45.2504
        28.0004
  -1545240.99248  -1181789.81246
                  22461781.1254                                   22461777.3674
                                                                        48.5004
        36.5004
 09 10 27 23 21  0.0000000  0  7G02G04G05G10G13G23G29
   -127341.85948    -86652.75447
                  20441946.8364                                   20441940.8914
                                                                        52.0004
        42.7504
   1448845.39548   1130073.53545
                  22274349.7114                                   22274346.3014
                                                                        48.2504
        34.2504
  -2491630.06247  -1894615.30946
                  22561200.7424                                   22561196.7854
                                                                        47.5004
        36.7504
  -2293970.91848  -1759368.84446
                  21691131.7114                                   21691128.5904
                                                                        49.2504
        38.0004
   -395577.55948   -293747.53546
                  21161823.0554                                   21161819.1604
                                                                        50.2504
        36.2504
   1148155.82847    898024.17644
                  22848617.9144                                   22848611.3554
                                                                        45.2504
        28.0004
  -1693482.41448  -1297302.60946
                  22433571.5554                                   22433567.7424
                                                                        48.7504
        36.0004
 09 10 27 23 21 30.0000000  0  7G02G04G05G10G13G23G29
   -198870.47348   -142389.31647
                  20428335.1024                                   20428329.7704
                                                                        52.5004
        42.7504
   1450158.78148   1131096.94145
                  22274599.5234                                   22274596.5664
                                                                        48.2504
        33.5004
  -2680621.82848  -2041881.60546
                  22525236.7504                                   22525233.2304
                                                                        48.7504
        37.2504
  -2471446.98848  -1897661.87946
                  21657359.3054                                   21657355.8554
                                                                        49.0004
        37.7504
   -479033.08248   -358777.81246
                  21145942.1644                                   21145938.2424
                                                                        50.2504
        36.5004
   1136277.87547    888768.64544
                  22846357.5944                                   22846351.0904
                                                                        44.5004
        27.2504
  -1840944.73448  -1412208.32446
                  22405510.5164                                   22405507.2624
                                                                        48.0004
        36.2504
 09 10 27 23 22  0.0000000  0  7G02G04G05G10G13G23G29
   -269567.52748   -197477.89847
                  20414882.1804                                   20414876.3484
                                                                        52.0004
        42.7504
   1452042.20347   1132564.51645
                  22274958.0784                                   22274955.2424
                                                                        47.2504
        34.2504
  -2869073.80147  -2188727.27346
                  22489375.3754                                   22489371.5904
                                                                        47.5004
        37.2504
  -2648272.03148  -2035447.64846
                  21623710.6644                                   21623706.9224
                                                                        49.5004
        37.0004
   -561572.74648   -423094.44146
                  21130235.6024                                   21130231.2234
                                                                        51.0004
        36.5004
   1125078.94547    880042.19944
                  22844225.7734                                   22844219.9884
                                                                        44.5004
        26.5004
  -1987637.77047  -1526514.58246
                  22377595.5554                                   22377592.1604
                                                                        47.5004
        36.5004
 09 10 27 23 22 30.0000000  0  7G02G04G05G10G13G23G29
   -339443.66048   -251926.81247
                  20401585.0864                                   20401579.5124
                                                                        51.7504
        42.5004
   1454484.07447   1134467.25445
                  22275422.6094                                   22275419.3794
                                                                        47.5004
        34.0004
  -3056995.18447  -2335159.52346
                  22453615.0554                                   22453611.6804
                                                                        47.2504
        37.2504
  -2824454.21148  -2172732.50846
                  21590184.1954                                   21590180.9304
                                                                        49.5004
        37.7504
   -643206.80548   -486705.41046
                  21114700.7424                                   21114696.7624
                                                                        50.5004
        36.7504
   1114547.00447    871835.50444
                  22842222.7194                                   22842216.1724
                                                                        45.5004
        27.5004
  -2133570.80148  -1640228.65646
                  22349825.7894                                   22349822.0314
                                                                        48.0004
        36.2504
 09 10 27 23 23  0.0000000  0  7G02G04G05G10G13G23G29
   -408508.48448   -305743.55147
                  20388442.2894                                   20388437.0514
                                                                        51.7504
        43.0004
   1457472.03947   1136795.51645
                  22275991.1414                                   22275987.6374
                                                                        47.7504
        33.7504
  -3244392.10947  -2481183.06646
                  22417954.6174                                   22417951.0234
                                                                        47.5004
        37.5004
  -3000000.69148  -2309521.93046
                  21556778.6094                                   21556775.7114
                                                                        49.7504
        38.2504
   -723945.88748   -549618.97346
                  21099336.6564                                   21099332.3324
                                                                        51.0004
        36.5004
   1104669.94947    864139.08644
                  22840343.3834                                   22840336.4614
                                                                        44.5004
        28.5004
  -2278749.52348  -1753354.93046
                  22322198.5164                                   22322195.5044
                                                                        48.0004
        36.2504
 09 10 27 23 23 30.0000000  0  7G02G04G05G10G13G23G29
   -476773.27748   -358936.94947
                  20375452.0474                                   20375446.6564
                                                                        52.0004
        42.2504
   1460994.48447   1139540.26245
                  22276661.5314                                   22276658.6024
                                                                        46.7504
        34.0004
  -3431274.01247  -2626805.30146
                  22382391.9534                                   22382388.5084
                                                                        47.5004
        36.7504
  -3174920.50848  -2445823.04746
                  21523492.3364                                   21523489.4304
                                                                        50.5004
        38.2504
   -803800.44948   -611843.35246
                  21084141.2194                                   21084136.7504
                                                                        51.0004
        36.2504
   1095434.16847    856942.36344
                  22838585.3524                                   22838579.3714
                                                                        44.7504
        28.7504
  -2423184.34848  -1865901.53546
                  22294713.7584                                   22294710.3714
                                                                        48.0004
        36.5004
 09 10 27 23 24  0.0000000  0  7G02G04G05G10G13G23G29
   1031176.37948    816088.77347
                  20662405.3834                                   20662399.6294
                                                                        52.5004
        42.7504
   3040461.12947   2370293.48045
                  22577224.0084                                   22577220.8444
                                                                        47.7504
        34.5004
  -2042220.50847  -1544425.88746
                  22646720.0004                                   22646716.7624
                                                                        47.5004
        37.2504
  -1773793.05948  -1354035.42246
                  21790118.3444                                   21790114.8714
                                                                        50.0004
        37.7504
    692643.94548    554217.13746
                  21368905.2034                                   21368900.7384
                                                                        50.0004
        36.5004
   2662250.23847   2077838.01644
                  23136741.1954                                   23136734.8834
                                                                        44.5004
        29.5004
   -991456.12247   -750269.14845
                  22567162.4924                                   22567159.6094
                                                                        47.2504
        35.7504
 09 10 27 23 24 30.0000000  0  7G02G04G05G10G13G23G29
    964487.18848    764123.21147
                  20649714.8134                                   20649709.1484
                                                                        52.2504
        42.0004
   3045021.34047   2373846.87545
                  22578091.7894                                   22578089.1134
                                                                        47.5004
        35.2504
  -2228089.09048  -1689258.49646
                  22611350.8524                                   22611347.2344
                                                                        48.5004
        36.7504
  -1947476.05948  -1489372.80146
                  21757067.8054                                   21757064.1414
                                                                        49.5004
        38.5004
    614532.55948    493351.12545
                  21354040.8054                                   21354036.5084
                                                                        51.0004
        35.7504
   2654266.59447   2071616.98044
                  23135220.9614                                   23135215.3014
                                                                        44.0004
        28.5004
  -1134419.47347   -861669.15645
                  22539957.5164                                   22539954.0314
                                                                        46.2504
        35.5004
 09 10 27 23 25  0.0000000  0  7G02G04G05G10G13G23G29
    898573.83248    712762.18447
                  20637171.9144                                   20637166.0514
                                                                        52.7504
        42.5004
   3050086.49247   2377793.71945
                  22579055.6884                                   22579052.6994
                                                                        46.2504
        33.7504
  -2413460.38748  -1833703.63346
                  22576076.0004                                   22576071.6914
                                                                        49.0004
        37.7504
  -2120549.78948  -1624235.43046
                  21724132.9614                                   21724129.2974
                                                                        49.7504
        38.5004
    537280.44948    433154.66846
                  21339340.4774                                   21339335.9384
                                                                        50.5004
        36.2504
   2646894.21947   2065872.24244
                  23133817.8674                                   23133812.4414
                                                                        43.0004
        28.0004
  -1276656.52048   -972503.21545
                  22512890.8134                                   22512887.2584
                                                                        48.0004
        35.5004
 09 10 27 23 25 30.0000000  0  7G02G04G05G10G13G23G29
    833425.26648    661997.09047
                  20624774.3204                                   20624769.0864
                                                                        52.7504
        42.0004
   3055643.65647   2382123.95745
                  22580113.1174                                   22580110.0084
                                                                        46.7504
        33.0004
  -2598342.13348  -1977767.27746
                  22540893.3754                                   22540890.2704
                                                                        49.0004
        37.2504
  -2293022.12148  -1758629.43746
                  21691312.4454                                   21691308.8794
                                                                        50.0004
        38.5004
    460876.89148    373619.41846
                  21324801.0394                                   21324796.9654
                                                                        49.7504
        36.5004
   2640119.67647   2060593.36344
                  23132529.2344                                   23132522.9734
                                                                        42.2504
        27.5004
  -1418175.48448  -1082777.71946
                  22485960.6564                                   22485956.8364
                                                                        48.0004
        36.0004
 09 10 27 23 26  0.0000000  0  7G02G04G05G10G13G23G29
    769034.00848    611822.09047
                  20612521.1724                                   20612515.7234
                                                                        52.5004
        42.0004
   3061683.60547   2386830.39845
                  22581262.6334                                   22581259.2114
                                                                        45.7504
        33.0004
  -2782739.48048  -2121453.48846
                  22505803.7344                                   22505800.0704
                                                                        49.2504
        38.2504
  -2464898.23048  -1892558.89146
                  21658605.5084                                   21658601.9414
                                                                        50.0004
        38.5004
    385313.77748    314739.05946
                  21310421.9384                                   21310417.6914
                                                                        50.2504
        36.5004
   2633933.78547   2055773.19144
                  23131351.5474                                   23131345.9224
                                                                        42.0004
        26.7504
  -1558981.19148  -1192496.43446
                  22459166.0234                                   22459162.7384
                                                                        48.0004
        36.5004
 09 10 27 23 26 30.0000000  0  7G02G04G05G10G13G23G29
    705389.91448    562229.34047
                  20600410.3054                                   20600404.3634
                                                                        52.2504
        42.5004
   3068194.50047   2391903.83645
                  22582501.4774                                   22582498.2304
                                                                        47.2504
        33.2504
  -2966660.05148  -2264768.20746
                  22470805.0164                                   22470801.8954
                                                                        49.0004
        38.2504
  -2636185.98048  -2026029.81646
                  21626010.3834                                   21626006.9344
                                                                        50.5004
        38.5004
    310580.73048    256505.49646
                  21296200.6174                                   21296196.4654
                                                                        50.2504
        36.2504
   2628323.97747   2051401.90644
                  23130284.7664                                   23130278.4534
                                                                        43.7504
        27.5004
  -1699081.42248  -1301665.43446
                  22432505.8444                                   22432502.3324
                                                                        49.0004
        37.0004
 09 10 27 23 27  0.0000000  0  7G02G04G05G10G13G23G29
    642487.27748    513214.30147
                  20588440.4454                                   20588434.5394
                                                                        51.7504
        42.0004
   3075169.68447   2397339.03145
                  22583828.7814                                   22583825.6254
                                                                        45.7504
        33.5004
  -3150107.21148  -2407714.01646
                  22435895.8364                                   22435892.7704
                                                                        48.0004
        37.7504
  -2806888.35948  -2159044.62146
                  21593526.7814                                   21593523.4064
                                                                        50.0004
        39.0004
    236672.16048    198914.36745
                  21282136.4224                                   21282132.1484
                                                                        50.5004
        35.5004
   2623283.08247   2047473.94144
                  23129325.7194                                   23129319.1684
                                                                        43.0004
        27.2504
  -1838480.11347  -1410287.80146
                  22405979.3204                                   22405975.5514
                                                                        47.7504
        36.5004
 09 10 27 23 27 30.0000000  0  7G02G04G05G10G13G23G29
    580319.19148    464771.62947
                  20576609.9774                                   20576604.0084
                                                                        51.5004
        42.5004
   3082600.55547   2403129.34045
                  22585242.7664                                   22585239.9774
                                                                        47.0004
        32.5004
  -3333085.65248  -2550294.58646
                  22401076.5704                                   22401073.0124
                                                                        48.0004
        38.2504
  -2977010.00448  -2291606.91046
                  21561153.5164                                   21561150.0044
                                                                        49.5004
        38.7504
    163580.77348    141960.04745
                  21268227.3444                                   21268223.1994
                                                                        49.5004
        35.5004
   2618801.48447   2043981.82044
                  23128472.5314                                   23128466.2854
                                                                        42.5004
        27.2504
  -1977181.99648  -1518367.17646
                  22379585.1024                                   22379581.6214
                                                                        48.7504
        37.0004
 09 10 27 23 28  0.0000000  0  7G02G04G05G10G13G23G29
    518881.05148    416897.76647
                  20564918.9144                                   20564912.9924
                                                                        51.7504
        43.0004
   3090480.33247   2409269.41045
                  22586742.6414                                   22586739.2584
                                                                        46.5004
        33.7504
  -3515596.95348  -2692511.16446
                  22366346.1024                                   22366341.8874
                                                                        49.0004
        37.5004
  -3146552.64148  -2423718.03146
                  21528890.3754                                   21528887.2774
                                                                        49.5004
        38.2504
     91302.00048     85638.94545
                  21254473.4224                                   21254469.2504
                                                                        50.7504
        35.7504
   2614873.22347   2040920.83244
                  23127725.1334                                   23127718.6954
                                                                        43.0004
        26.5004
  -2115188.63748  -1625904.82046
                  22353323.3524                                   22353319.6094
                                                                        48.0004
        36.5004
 09 10 27 23 28 30.0000000  0  7G02G04G05G10G13G23G29
    458163.96148    369585.78147
                  20553364.5634                                   20553358.8524
                                                                        51.5004
        42.5004
   3098799.16447   2415751.63745
                  22588325.6094                                   22588322.5204
                                                                        46.5004
        33.2504
  -3697647.70348  -2834368.89846
                  22331703.1174                                   22331698.6844
                                                                        48.0004
        37.7504
  -3315522.93048  -2555383.19946
                  21496736.8444                                   21496733.1334
                                                                        50.0004
        38.5004
     19826.51648     29943.77346
                  21240871.7034                                   21240868.1484
                                                                        50.0004
        36.0004
   2611487.08247   2038282.28144
                  23127080.7504                                   23127074.7274
                                                                        44.0004
        26.2504
  -2252507.25848  -1732906.34046
                  22327192.4384                                   22327188.7734
                                                                        48.5004
        36.5004
 09 10 27 23 29  0.0000000  0  7G02G04G05G10G13G23G29
    398162.69148    322831.57447
                  20541946.7034                                   20541941.1724
                                                                        52.0004
        42.2504
   3107550.49247   2422570.83745
                  22589990.7114                                   22589987.5234
                                                                        47.0004
        32.7504
  -3879240.71948  -2975869.95746
                  22297146.6484                                   22297142.6134
                                                                        48.5004
        38.2504
  -3483923.89848  -2686604.71946
                  21464691.1174                                   21464687.7344
                                                                        50.0004
        38.5004
    -50850.98448    -25129.59045
                  21227422.5164                                   21227418.2304
                                                                        50.2504
        35.2504
   2608636.20347   2036060.79744
                  23126538.0164                                   23126532.4694
                                                                        43.7504
        27.7504
  -2389140.30548  -1839373.64546
                  22301191.8754                                   22301188.3754
                                                                        49.0004
        37.2504
 09 10 27 23 29 30.0000000  0  7G02G04G05G10G13G23G29
    338871.05548    276630.31647
                  20530663.9304                                   20530658.3244
                                                                        51.2504
        42.0004
   3116726.25447   2429720.78545
                  22591736.5314                                   22591733.5084
                                                                        46.5004
        32.5004
  -4060379.27347  -3117016.88746
                  22262677.1094                                   22262673.4454
                                                                        47.7504
        38.2504
  -3651758.85248  -2817385.20746
                  21432753.0164                                   21432749.8364
                                                                        50.0004
        38.5004
   -120737.11348    -79586.30945
                  21214123.7504                                   21214119.4454
                                                                        50.5004
        35.7504
   2606312.12947   2034249.82444
                  23126095.7274                                   23126090.2074
                                                                        43.0004
        26.5004
  -2525092.07048  -1945310.06646
                  22275320.9614                                   22275317.8674
                                                                        49.0004
        37.0004
 09 10 27 23 30  0.0000000  0  8G02G04G05G10G13G23G29G16
    280282.39148    230976.82447
                  20519514.6414                                   20519509.2854
                                                                        52.0004
        42.2504
   3126318.71147   2437195.42245
                  22593562.2034                                   22593558.9924
                                                                        47.2504
        32.5004
  -4241067.77747  -3257813.10946
                  22228292.9694                                   22228289.4264
                                                                        47.5004
        38.2504
  -3819031.65248  -2947727.59846
                  21400922.0164                                   21400918.6414
                                                                        50.7504
        39.2504
   -189838.56248   -133431.59045
                  21200974.1174                                   21200969.6484
                                                                        50.7504
        35.5004
   2604507.02047   2032843.23844
                  23125752.2034                                   23125746.0314
                                                                        43.0004
        26.0004
  -2660366.32848  -2050718.57446
                  22249579.5084                                   22249576.0474
                                                                        48.7504
        36.0004
   2891755.36756   2287045.90253
                  24270650.6564                                   24270647.5824
                                                                        38.5004
