     2.11           OBSERVATION DATA    G (GPS)             RINEX VERSION / TYPE
teqc  2019Feb25                         20221121 12:28:06UTCPGM / RUN BY / DATE
OSX ker:10.11.6|Core i5|gcc 4.3 -m64|OSX ker:10.10+|=+      COMMENT
BIT 2 OF LLI FLAGS DATA COLLECTED UNDER A/S CONDITION       COMMENT
04712800                                                    MARKER NAME
2800                                                        MARKER NUMBER
-Unknown-           -Unknown-                               OBSERVER / AGENCY
0220400471          TRIMBLE R7          2.30                REC # / TYPE / VERS
-Unknown-           TRM39105.00     NONE                    ANT # / TYPE
  1449460.8532 -1709239.8473  5952444.0122                  APPROX POSITION XYZ
        0.0000        0.0000        0.0000                  ANTENNA: DELTA H/E/N
     1     1                                                WAVELENGTH FACT L1/2
    20    L1    L2    L5    L6    L7    L8    C1    P1    C2# / TYPES OF OBSERV
          P2    C5    C6    C7    C8    S1    S2    S5    S6# / TYPES OF OBSERV
          S7    S8                                          # / TYPES OF OBSERV
    30.0000                                                 INTERVAL
    15                                                      LEAP SECONDS
Forced Modulo Decimation to 30 seconds                      COMMENT
 SNR is mapped to RINEX snr flag value [0-9]                COMMENT
  L1 & L2: min(max(int(snr_dBHz/6), 0), 9)                  COMMENT
teqc edited: Beidou # 1 - 37 excluded                       COMMENT
  2009    10     7     0     0    0.0000000     GPS         TIME OF FIRST OBS
                                                            END OF HEADER
 09 10  7  0  0  0.0000000  0  9G02G04G12G13G29G10G23G30G31
 -15395736.21948 -11924537.53947
                  20706971.0944                                   20706965.3204
                                                                        52.0004
        42.7504
  -7068627.87148  -5473817.14846
                  21031620.7424                                   21031617.1524
                                                                        52.7504
        41.7504
  -1591640.35947  -1226206.69144
                  24463093.0164                                   24463089.4414
                                                                        42.7504
        26.0004
 -17681466.26248 -13712849.28545
                  21726868.1954                                   21726863.8674
                                                                        49.5004
        35.0004
  -4784250.15647  -3687923.00044
                  24025194.2664                                   24025191.4344
                                                                        42.0004
        26.5004
  -2959912.35546  -2291269.36344
                  23911226.5084                                   23911222.8914
                                                                        41.0004
        26.2504
  -9565184.92248  -7412125.99645
                  22022342.3134                                   22022335.9224
                                                                        48.7504
        34.0004
  -6509471.68047  -5037681.58244
                  23124580.8524                                   23124577.8524
                                                                        44.0004
        27.5004
  -7006666.31646  -5426794.53144
                  24157286.1334                                   24157282.1484
                                                                        41.7504
        24.0004
 09 10  7  0  0 30.0000000  0  9G02G04G12G13G29G10G23G30G31
 -15517622.02048 -12019513.48047
                  20683776.7664                                   20683770.9734
                                                                        52.0004
        42.7504
  -7106291.00448  -5503165.02046
                  21024453.7194                                   21024450.2974
                                                                        52.5004
        41.5004
  -1584477.12947  -1220624.89544
                  24464456.2034                                   24464452.3204
                                                                        43.2504
        25.5004
 -17824186.61748 -13824059.96545
                  21699709.2974                                   21699704.6994
                                                                        49.7504
        35.2504
  -4969155.59046  -3832005.09044
                  23990007.5944                                   23990004.9844
                                                                        40.5004
        27.2504
  -3165312.03147  -2451321.02343
                  23872139.8364                                   23872136.0164
                                                                        42.2504
        23.5004
  -9622643.73448  -7456899.12145
                  22011408.0864                                   22011401.7194
                                                                        49.2504
        34.7504
  -6537337.41847  -5059395.15644
                  23119278.7814                                   23119275.6454
                                                                        44.5004
        28.7504
  -7042606.12147  -5454799.61744
                  24150446.5784                                   24150443.3794
                                                                        42.0004
        24.2504
 09 10  7  0  1  0.0000000  0  9G02G04G12G13G29G10G23G30G31
 -15638920.36348 -12114031.64847
                  20660694.5554                                   20660688.6414
                                                                        51.7504
        43.2504
  -7143406.12948  -5532085.91046
                  21017391.1564                                   21017387.6564
                                                                        53.2504
        41.5004
  -1576997.66847  -1214796.88344
                  24465879.5164                                   24465875.4224
                                                                        43.2504
        26.5004
 -17966262.68048 -13934768.57845
                  21672673.0004                                   21672668.5204
                                                                        49.7504
        35.2504
  -5153719.09046  -3975820.77044
                  23954886.1334                                   23954883.0984
                                                                        40.7504
        26.5004
  -3370492.25846  -2611201.75044
                  23833095.3054                                   23833092.0984
                                                                        41.7504
        27.0004
  -9679448.03148  -7501162.24245
                  22000598.6564                                   22000592.4694
                                                                        48.7504
        34.5004
  -6564600.17647  -5080638.84445
                  23114090.4144                                   23114087.6094
                                                                        45.7504
        30.2504
  -7077988.67646  -5482370.43044
                  24143714.3284                                   24143709.7384
                                                                        41.5004
        24.0004
 09 10  7  0  1 30.0000000  0  9G02G04G12G13G29G10G23G30G31
 -15759627.90648 -12208089.46147
                  20637724.6644                                   20637718.6844
                                                                        51.5004
        43.0004
  -7179972.62548  -5560579.27046
                  21010432.7114                                   21010429.3204
                                                                        52.0004
        41.2504
  -1569202.51247  -1208722.83644
                  24467362.9304                                   24467359.1564
                                                                        42.2504
        27.2504
 -18107690.75048 -14044972.30946
                  21645760.2424                                   21645755.7814
                                                                        49.7504
        36.0004
  -5337936.59046  -4119366.86744
                  23919830.7114                                   23919827.6994
                                                                        40.5004
        27.0004
  -3575448.68747  -2770908.14844
                  23794093.7664                                   23794090.4024
                                                                        43.2504
        28.2504
  -9735596.83248  -7544914.51645
                  21989913.7664                                   21989907.5204
                                                                        48.7504
        34.0004
  -6591260.51247  -5101413.12144
                  23109017.3204                                   23109013.9494
                                                                        45.0004
        29.2504
  -7112814.21147  -5509507.20344
                  24137087.4144                                   24137082.3054
                                                                        42.5004
        24.0004
 09 10  7  0  2  0.0000000  0  9G02G04G12G13G29G10G23G30G31
 -15879752.06248 -12301692.70347
                  20614865.9064                                   20614860.1484
                                                                        52.5004
        42.7504
  -7216000.69548  -5588653.10246
                  21003576.8524                                   21003573.2734
                                                                        51.5004
        41.0004
  -1561102.99646  -1202411.51644
                  24468904.2894                                   24468900.3954
                                                                        41.5004
        25.5004
 -18248477.40648 -14154676.18046
                  21618969.0164                                   21618965.0664
                                                                        50.2504
        36.0004
  -5521813.41446  -4262647.50444
                  23884840.3364                                   23884837.0594
                                                                        41.5004
        26.0004
  -3780187.32847  -2930444.72344
                  23755133.1564                                   23755129.8244
                                                                        43.7504
        27.2504
  -9791100.39848  -7588164.06645
                  21979351.9924                                   21979345.2584
                                                                        49.0004
        33.5004
  -6617329.58647  -5121726.68744
                  23104056.5634                                   23104053.3324
                                                                        45.0004
        29.2504
  -7147093.01246  -5536217.94144
                  24130564.2114                                   24130559.0904
                                                                        40.5004
        26.2504
 09 10  7  0  2 30.0000000  0  9G02G04G12G13G29G10G23G30G31
 -15999287.84848 -12394837.45747
                  20592118.6174                                   20592112.9024
                                                                        52.5004
        42.5004
  -7251487.82448  -5616305.38746
                  20996823.6724                                   20996820.3984
                                                                        52.7504
        40.7504
  -1552698.54746  -1195862.67244
                  24470503.1954                                   24470500.1094
                                                                        40.7504
        25.5004
 -18388617.14548 -14263875.99246
                  21592301.5234                                   21592297.4104
                                                                        50.0004
        36.0004
  -5705343.55147  -4405657.98844
                  23849915.5314                                   23849913.2504
                                                                        42.0004
        27.7504
  -3984702.52747  -3089807.23044
                  23716215.3444                                   23716212.1094
                                                                        43.7504
        28.0004
  -9845956.12948  -7630908.81245
                  21968913.0784                                   21968906.9184
                                                                        49.5004
        33.7504
  -6642806.12147  -5141578.56244
                  23099208.2974                                   23099205.1294
                                                                        45.7504
        29.2504
  -7180823.82847  -5562501.68044
                  24124146.1094                                   24124140.7624
                                                                        43.0004
        28.5004
 09 10  7  0  3  0.0000000  0  9G02G04G12G13G29G10G23G30G31
 -16118234.82848 -12487523.42647
                  20569484.1724                                   20569478.0594
                                                                        52.7504
        42.7504
  -7286436.25048  -5643537.93046
                  20990173.3204                                   20990169.6604
                                                                        52.2504
        40.5004
  -1543992.50046  -1189078.58244
                  24472160.0704                                   24472156.2974
                                                                        40.0004
        26.0004
 -18528108.67248 -14372570.76245
                  21565757.0944                                   21565752.9534
                                                                        50.5004
        35.7504
  -5888525.14546  -4548396.79744
                  23815057.3594                                   23815054.6644
                                                                        40.2504
        27.0004
  -4188992.30147  -3248994.03144
                  23677339.9534                                   23677336.7304
                                                                        44.0004
        28.5004
  -9900165.51248  -7673149.80945
                  21958597.7274                                   21958590.8984
                                                                        48.7504
        33.5004
  -6667693.01647  -5160970.95344
                  23094472.1484                                   23094469.5634
                                                                        45.2504
        28.7504
  -7214008.62946  -5588359.95744
                  24117830.7974                                   24117825.8484
                                                                        41.0004
        29.2504
 09 10  7  0  3 30.0000000  0  9G02G04G12G13G29G10G23G30G31
 -16236592.97748 -12579750.53947
                  20546961.3364                                   20546955.5824
                                                                        52.2504
        42.7504
  -7320848.05148  -5670352.30946
                  20983624.8594                                   20983621.2234
                                                                        52.0004
        41.0004
  -1534989.41846  -1182063.31644
                  24473873.6804                                   24473870.2154
                                                                        41.0004
        28.5004
 -18666951.44548 -14480760.05546
                  21539336.3054                                   21539332.2234
                                                                        50.0004
        36.0004
  -6071356.64846  -4690862.82044
                  23780265.0164                                   23780263.0234
                                                                        40.5004
        28.0004
  -4393055.61347  -3408004.27744
                  23638508.1094                                   23638505.0434
                                                                        44.2504
        29.0004
  -9953731.19548  -7714889.30945
                  21948403.9304                                   21948397.6454
                                                                        49.0004
        33.5004
  -6691994.12147  -5179906.91844
                  23089848.1644                                   23089845.3164
                                                                        44.5004
        27.2504
  -7246650.48847  -5613795.18744
                  24111619.6884                                   24111614.9384
                                                                        42.5004
        28.0004
 09 10  7  0  4  0.0000000  0  9G02G04G12G13G29G10G23G30G31
 -16354358.90248 -12671516.14847
                  20524551.0944                                   20524545.2234
                                                                        52.2504
        43.2504
  -7354723.32848  -5696748.62546
                  20977178.4614                                   20977175.3054
                                                                        51.2504
        41.2504
  -1525689.39547  -1174816.50044
                  24475643.2584                                   24475639.8754
                                                                        42.0004
        27.2504
 -18805141.46548 -14588440.66846
                  21513039.9614                                   21513035.6604
                                                                        50.2504
        36.0004
  -6253834.10247  -4833053.00044
                  23745541.0164                                   23745538.3914
                                                                        42.5004
        27.0004
  -4596888.86747  -3566835.30144
                  23599719.7194                                   23599716.8054
                                                                        42.7504
        27.2504
 -10006652.44548  -7756126.68745
                  21938333.7274                                   21938327.5824
                                                                        49.0004
        34.7504
  -6715710.14147  -5198387.01644
                  23085335.0394                                   23085331.9184
                                                                        43.7504
        26.0004
  -7278749.41046  -5638807.34444
                  24105511.3754                                   24105506.7424
                                                                        40.5004
        27.5004
 09 10  7  0  4 30.0000000  0  8G02G04G13G29G10G23G30G31
 -16471532.85548 -12762820.51647
                  20502253.5234                                   20502247.8914
                                                                        51.7504
        43.0004
  -7388063.78548  -5722728.18746
                  20970834.1484                                   20970830.7464
                                                                        53.0004
        41.0004
 -18942677.86348 -14695611.84846
                  21486867.5944                                   21486863.1564
                                                                        49.7504
        36.0004
  -6435955.09447  -4974965.37544
                  23710884.9774                                   23710881.9384
                                                                        43.5004
        28.7504
  -4800490.52747  -3725485.99644
                  23560975.4614                                   23560971.9184
                                                                        42.7504
        27.5004
 -10058931.38348  -7796863.54345
                  21928385.1174                                   21928379.4104
                                                                        49.0004
        34.2504
  -6738844.03547  -5216413.46144
                  23080932.8134                                   23080930.1454
                                                                        43.5004
        26.7504
  -7310307.96947  -5663398.43744
                  24099505.2114                                   24099501.0904
                                                                        42.5004
        26.2504
 09 10  7  0  5  0.0000000  0  8G02G04G13G29G10G23G30G31
 -16588114.29348 -12853663.20347
                  20480068.9694                                   20480062.8834
                                                                        52.0004
        42.7504
  -7420872.34048  -5748293.29746
                  20964590.6884                                   20964587.2504
                                                                        52.7504
        40.7504
 -19079560.25048 -14802273.54746
                  21460819.7114                                   21460815.2774
                                                                        50.5004
        36.2504
  -6617718.52347  -5116599.22744
                  23676296.5314                                   23676293.2934
                                                                        43.7504
        28.0004
  -5003859.16447  -3883955.13344
                  23522276.4304                                   23522272.7114
                                                                        42.0004
        27.0004
 -10110570.28948  -7837101.68745
                  21918559.2734                                   21918552.6414
                                                                        49.5004
        34.0004
  -6761399.51247  -5233989.18044
                  23076640.3674                                   23076637.6604
                                                                        44.0004
        28.0004
  -7341329.92647  -5687571.41044
                  24093601.7814                                   24093598.1214
                                                                        42.0004
        26.0004
 09 10  7  0  5 30.0000000  0  8G02G04G13G29G10G23G30G31
 -16704098.96548 -12944040.86347
                  20457997.8364                                   20457991.7464
                                                                        52.2504
        42.5004
  -7453147.11748  -5773442.46946
                  20958449.3284                                   20958445.7774
                                                                        52.2504
        41.0004
 -19215783.22348 -14908421.21146
                  21434896.9304                                   21434892.8244
                                                                        51.2504
        36.0004
  -6799118.44547  -5257949.77744
                  23641777.0784                                   23641773.8554
                                                                        43.5004
        27.5004
  -5206989.47347  -4042238.58244
                  23483621.7274                                   23483618.3954
                                                                        42.0004
        26.0004
 -10161567.56248  -7876839.84445
                  21908854.1174                                   21908847.9144
                                                                        49.0004
        34.5004
  -6783376.20747  -5251113.88744
                  23072459.3054                                   23072455.7034
                                                                        42.7504
        26.7504
  -7371814.12946  -5711325.35944
                  24087801.8444                                   24087796.8324
                                                                        39.2504
        25.5004
 09 10  7  0  6  0.0000000  0  8G02G04G13G29G10G23G30G31
 -16819482.59848 -13033950.18047
                  20436040.9614                                   20436034.9384
                                                                        52.0004
        43.0004
  -7484886.25048  -5798174.23446
                  20952409.2894                                   20952405.8284
                                                                        52.7504
        40.7504
 -19351342.27748 -15014051.70345
                  21409101.0944                                   21409096.8594
                                                                        50.5004
        35.5004
  -6980148.88747  -5399012.41044
                  23607328.1884                                   23607325.1564
                                                                        43.5004
        27.7504
  -5409875.28947  -4200331.37144
                  23445013.7194                                   23445010.2194
                                                                        42.5004
        29.0004
 -10211921.19148  -7916076.43445
                  21899272.4774                                   21899266.0084
                                                                        49.7504
        33.7504
  -6804773.35947  -5267787.02344
                  23068387.0164                                   23068384.0634
                                                                        43.2504
        25.5004
  -7401758.81646  -5734658.92644
                  24082102.6804                                   24082098.8164
                                                                        39.0004
        24.5004
 09 10  7  0  6 30.0000000  0  8G02G04G13G29G10G23G30G31
 -16934264.84848 -13123390.91047
                  20414198.6094                                   20414192.6374
                                                                        52.0004
        43.2504
  -7516092.52348  -5822490.83246
                  20946471.1254                                   20946467.5204
                                                                        52.0004
        40.2504
 -19486236.15248 -15119163.74646
                  21383431.8754                                   21383427.3594
                                                                        50.7504
        36.0004
  -7160808.33647  -5539785.93744
                  23572949.9224                                   23572946.8874
                                                                        43.5004
        27.0004
  -5612516.27047  -4358233.56644
                  23406452.6644                                   23406449.0904
                                                                        42.2504
        29.5004
 -10261633.49248  -7954813.30145
                  21889812.7734                                   21889806.5824
                                                                        49.5004
        34.5004
  -6825594.52747  -5284011.37144
                  23064424.7194                                   23064421.7544
                                                                        43.5004
        27.5004
  -7431167.15246  -5757574.51244
                  24076507.2504                                   24076502.3914
                                                                        41.2504
        26.7504
 09 10  7  0  7  0.0000000  0  8G02G04G13G29G10G23G30G31
 -15473025.16848 -11984762.59047
                  20692263.0474                                   20692257.3404
                                                                        52.5004
        43.0004
  -5971349.62148  -4618795.05946
                  21240425.6024                                   21240422.3014
                                                                        51.7504
        40.5004
 -18045042.65248 -13996155.66445
                  21657681.5004                                   21657677.7034
                                                                        50.5004
        35.7504
  -5765672.13747  -4452666.75444
                  23838434.5314                                   23838432.0704
                                                                        43.5004
        27.0004
  -4239487.13747  -3288340.78144
                  23667731.5004                                   23667728.2814
                                                                        42.5004
        29.7504
  -8735287.78548  -6765453.00445
                  22180266.4774                                   22180260.6804
                                                                        49.5004
        34.5004
  -5270425.10247  -4072191.00444
                  23360363.9774                                   23360360.7304
                                                                        43.5004
        29.5004
  -5884623.93746  -4552475.87544
                  24370804.7034                                   24370799.4534
                                                                        39.0004
        25.5004
 09 10  7  0  7 30.0000000  0  9G02G04G05G13G29G10G23G30G31
 -15586615.98448 -12073274.94547
                  20670647.8204                                   20670641.5864
                                                                        52.2504
        42.7504
  -6001507.98848  -4642295.07846
                  21234686.6804                                   21234682.8554
                                                                        52.7504
        40.7504
   1311203.68057   1036513.15654
                  24448995.3914                                   24448991.8634
                                                                        45.0004
        27.5004
 -18178615.40248 -14100238.18046
                  21632263.3834                                   21632259.5474
                                                                        51.0004
        36.5004
  -5945595.98847  -4592867.08644
                  23804197.1564                                   23804193.5514
                                                                        44.0004
        28.7504
  -4441644.67246  -3445866.03144
                  23629261.6804                                   23629259.0394
                                                                        41.7504
        29.0004
  -8783735.00048  -6803204.03145
                  22171047.4224                                   22171040.8754
                                                                        49.7504
        34.0004
  -5290115.67247  -4087534.35944
                  23356616.7664                                   23356613.8404
                                                                        44.7504
        28.5004
  -5912979.84847  -4574571.39844
                  24365407.7034                                   24365403.6954
                                                                        42.5004
        25.0004
 09 10  7  0  8  0.0000000  0  9G02G04G05G13G29G10G23G30G31
 -15699620.70348 -12161330.59047
                  20649143.7194                                   20649137.6844
                                                                        52.5004
        43.0004
  -6031156.25848  -4665397.65246
                  21229044.7504                                   21229041.1334
                                                                        51.7504
        40.5004
   1108090.56347    878243.26644
                  24410343.7664                                   24410340.6414
                                                                        42.7504
        28.5004
 -18311536.83648 -14203813.19546
                  21606969.2734                                   21606964.7344
                                                                        51.0004
        36.2504
  -6125159.90647  -4732786.98844
                  23770026.9774                                   23770023.5634
                                                                        44.0004
        28.5004
  -4643568.73047  -3603209.31645
                  23590836.7974                                   23590834.3094
                                                                        43.0004
        30.0004
  -8831563.53148  -6840473.02045
                  22161945.7974                                   22161939.4454
                                                                        49.5004
        34.2504
  -5309256.26647  -4102449.08244
                  23352974.3754                                   23352971.5554
                                                                        44.2504
        29.2504
  -5940824.05946  -4596268.18444
                  24360109.5704                                   24360105.0704
                                                                        39.5004
        25.5004
 09 10  7  0  8 30.0000000  0  9G02G04G05G13G29G10G23G30G31
 -15812043.60948 -12248932.86747
                  20627750.3754                                   20627743.8984
                                                                        52.0004
        43.0004
  -6060300.77748  -4688107.66446
                  21223499.2344                                   21223495.1334
                                                                        52.7504
        40.5004
    905128.67646    720091.22344
                  24371721.3524                                   24371718.6844
                                                                        40.7504
        28.0004
 -18443810.76248 -14306883.69946
                  21581798.3754                                   21581794.0634
                                                                        51.0004
        36.0004
  -6304365.94947  -4872428.02344
                  23735925.0234                                   23735921.9104
                                                                        44.7504
        29.2504
  -4845261.84447  -3760372.66444
                  23552456.5704                                   23552452.7114
                                                                        44.0004
        28.7504
  -8878779.86748  -6877264.99645
                  22152960.7344                                   22152954.5704
                                                                        48.7504
        33.7504
  -5327854.98047  -4116941.62544
                  23349435.3754                                   23349432.6764
                                                                        43.7504
        29.0004
  -5968163.40647  -4617571.56244
                  24354907.2814                                   24354902.6524
                                                                        43.0004
        26.0004
 09 10  7  0  9  0.0000000  0  9G02G04G05G13G29G10G23G30G31
 -15923882.60248 -12336080.20347
                  20606467.9694                                   20606462.3754
                                                                        52.5004
        43.0004
  -6088942.38348  -4710425.87146
                  21218048.7974                                   21218045.0314
                                                                        53.0004
        40.0004
    702320.67246    562059.05144
                  24333129.1804                                   24333125.1024
                                                                        40.7504
        26.0004
 -18575433.91848 -14409447.12946
                  21556751.4144                                   21556746.9064
                                                                        51.2504
        36.0004
  -6483210.89147  -5011787.71144
                  23701891.8914                                   23701889.2274
                                                                        45.5004
        29.2504
  -5046721.19547  -3917353.90644
                  23514119.5234                                   23514115.1174
                                                                        44.0004
        29.0004
  -8925384.30948  -6913580.14545
                  22144092.5864                                   22144086.0434
                                                                        48.5004
        33.5004
  -5345913.41447  -4131013.14144
                  23345999.3134                                   23345996.0434
                                                                        43.0004
        27.5004
  -5994999.39847  -4638482.72744
                  24349800.4454                                   24349796.2384
                                                                        43.0004
        24.7504
 09 10  7  0  9 30.0000000  0  9G02G04G05G13G29G10G23G30G31
 -16035133.23048 -12422768.98847
                  20585297.4844                                   20585291.7774
                                                                        52.2504
        42.7504
  -6117079.16048  -4732350.63746
                  21212694.8364                                   21212691.1524
                                                                        53.2504
        41.0004
    499672.43446    404151.42644
                  24294565.4304                                   24294562.1334
                                                                        41.2504
        28.0004
 -18706401.78548 -14511499.99646
                  21531828.5234                                   21531824.4694
                                                                        51.0004
        36.7504
  -6661688.86347  -5150861.47344
                  23667929.2734                                   23667925.5474
                                                                        45.0004
        29.2504
  -5247940.98847  -4074148.55944
                  23475828.9694                                   23475824.6524
                                                                        44.5004
        27.5004
  -8971375.10548  -6949417.09445
                  22135340.3444                                   22135334.1174
                                                                        49.0004
        34.0004
  -5363430.62147  -4144662.96944
                  23342665.7504                                   23342662.3954
                                                                        44.2504
        27.5004
  -6021330.71547  -4659000.62544
                  24344790.2814                                   24344785.6604
                                                                        42.5004
        25.2504
 09 10  7  0 10  0.0000000  0  9G02G04G05G13G29G10G23G30G31
 -16145791.35548 -12508996.08647
                  20564240.4534                                   20564234.3954
                                                                        52.0004
        42.5004
  -6144709.43748  -4753880.69946
                  21207436.9064                                   21207433.2074
                                                                        51.7504
        40.2504
    297188.62547    246371.94144
                  24256034.4924                                   24256031.1414
                                                                        43.2504
        29.5004
 -18836709.67248 -14613038.62546
                  21507032.3054                                   21507027.7074
                                                                        51.5004
        36.2504
  -6839793.98047  -5289644.66044
                  23634036.2504                                   23634033.3164
                                                                        44.5004
        29.2504
  -5448916.17247  -4230752.50844
                  23437584.3594                                   23437580.4694
                                                                        45.2504
        28.2504
  -9016750.63748  -6984774.56645
                  22126705.6094                                   22126699.4414
                                                                        49.7504
        33.0004
  -5380406.27747  -4157890.76644
                  23339434.7894                                   23339432.2194
                                                                        43.2504
        26.5004
  -6047156.50446  -4679124.60244
                  24339874.8834                                   24339871.0514
                                                                        39.5004
        26.0004
 09 10  7  0 10 30.0000000  0  9G02G04G05G13G29G10G23G30G31
 -16255852.76248 -12594758.19147
                  20543296.0944                                   20543289.9534
                                                                        52.5004
        43.0004
  -6171831.44948  -4775014.74246
                  21202275.7114                                   21202271.9774
                                                                        52.5004
        40.2504
     94874.56347     88724.67244
                  24217535.1954                                   24217531.4804
                                                                        43.2504
        28.0004
 -18966352.50448 -14714058.98446
                  21482362.1254                                   21482357.7544
                                                                        50.7504
        37.0004
  -7017520.29747  -5428132.68445
                  23600216.8204                                   23600212.9884
                                                                        44.0004
        30.0004
  -5649640.78947  -4387161.31244
                  23399387.3444                                   23399383.6294
                                                                        43.2504
        29.5004
  -9061509.32448  -7019651.46545
                  22118188.3134                                   22118181.8874
                                                                        49.5004
        33.5004
  -5396839.69947  -4170696.07844
                  23336308.1954                                   23336304.8634
                                                                        43.0004
        26.7504
  -6072475.41046  -4698853.63344
                  24335056.8524                                   24335052.6294
                                                                        41.5004
        24.5004
 09 10  7  0 11  0.0000000  0  9G02G04G05G13G29G10G23G30G31
 -16365316.18448 -12680054.36747
                  20522465.8914                                   20522460.1214
                                                                        52.2504
        43.0004
  -6198446.86748  -4795754.07446
                  21197210.6644                                   21197207.4024
                                                                        52.5004
        40.2504
   -107267.34047    -68788.49644
                  24179069.0864                                   24179065.6524
                                                                        43.0004
        28.7504
 -19095328.93048 -14814560.09846
                  21457818.3984                                   21457814.3244
                                                                        51.2504
        36.2504
  -7194865.21547  -5566323.47744
                  23566468.1564                                   23566465.2774
                                                                        43.5004
        29.0004
  -5850112.60247  -4543373.10945
                  23361238.5704                                   23361235.8714
                                                                        44.2504
        30.0004
  -9105652.38748  -7054048.65245
                  22109787.9614                                   22109782.5474
                                                                        49.7504
        34.0004
  -5412733.51647  -4183080.90244
                  23333283.4534                                   23333280.7664
                                                                        43.0004
        26.0004
  -6097289.57046  -4718189.36344
                  24330334.9844                                   24330330.3244
                                                                        41.7504
        24.7504
 09 10  7  0 11 30.0000000  0  9G02G04G05G13G29G10G23G30G31
 -16474181.48048 -12764884.47347
                  20501749.5474                                   20501743.7504
                                                                        52.0004
        43.0004
  -6224557.30548  -4816099.83646
                  21192242.1724                                   21192238.6374
                                                                        53.0004
        40.0004
   -309235.69947   -226166.42244
                  24140635.4064                                   24140631.9654
                                                                        42.2504
        28.5004
 -19223637.69948 -14914540.95346
                  21433402.1024                                   21433397.8444
                                                                        51.2504
        37.0004
  -7371826.80547  -5704215.60944
                  23532794.0704                                   23532790.8794
                                                                        43.2504
        29.2504
  -6050329.12147  -4699385.82445
                  23323139.1334                                   23323136.1644
                                                                        44.7504
        30.5004
  -9149181.60548  -7087967.49645
                  22101504.7974                                   22101498.5004
                                                                        49.0004
        33.2504
  -5428090.57447  -4195047.43444
                  23330361.3984                                   23330358.2074
                                                                        43.5004
        26.0004
  -6121601.28146  -4737133.55544
                  24325708.6644                                   24325704.2344
                                                                        41.2504
        25.7504
 09 10  7  0 12  0.0000000  0  9G02G04G05G13G29G10G23G30G31
 -16582447.54748 -12849247.60947
                  20481147.5784                                   20481141.1604
                                                                        52.0004
        42.5004
  -6250164.94148  -4836053.87546
                  21187369.2424                                   21187365.5594
                                                                        52.7504
        40.5004
   -511028.71946   -383407.73044
                  24102235.4384                                   24102232.2814
                                                                        41.0004
        27.7504
 -19351277.54348 -15014000.57446
                  21409113.2194                                   21409108.5514
                                                                        52.0004
        36.5004
  -7548402.35547  -5841806.91444
                  23499192.8594                                   23499189.4344
                                                                        43.5004
        29.7504
  -6250289.17247  -4855198.83645
                  23285088.0314                                   23285084.6724
                                                                        43.0004
        30.0004
  -9192098.79748  -7121409.46545
                  22093338.7194                                   22093331.8984
                                                                        48.7504
        33.5004
  -5442914.23047  -4206598.32444
                  23327540.6564                                   23327536.8404
                                                                        42.5004
        27.0004
  -6145413.08647  -4755688.20344
                  24321177.5634                                   24321173.0744
                                                                        43.2504
        25.7504
 09 10  7  0 12 30.0000000  0  9G02G04G05G13G29G10G23G30G31
 -16690109.02748 -12933139.64547
                  20460660.3594                                   20460654.0514
                                                                        51.7504
        43.0004
  -6275266.45348  -4855613.49646
                  21182592.8134                                   21182589.2194
                                                                        52.2504
        40.5004
   -712639.86347   -540507.30544
                  24063870.2114                                   24063867.0864
                                                                        42.0004
        29.5004
 -19478242.62148 -15112934.43446
                  21384952.2814                                   21384948.1174
                                                                        51.0004
        36.5004
  -7724584.77747  -5979091.88345
                  23465666.5554                                   23465663.3594
                                                                        44.2504
        30.7504
  -6449985.57447  -5010806.30144
                  23247086.8134                                   23247082.9844
                                                                        43.5004
        28.7504
  -9234401.33648  -7154372.49245
                  22085288.3914                                   22085281.9454
                                                                        49.5004
        34.0004
  -5457202.63347  -4217732.17644
                  23324821.6484                                   23324818.4694
                                                                        43.7504
        28.2504
  -6168722.85947  -4773851.64544
                  24316742.4614                                   24316737.0474
                                                                        43.5004
        25.5004
 09 10  7  0 13  0.0000000  0  9G02G04G05G13G29G10G23G30G31
 -16797170.78148 -13016564.41047
                  20440286.6954                                   20440280.9804
                                                                        52.2504
        43.0004
  -6299869.09848  -4874784.44146
                  21177910.8834                                   21177907.6644
                                                                        51.7504
        40.0004
   -914072.36347   -697467.71545
                  24025538.8284                                   24025535.6484
                                                                        43.0004
        30.2504
 -19604536.85548 -15211345.51246
                  21360919.5164                                   21360914.9574
                                                                        51.0004
        36.5004
  -7900377.32447  -6116073.10245
                  23432213.8674                                   23432211.3834
                                                                        44.0004
        30.7504
  -6649421.52747  -5166210.92644
                  23209135.6724                                   23209131.9454
                                                                        44.2504
        28.5004
  -9276095.65648  -7186861.53145
                  22077354.1484                                   22077347.6994
                                                                        50.0004
        33.5004
  -5470963.77347  -4228455.16844
                  23322202.9694                                   23322200.2934
                                                                        42.7504
        28.5004
  -6191537.94547  -4791629.62144
                  24312400.7814                                   24312395.8714
                                                                        42.7504
        24.7504
 09 10  7  0 13 30.0000000  0  9G02G04G05G13G29G10G23G30G31
 -16903636.22348 -13099524.56247
                  20420027.0474                                   20420021.6374
                                                                        51.7504
        42.5004
  -6323979.00448  -4893571.38746
                  21173322.8984                                   21173319.4184
                                                                        51.5004
        40.2504
  -1115328.81247   -854290.86745
                  23987241.4144                                   23987237.6564
                                                                        43.5004
        30.7504
 -19730163.59448 -15309236.50846
                  21337013.2894                                   21337008.9454
                                                                        51.2504
        37.2504
  -8075781.83647  -6252751.92644
                  23398835.7664                                   23398832.5594
                                                                        43.5004
        29.5004
  -6848599.27047  -5321414.31644
                  23171232.9454                                   23171229.8284
                                                                        43.5004
        29.7504
  -9317188.37148  -7218881.81645
                  22069534.4144                                   22069528.2424
                                                                        49.0004
        33.2504
  -5484205.27747  -4238773.28544
                  23319683.2974                                   23319680.4844
                                                                        42.7504
        28.5004
  -6213865.32446  -4809027.57844
                  24308151.5004                                   24308146.4614
                                                                        41.0004
        24.0004
 09 10  7  0 14  0.0000000  0  9G02G04G05G13G29G10G23G30G31
 -17009498.50448 -13182014.66447
                  20399882.1024                                   20399876.5124
                                                                        52.2504
        42.7504
  -6347592.20348  -4911971.26646
                  21168829.3284                                   21168825.8714
                                                                        51.2504
        40.5004
  -1316401.59846  -1010970.85544
                  23948978.0784                                   23948974.4104
                                                                        41.5004
        28.5004
 -19855115.77048 -15406601.89546
                  21313235.9064                                   21313231.6764
                                                                        51.0004
        36.7504
  -8250790.03947  -6389121.92244
                  23365532.8204                                   23365529.5044
                                                                        42.5004
        29.5004
  -7047510.88747  -5476410.34444
                  23133381.7344                                   23133378.0784
                                                                        42.5004
        29.2504
  -9357675.23448  -7250430.03145
                  22061829.6804                                   22061823.5514
                                                                        48.7504
        33.7504
  -5496924.00847  -4248684.00844
                  23317262.6804                                   23317260.0234
                                                                        42.5004
        27.7504
  -6235701.32446  -4826042.62944
                  24303996.0314                                   24303992.0474
                                                                        40.2504
        25.5004
 09 10  7  0 14 30.0000000  0  9G02G04G05G13G29G10G23G30G31
 -17114758.17248 -13264035.21547
                  20379851.7814                                   20379846.1564
                                                                        52.5004
        43.0004
  -6370711.11348  -4929986.00046
                  21164430.2344                                   21164426.7974
                                                                        51.7504
        40.2504
  -1517289.65246  -1167506.98444
                  23910750.0394                                   23910746.8054
                                                                        41.5004
        27.5004
 -19979392.62548 -15503441.04746
                  21289587.1484                                   21289582.6484
                                                                        51.2504
        36.7504
  -8425400.39847  -6525181.89544
                  23332305.3444                                   23332301.6524
                                                                        43.2504
        28.7504
  -7246155.65247  -5631198.56245
                  23095580.5164                                   23095577.4574
                                                                        43.2504
        31.0004
  -9397558.99648  -7281508.27745
                  22054240.2734                                   22054234.2894
                                                                        49.0004
        33.2504
  -5509123.72347  -4258190.30944
                  23314942.1174                                   23314938.8014
                                                                        42.7504
        28.0004
  -6257049.11346  -4842677.30144
                  24299934.0704                                   24299930.2584
                                                                        39.0004
        25.7504
 09 10  7  0 15  0.0000000  0  9G02G04G05G13G29G10G23G30G31
 -17219415.55548 -13345586.44547
                  20359935.9924                                   20359930.4694
                                                                        52.0004
        43.5004
  -6393338.83648  -4947617.97346
                  21160124.2814                                   21160120.8364
                                                                        51.5004
        41.0004
  -1717992.29347  -1323898.65644
                  23872558.0084                                   23872553.9574
                                                                        42.5004
        28.7504
 -20102994.69548 -15599754.34846
                  21266066.0864                                   21266062.1454
                                                                        51.0004
        36.7504
  -8599611.89547  -6660931.09844
                  23299153.9144                                   23299150.7974
                                                                        43.0004
        29.5004
  -7444531.93747  -5785777.40245
                  23057831.3204                                   23057827.1804
                                                                        44.0004
        31.0004
