     2.11           OBSERVATION DATA    G (GPS)             RINEX VERSION / TYPE
teqc  2019Feb25                         20221121 12:28:40UTCPGM / RUN BY / DATE
OSX ker:10.11.6|Core i5|gcc 4.3 -m64|OSX ker:10.10+|=+      COMMENT
BIT 2 OF LLI FLAGS DATA COLLECTED UNDER A/S CONDITION       COMMENT
04712961                                                    MARKER NAME
2961                                                        MARKER NUMBER
-Unknown-           -Unknown-                               OBSERVER / AGENCY
0220400471          TRIMBLE R7          2.30                REC # / TYPE / VERS
-Unknown-           TRM39105.00     NONE                    ANT # / TYPE
  1449458.8073 -1709242.4006  5952441.8343                  APPROX POSITION XYZ
        0.0000        0.0000        0.0000                  ANTENNA: DELTA H/E/N
     1     1                                                WAVELENGTH FACT L1/2
    20    L1    L2    L5    L6    L7    L8    C1    P1    C2# / TYPES OF OBSERV
          P2    C5    C6    C7    C8    S1    S2    S5    S6# / TYPES OF OBSERV
          S7    S8                                          # / TYPES OF OBSERV
    30.0000                                                 INTERVAL
    15                                                      LEAP SECONDS
Forced Modulo Decimation to 30 seconds                      COMMENT
 SNR is mapped to RINEX snr flag value [0-9]                COMMENT
  L1 & L2: min(max(int(snr_dBHz/6), 0), 9)                  COMMENT
teqc edited: Beidou # 1 - 37 excluded                       COMMENT
  2009    10    23    23    11    0.0000000     GPS         TIME OF FIRST OBS
                                                            END OF HEADER
 09 10 23 23 11  0.0000000  0  9G02G04G05G10G13G23G29G30G31
   -152307.66858    -73793.86357
                  20319216.6024                                   20319210.9384
                                                                        52.2504
        43.2504
    -33845.30958    -17139.07056
                  21346537.4384                                   21346534.2074
                                                                        51.0004
        40.2504
   -291537.38357   -142451.21954
                  23544955.6954                                   23544952.2074
                                                                        42.0004
        29.5004
   -284228.55957   -138890.12155
                  22616842.6254                                   22616839.0984
                                                                        45.2504
        32.2504
   -176129.68758    -85192.71956
                  21182276.5474                                   21182271.7704
                                                                        50.7504
        37.2504
    -60629.69957    -29870.82055
                  22105753.6724                                   22105747.6914
                                                                        47.5004
        33.2504
   -250247.58257   -122388.00055
                  23057568.1724                                   23057565.3164
                                                                        45.0004
        32.2504
    -20475.07857    -10729.87554
                  23464989.8834                                   23464986.5784
                                                                        43.5004
        28.0004
    -31037.78957    -17247.01654
                  24463852.0634                                   24463847.1604
                                                                        43.0004
        25.5004
 09 10 23 23 11 30.0000000  0  9G02G04G05G10G13G23G29G30G31
   1313442.69148   1068349.29347
                  20598139.7274                                   20598133.6994
                                                                        52.5004
        43.2504
   1515089.58648   1189823.18446
                  21641289.9304                                   21641286.6914
                                                                        50.2504
        39.5004
   1074681.19147    922134.72345
                  23804938.8204                                   23804934.7624
                                                                        44.5004
        32.0004
   1087287.08647    929823.33645
                  22877833.1884                                   22877830.0164
                                                                        45.5004
        31.7504
   1272927.01248   1043942.37946
                  21458022.9224                                   21458018.3674
                                                                        50.2504
        37.0004
   1469688.93048   1162585.24645
                  22396964.0634                                   22396958.1054
                                                                        48.2504
        32.2504
   1145456.77047    965173.84445
                  23323161.9844                                   23323158.6214
                                                                        46.0004
        32.2504
   1538007.92647   1203672.46944
                  23761557.9224                                   23761555.1134
                                                                        42.2504
        26.0004
   1518746.02347   1190376.77343
                  24758766.0554                                   24758761.0164
                                                                        42.5004
        23.7504
 09 10 23 23 12  0.0000000  0  9G02G04G05G10G13G23G25G29G30
   1203914.05148    983002.36747
                  20577296.7584                                   20577290.8834
                                                                        53.0004
        43.2504
   1488598.53948   1169180.78546
                  21636248.8364                                   21636244.9064
                                                                        50.2504
        39.0004
    865225.73847    758922.66045
                  23765080.8834                                   23765076.4964
                                                                        45.5004
        32.2504
    883229.65247    770817.54345
                  22839002.2194                                   22838999.3404
                                                                        45.5004
        32.5004
   1146783.02348    945648.36746
                  21434018.4844                                   21434013.6564
                                                                        51.2504
        37.0004
   1424700.67248   1127529.45745
                  22388402.7424                                   22388396.6254
                                                                        48.0004
        32.7504
   1331884.59056   1056508.30153
                  24323869.3284                                   24323866.0434
                                                                        41.2504
        22.0004
    965706.78147    825108.91045
                  23288956.6804                                   23288953.4964
                                                                        46.0004
        32.0004
   1521080.32847   1190482.13343
                  23758336.4844                                   23758333.9104
                                                                        42.0004
        23.5004
 09 10 23 23 12 30.0000000  0  9G02G04G05G10G13G23G25G29G30
   1094830.19148    898002.01247
                  20556539.0234                                   20556533.1454
                                                                        52.7504
        43.5004
   1462400.67648   1148766.84446
                  21631263.4224                                   21631259.9264
                                                                        51.0004
        38.7504
    655824.14847    595752.54745
                  23725232.6414                                   23725228.4224
                                                                        45.2504
        31.7504
    679328.10247    611933.25445
                  22800201.4224                                   22800198.4534
                                                                        46.2504
        34.2504
   1021163.58648    847763.09446
                  21410113.5944                                   21410109.3954
                                                                        51.5004
        36.5004
   1380125.03548   1092795.19145
                  22379920.6644                                   22379914.0474
                                                                        48.0004
        32.5004
   1142758.27346    909137.15643
                  24287880.3364                                   24287875.9654
                                                                        40.2504
        19.2504
    786230.32047    685257.13345
                  23254803.6644                                   23254799.8794
                                                                        46.2504
        32.5004
   1504459.18446   1177530.60944
                  23755173.9844                                   23755170.9064
                                                                        40.0004
        24.5004
 09 10 23 23 13  0.0000000  0  9G02G04G05G10G13G23G25G29G30
    986316.45348    813445.94147
                  20535889.3444                                   20535883.4104
                                                                        53.0004
        43.0004
   1436619.28148   1128677.45346
                  21626357.5704                                   21626354.0944
                                                                        50.5004
        38.7504
    446603.21147    432723.25845
                  23685419.3054                                   23685414.9694
                                                                        44.5004
        31.7504
    475708.52047    453268.68045
                  22761453.3754                                   22761450.9104
                                                                        46.5004
        33.5004
    896194.85948    750384.87146
                  21386333.0164                                   21386328.4024
                                                                        51.0004
        37.2504
   1336085.02748   1058478.30945
                  22371540.2814                                   22371533.6884
                                                                        48.5004
        32.5004
    953912.93446    761984.94943
                  24251943.7734                                   24251939.8164
                                                                        40.5004
        19.7504
    607154.25847    545717.35545
                  23220726.6644                                   23220723.2344
                                                                        46.2504
        32.5004
   1488265.87546   1164912.44544
                  23752092.8594                                   23752089.7814
                                                                        40.7504
        25.0004
 09 10 23 23 13 30.0000000  0  9G02G04G05G10G13G23G25G29G30
    878456.62548    729399.34847
                  20515364.1484                                   20515358.3204
                                                                        52.7504
        43.2504
   1411335.40648   1108975.74646
                  21621545.9694                                   21621542.4414
                                                                        50.7504
        39.2504
    237649.03547    269901.84845
                  23645656.2504                                   23645652.2344
                                                                        45.0004
        31.7504
    272456.54347    294890.51645
                  22722776.5314                                   22722773.3054
                                                                        47.2504
        34.5004
    771960.68048    653579.05146
                  21362692.2034                                   21362687.2624
                                                                        50.7504
        37.0004
   1292661.92248   1024642.14545
                  22363277.1564                                   22363270.6334
                                                                        49.0004
        32.2504
    765434.26246    615118.50443
                  24216077.7894                                   24216074.3014
                                                                        40.2504
        19.7504
    428564.77747    406556.74645
                  23186742.1334                                   23186738.7304
                                                                        45.7504
        33.2504
   1472581.01646   1152690.45344
                  23749107.8834                                   23749104.7384
                                                                        41.0004
        24.5004
 09 10 23 23 14  0.0000000  0  9G02G04G05G10G13G23G25G29G30
    771297.44948    645898.70347
                  20494972.5634                                   20494966.5434
                                                                        52.5004
        43.7504
   1386593.54748   1089696.37546
                  21616837.9844                                   21616834.5084
                                                                        51.2504
        38.2504
     29009.32047    107325.47345
                  23605953.5944                                   23605949.8594
                                                                        44.5004
        31.7504
     69620.98847    136836.84845
                  22684178.0634                                   22684174.4024
                                                                        46.7504
        33.5004
    648507.84848    557382.05146
                  21339199.8204                                   21339195.2974
                                                                        50.5004
        37.2504
   1249900.06648    991321.22345
                  22355139.1954                                   22355133.3914
                                                                        48.0004
        32.5004
    577371.57446    468576.21943
                  24180290.1174                                   24180286.6024
                                                                        41.5004
        22.0004
    250510.03147    267812.80545
                  23152859.1804                                   23152856.3794
                                                                        45.5004
        32.2504
   1457447.36347   1140897.98844
                  23746228.4774                                   23746224.9844
                                                                        43.0004
        26.7504
 09 10 23 23 14 30.0000000  0  9G02G04G05G10G13G23G25G29G30
    664860.43048    562960.78547
                  20474718.1954                                   20474712.4494
                                                                        51.7504
        43.5004
   1362413.04348   1070854.41046
                  21612236.7584                                   21612233.1214
                                                                        51.0004
        38.5004
   -179292.62947    -54987.72745
                  23566315.2504                                   23566311.5354
                                                                        46.5004
        33.2504
   -132774.48847    -20873.93045
                  22645663.6884                                   22645659.4774
                                                                        47.0004
        33.0004
    525858.48848    461811.13346
                  21315860.3984                                   21315855.9884
                                                                        50.5004
        37.2504
   1207818.58648    958530.46945
                  22347131.7504                                   22347125.1724
                                                                        48.2504
        32.5004
    389748.55547    322376.51243
                  24144587.7274                                   24144582.8634
                                                                        42.5004
        22.7504
     73014.11347    129504.31645
                  23119082.7034                                   23119079.6414
                                                                        44.7504
        31.7504
   1442883.63747   1129549.52744
                  23743456.9844                                   23743454.3094
                                                                        42.5004
        28.5004
 09 10 23 23 15  0.0000000  0  9G02G04G05G10G13G23G25G29G30
    559160.87948    480597.51247
                  20454604.1254                                   20454598.5434
                                                                        52.7504
        43.0004
   1338805.94548   1052459.21546
                  21607743.9144                                   21607740.4884
                                                                        51.0004
        38.7504
   -387240.90247   -217025.33645
                  23526743.9534                                   23526739.9384
                                                                        45.5004
        32.2504
   -334714.40647   -178229.74645
                  22607235.4384                                   22607231.4654
                                                                        46.2504
        33.2504
    404027.38748    366877.81346
                  21292676.5164                                   21292672.2584
                                                                        50.5004
        37.0004
   1166429.89848    926279.53945
                  22339255.6254                                   22339249.3054
                                                                        48.7504
        33.0004
    202582.34847    176532.75443
                  24108970.5554                                   24108966.7034
                                                                        42.7504
        23.2504
   -103906.65247     -8356.00845
                  23085416.3754                                   23085413.2384
                                                                        45.7504
        33.2504
   1428900.78147   1118653.80944
                  23740796.3284                                   23740793.3404
                                                                        44.0004
        29.5004
 09 10 23 23 15 30.0000000  0  9G02G04G05G10G13G23G25G29G30
    454205.37948    398814.02747
                  20434631.9924                                   20434625.4844
                                                                        52.2504
        43.2504
   1315777.10248   1034514.62546
                  21603361.8674                                   21603358.3634
                                                                        50.5004
        38.7504
   -594827.04747   -378780.77745
                  23487241.4774                                   23487237.6524
                                                                        45.5004
        32.2504
   -536189.66447   -335223.44145
                  22568896.0234                                   22568892.4344
                                                                        45.5004
        32.5004
    283022.00448    272587.95346
                  21269650.0004                                   21269645.6134
                                                                        50.5004
        36.5004
   1125738.15648    894571.70745
                  22331512.6174                                   22331506.0164
                                                                        48.0004
        32.7504
     15881.93846     31051.93443
                  24073442.0944                                   24073439.0394
                                                                        41.5004
        23.5004
   -280243.72747   -145761.50845
                  23051860.3134                                   23051856.5944
                                                                        46.2504
        34.0004
   1415501.71547   1108212.96145
                  23738246.5164                                   23738244.0704
                                                                        43.2504
        30.2504
 09 10 23 23 16  0.0000000  0  9G02G04G05G10G13G23G25G29G30
    350000.34848    317615.29747
                  20414802.5864                                   20414796.5164
                                                                        52.7504
        43.2504
   1293330.47348   1017023.70746
                  21599090.6484                                   21599087.2154
                                                                        50.5004
        38.5004
   -802043.16847   -540247.93445
                  23447809.3204                                   23447805.3674
                                                                        46.0004
        31.7504
   -737192.37547   -491848.96945
                  22530646.6954                                   22530643.1334
                                                                        46.2504
        34.0004
    162848.51648    178946.28546
                  21246781.8754                                   21246777.2504
                                                                        51.0004
        36.2504
   1085747.23447    863409.93045
                  22323901.8984                                   22323896.1374
                                                                        47.5004
        31.7504
   -170343.82846   -114059.00444
                  24038004.8754                                   24038001.4614
                                                                        41.7504
        24.7504
   -455988.82047   -282705.73845
                  23018416.8594                                   23018413.6374
                                                                        45.5004
        33.0004
   1402689.52347   1098229.40244
                  23735808.6094                                   23735806.0004
                                                                        43.5004
        28.0004
 09 10 23 23 16 30.0000000  0  9G02G04G05G10G13G23G25G29G30
    246546.78148    237002.09847
                  20395115.6954                                   20395109.9104
                                                                        52.7504
        43.5004
   1271465.01648    999985.68046
                  21594929.5004                                   21594926.0514
                                                                        50.2504
        38.5004
  -1008885.87147   -701424.10945
                  23408448.6414                                   23408444.8054
                                                                        45.5004
        32.5004
   -937718.75447   -648103.24245
                  22492487.7664                                   22492484.1764
                                                                        46.7504
        34.5004
     43508.66448     85954.20746
                  21224071.9924                                   21224067.4884
                                                                        50.2504
        37.0004
   1046456.12147    832793.50045
                  22316425.4454                                   22316418.6884
                                                                        47.0004
        31.5004
   -356091.59847   -258797.47343
                  24002658.2274                                   24002654.6484
                                                                        42.7504
        23.2504
   -631137.92247   -419185.55145
                  22985086.8984                                   22985083.7114
                                                                        45.5004
        33.5004
   1390463.03147   1088702.34044
                  23733481.6954                                   23733479.2854
                                                                        42.5004
        27.0004
 09 10 23 23 17  0.0000000  0  9G02G04G05G10G13G23G25G29G30
    143845.40648    156974.99247
                  20375572.6804                                   20375566.3244
                                                                        52.7504
        43.2504
   1250179.27348    983399.37546
                  21590879.0784                                   21590875.5394
                                                                        50.7504
        38.2504
  -1215354.07847   -862308.46145
                  23369159.2894                                   23369155.7154
                                                                        43.7504
        33.0004
  -1137767.12148   -803985.09045
                  22454419.8914                                   22454416.5314
                                                                        48.0004
        34.7504
    -74996.35948     -6387.37146
                  21201521.4064                                   21201517.0004
                                                                        49.5004
        36.7504
   1007863.23047    802721.12945
                  22309081.6024                                   22309074.9144
                                                                        47.5004
        31.5004
   -541357.82046   -403160.70743
                  23967403.2274                                   23967399.6094
                                                                        41.2504
        22.2504
   -805689.70747   -555199.94145
                  22951871.2194                                   22951867.9024
                                                                        44.7504
        33.5004
   1378817.34047   1079627.78144
                  23731264.5474                                   23731262.4804
                                                                        42.2504
        24.0004
 09 10 23 23 17 30.0000000  0  9G02G04G05G10G13G23G25G29G30
     41895.39848     77533.35247
                  20356171.9844                                   20356165.9774
                                                                        52.0004
        43.0004
   1229469.66048    967262.00446
                  21586938.0944                                   21586934.7544
                                                                        50.5004
        38.0004
  -1421446.13347  -1022899.67245
                  23329940.7114                                   23329937.6134
                                                                        44.0004
        32.7504
  -1337336.57847   -959493.73045
                  22416443.1254                                   22416439.6804
                                                                        47.5004
        35.5004
   -192667.55548    -98079.17246
                  21179128.9774                                   21179124.6684
                                                                        50.0004
        37.0004
    969964.82847    773189.95345
                  22301869.5004                                   22301863.2074
                                                                        47.0004
        31.7504
   -726141.64146   -547148.07443
                  23932239.5474                                   23932236.0274
                                                                        41.2504
        22.7504
   -979642.18447   -690747.29345
                  22918768.8134                                   22918765.9224
                                                                        45.0004
        33.2504
   1367749.17247   1071003.19943
                  23729159.1564                                   23729156.1954
                                                                        42.5004
        22.5004
 09 10 23 23 18  0.0000000  0  9G02G04G05G10G13G23G25G29G30
    -59304.99248     -1324.17247
                  20336914.2274                                   20336908.2074
                                                                        52.5004
        43.5004
   1209332.33248    951570.57046
                  21583106.0474                                   21583102.7464
                                                                        50.2504
        38.0004
  -1627162.34047  -1183198.00845
                  23290794.5784                                   23290791.0394
                                                                        45.2504
        33.7504
  -1536427.16447  -1114629.28545
                  22378557.3524                                   22378554.2424
                                                                        47.5004
        34.2504
   -309506.51248   -189122.46146
                  21156895.3524                                   21156890.3984
                                                                        50.5004
        37.5004
    932756.94947    744196.81345
                  22294789.1724                                   22294782.2664
                                                                        47.0004
        30.7504
   -910442.25647   -690758.88643
                  23897168.9384                                   23897164.5004
                                                                        42.2504
        21.7504
  -1152995.52747   -825827.78945
                  22885781.0944                                   22885777.7854
                                                                        45.5004
        33.5004
   1357253.55347   1062824.85243
                  23727161.8834                                   23727158.4694
                                                                        43.5004
        22.7504
 09 10 23 23 18 30.0000000  0  9G02G04G05G10G13G23G25G29G30
   -159757.46948    -79598.81647
                  20317799.0474                                   20317793.0474
                                                                        52.2504
        43.0004
   1189763.33648    936321.99646
                  21579382.4694                                   21579378.9694
                                                                        50.0004
        38.0004
  -1832503.19147  -1343203.94145
                  23251720.0004                                   23251715.9734
                                                                        46.5004
        34.2504
  -1735038.36347  -1269391.23445
                  22340762.5864                                   22340758.8914
                                                                        46.0004
        33.5004
   -425514.64848   -279518.38346
                  21134820.1174                                   21134815.6024
                                                                        50.0004
        37.0004
    896235.08647    715738.23445
                  22287839.2344                                   22287832.5514
                                                                        47.5004
        31.2504
  -1094258.85546   -833992.58243
                  23862190.1414                                   23862185.1134
                                                                        41.5004
        20.7504
  -1325749.38747   -960441.16845
                  22852907.0864                                   22852903.6994
                                                                        45.2504
        34.2504
   1347324.65647   1055088.05544
                  23725272.0394                                   23725269.3754
                                                                        44.0004
        24.5004
 09 10 23 23 19  0.0000000  0  9G02G04G05G10G13G23G25G29G30
   -259455.88348   -157285.94547
                  20298826.6954                                   20298820.8134
                                                                        52.5004
        43.2504
   1170766.31648    921519.11746
                  21575767.4144                                   21575763.8484
                                                                        50.5004
        38.0004
  -2037460.03147  -1502910.57045
                  23212718.0634                                   23212713.6994
                                                                        47.0004
        34.0004
  -1933162.27347  -1423773.47345
                  22303060.9774                                   22303057.1764
                                                                        47.5004
        34.0004
   -540685.69148   -369262.04746
                  21112903.3594                                   21112899.0514
                                                                        50.0004
        37.0004
    860402.90647    687817.07845
                  22281020.6884                                   22281013.8204
                                                                        47.0004
        31.5004
  -1277583.30146   -976842.79743
                  23827304.2274                                   23827299.6604
                                                                        41.2504
        21.0004
  -1497895.70347  -1094581.14545
                  22820148.8984                                   22820145.2154
                                                                        45.5004
        33.5004
   1337965.53147   1047795.21944
                  23723491.4774                                   23723487.9774
                                                                        44.5004
        25.7504
 09 10 23 23 19 30.0000000  0  9G02G04G05G10G13G23G25G29G30
   1217015.69148    993211.40247
                  20579790.2584                                   20579783.8164
                                                                        52.7504
        43.0004
   2727752.00848   2134754.69946
                  21872052.1094                                   21872048.3364
                                                                        50.0004
        38.0004
   -666612.78547   -434717.94545
                  23473581.3754                                   23473577.1414
                                                                        46.2504
        33.2504
   -555378.14847   -350175.45745
                  22565244.6644                                   22565240.5944
                                                                        47.5004
        34.0004
    920396.86748    769243.84846
                  21390938.2114                                   21390933.5124
                                                                        50.0004
        37.5004
   2400671.71948   1888026.54745
                  22574124.1954                                   22574117.8364
                                                                        48.5004
        31.5004
    115005.51246    108291.41843
                  24092304.6254                                   24092301.3554
                                                                        41.5004
        22.5004
    -94014.21547      -647.49645
                  23087298.6334                                   23087295.0554
                                                                        45.2504
        33.2504
   2904585.30147   2268537.95344
                  24021609.7664                                   24021606.3594
                                                                        45.7504
        27.0004
 09 10 23 23 20  0.0000000  0  9G02G04G05G10G13G23G25G29G30
   1118807.75048    916685.78147
                  20561101.6804                                   20561095.6684
                                                                        52.2504
        43.2504
   2709874.71148   2120824.32046
                  21868650.1884                                   21868646.5474
                                                                        50.2504
        38.0004
   -870816.34447   -593837.62945
                  23434722.9384                                   23434718.2544
                                                                        46.0004
        32.0004
   -752539.99247   -503808.03945
                  22527726.3984                                   22527722.7074
                                                                        47.7504
        34.7504
    806883.14548    680791.61346
                  21369337.3134                                   21369332.8524
                                                                        49.7504
        37.2504
   2366194.28547   1861161.03145
                  22567563.1954                                   22567556.4454
                                                                        47.7504
        32.5004
    -67344.52046    -33799.44943
                  24057605.1254                                   24057600.8094
                                                                        41.5004
        22.7504
   -264957.46947   -133850.02745
                  23054769.4384                                   23054765.4304
                                                                        44.5004
        33.5004
   2896336.50847   2262110.27044
                  24020040.2114                                   24020037.1374
                                                                        45.0004
        27.0004
 09 10 23 23 20 30.0000000  0  9G02G04G05G10G13G23G25G29G30
   1021338.77048    840735.95747
                  20542553.7894                                   20542547.9844
                                                                        53.0004
        43.5004
   2692547.66048   2107322.74646
                  21865352.7424                                   21865349.2934
                                                                        50.0004
        37.7504
  -1074646.26247   -752666.11745
                  23395934.8594                                   23395930.7734
                                                                        45.2504
        32.0004
   -949224.25448   -657068.48845
                  22490298.6644                                   22490295.0314
                                                                        48.0004
        35.5004
    694192.09048    592980.41446
                  21347892.6884                                   21347888.4064
                                                                        50.0004
        37.0004
   2332384.28148   1834815.57445
                  22561129.6094                                   22561123.2114
                                                                        48.0004
        32.5004
   -249210.45747   -175513.15644
                  24022996.6094                                   24022992.7854
                                                                        42.0004
        25.2504
   -435301.98047   -266586.00445
                  23022353.6174                                   23022350.4144
                                                                        45.0004
        33.2504
   2888632.61347   2256107.25044
                  24018574.1094                                   24018570.7074
                                                                        43.7504
        27.0004
 09 10 23 23 21  0.0000000  0  9G02G04G05G10G13G23G25G29G30
    924602.35248    765356.93847
                  20524145.4924                                   20524139.6724
                                                                        52.5004
        43.2504
   2675762.43048   2094243.35546
                  21862158.6724                                   21862154.9184
                                                                        50.2504
        38.0004
  -1278107.43447   -911207.28545
                  23357217.7424                                   23357213.9694
                                                                        45.7504
        33.2504
  -1145435.48848   -809960.35545
                  22452960.6884                                   22452957.1254
                                                                        48.0004
        35.5004
    582317.51648    505805.39546
                  21326603.8524                                   21326599.4344
                                                                        49.7504
        37.0004
   2299233.12147   1808983.51645
                  22554821.1564                                   22554814.5554
                                                                        47.0004
        33.0004
   -430595.52046   -316852.12144
                  23988480.2974                                   23988476.3134
                                                                        41.7504
        24.2504
   -605052.37547   -398859.02745
                  22990051.2114                                   22990047.4304
                                                                        44.5004
        33.2504
   2881463.17647   2250520.67244
                  24017209.2034                                   24017206.7384
                                                                        42.5004
        26.7504
 09 10 23 23 21 30.0000000  0  9G02G04G05G10G13G23G25G29G30
    828601.14848    690550.81647
                  20505876.8674                                   20505871.5204
                                                                        53.0004
        43.5004
   2659519.96148   2081586.88746
                  21859067.9224                                   21859064.3444
                                                                        50.5004
        37.0004
  -1481195.30147  -1069457.57445
                  23318571.3984                                   23318568.2384
                                                                        45.2504
        34.5004
  -1341169.03948   -962480.04745
                  22415713.7114                                   22415710.3594
                                                                        48.2504
        35.5004
    471262.24248    419268.78146
                  21305470.3594                                   21305466.2704
                                                                        49.0004
        37.2504
   2266740.84447   1783664.84445
                  22548637.2114                                   22548631.2274
                                                                        47.2504
        32.2504
   -611494.46547   -457812.30544
                  23954057.0084                                   23954052.6564
                                                                        42.0004
        25.2504
   -774204.14147   -530665.57845
                  22957862.2734                                   22957858.9694
                                                                        45.5004
        33.0004
   2874827.44947   2245349.96544
                  24015946.2114                                   24015944.0004
                                                                        42.7504
        25.5004
 09 10 23 23 22  0.0000000  0  9G02G04G05G10G13G23G25G29G30
    733327.71148    616311.79347
                  20487747.2814                                   20487741.4064
                                                                        53.0004
        43.7504
   2643809.33648   2069344.82046
                  21856078.3134                                   21856074.5434
                                                                        50.0004
        37.5004
  -1683916.10947  -1227421.83645
                  23279995.1884                                   23279991.0664
                                                                        46.7504
        35.5004
  -1536430.61347  -1114631.94545
                  22378556.4534                                   22378553.3634
                                                                        47.5004
        35.5004
    361018.84048    333364.81646
                  21284492.3284                                   21284487.5784
                                                                        50.0004
        37.2504
   2234897.28947   1758851.67245
                  22542577.7974                                   22542571.9614
                                                                        46.0004
        31.2504
   -791913.35247   -598398.40244
                  23919723.0474                                   23919719.9454
                                                                        42.5004
        25.2504
   -942762.53147   -662009.78145
                  22925786.9614                                   22925782.8324
                                                                        45.2504
        33.5004
   2868714.33646   2240586.41844
                  24014782.7894                                   24014780.8754
                                                                        41.5004
        24.5004
 09 10 23 23 22 30.0000000  0  9G02G04G05G10G13G23G25G29G30
    638777.34048    542636.18047
                  20469754.7274                                   20469748.8834
                                                                        52.0004
        43.2504
   2628624.30548   2057512.31646
                  21853188.2584                                   21853184.6994
                                                                        49.5004
        37.0004
  -1886272.65647  -1385102.23045
                  23241488.1254                                   23241484.1174
                                                                        46.5004
        34.2504
  -1731222.66848  -1266417.96145
                  22341488.5784                                   22341484.9574
                                                                        48.2504
        34.7504
    251582.77348    248089.92246
                  21263667.1414                                   21263662.8524
                                                                        49.5004
        37.0004
   2203695.65247   1734538.68845
                  22536640.9924                                   22536634.4654
                                                                        45.7504
        31.0004
   -971853.83646   -738611.73443
                  23885482.1484                                   23885478.4574
                                                                        40.7504
        23.2504
  -1110730.19547   -792893.67245
                  22893824.1564                                   22893820.5474
                                                                        45.0004
        33.5004
   2863115.75047   2236223.78543
                  24013717.6644                                   24013715.1524
                                                                        42.0004
        23.5004
 09 10 23 23 23  0.0000000  0  9G02G04G05G10G13G23G25G29G30
    544948.47748    469522.78147
                  20451899.6024                                   20451894.0514
                                                                        52.0004
        43.5004
   2613961.09848   2046086.42646
                  21850398.1954                                   21850394.4494
                                                                        49.7504
        38.0004
  -2088264.67247  -1542498.63345
                  23203049.9924                                   23203046.0864
                                                                        46.5004
        33.5004
  -1925545.30148  -1417838.20745
                  22304510.5314                                   22304506.8284
                                                                        48.5004
        35.2504
    142952.79348    163443.15246
                  21242995.3984                                   21242991.3204
                                                                        50.5004
        36.7504
   2173131.93047   1710722.80144
                  22530824.2664                                   22530818.1454
                                                                        46.0004
        29.5004
  -1151315.04346   -878451.59443
                  23851331.2114                                   23851328.0664
                                                                        41.5004
        22.5004
  -1278106.86347   -923317.08245
                  22861972.7664                                   22861970.0354
                                                                        46.2504
        34.5004
   2858026.91047   2232258.39143
                  24012749.3364                                   24012746.5984
                                                                        42.0004
        22.7504
 09 10 23 23 23 30.0000000  0  9G02G04G05G10G13G23G25G29G30
    451839.32048    396970.19147
                  20434181.8054                                   20434175.8954
                                                                        51.5004
        43.0004
   2599816.27348   2035064.48446
                  21847706.5164                                   21847703.2194
                                                                        49.5004
        37.5004
  -2289892.09047  -1699610.91845
                  23164681.6724                                   23164677.6334
                                                                        46.2504
        33.5004
  -2119397.62948  -1568891.94545
                  22267622.0234                                   22267618.3134
                                                                        49.0004
        34.7504
     35127.42248     79423.34846
                  21222477.0784                                   21222472.5554
                                                                        49.5004
        37.0004
   2143202.23847   1687400.96945
                  22525129.1024                                   22525122.2344
                                                                        47.0004
        31.0004
  -1330295.90646  -1017917.17243
                  23817272.9694                                   23817268.6524
                                                                        41.5004
        23.7504
  -1444892.03947  -1053279.55545
                  22830234.7424                                   22830231.6884
                                                                        45.2504
        34.0004
   2853442.50447   2228686.13743
                  24011877.6884                                   24011873.9454
                                                                        42.2504
        22.5004
 09 10 23 23 24  0.0000000  0  9G02G04G05G10G13G23G25G29G30
    359442.73048    324972.84847
                  20416599.0004                                   20416593.6844
                                                                        51.5004
        43.5004
   2586179.87948   2024438.70346
                  21845111.8444                                   21845108.1134
                                                                        49.0004
        37.5004
  -2491160.37147  -1856443.35545
                  23126381.3364                                   23126377.0314
                                                                        47.0004
        33.0004
  -2312785.37948  -1719583.70345
                  22230821.1954                                   22230817.8874
                                                                        48.5004
        34.5004
    -71900.96548     -3975.38746
                  21202110.0944                                   21202105.6484
                                                                        49.0004
        37.5004
   2113896.39847   1664565.21545
                  22519552.3524                                   22519546.1134
                                                                        46.2504
        31.0004
  -1508801.61747  -1157012.53143
                  23783304.7974                                   23783299.9064
                                                                        42.0004
        22.0004
  -1611091.09047  -1182785.27045
                  22798607.7974                                   22798605.0394
                                                                        45.5004
        34.5004
   2849352.13747   2225498.85243
                  24011099.1484                                   24011095.6214
                                                                        42.7504
        22.5004
 09 10 23 23 24 30.0000000  0  9G02G04G05G10G13G23G25G29G30
    267753.35248    253526.57047
                  20399151.1254                                   20399145.0784
                                                                        51.0004
        43.5004
   2573044.60548   2014203.40246
                  21842612.4694                                   21842608.8594
                                                                        48.7504
        37.7504
  -2692072.37147  -2012998.21145
                  23088149.3754                                   23088145.2854
                                                                        47.7504
        34.0004
  -2505711.35248  -1869915.60245
                  22194108.6724                                   22194105.4774
                                                                        48.0004
        35.7504
   -178137.36348    -86757.08646
                  21181894.1644                                   21181889.8674
                                                                        48.0004
        37.7504
   2085207.32447   1642210.11345
                  22514093.5554                                   22514086.4884
                                                                        47.2504
        30.0004
  -1686834.71147  -1295739.65243
                  23749425.6884                                   23749421.5354
                                                                        42.0004
        23.0004
  -1776706.88347  -1311836.51645
                  22767092.2814                                   22767088.9964
                                                                        45.0004
        34.5004
   2845747.72347   2222690.34844
                  24010413.1884                                   24010409.5864
                                                                        43.2504
        24.5004
 09 10 23 23 25  0.0000000  0  9G02G04G05G10G13G23G25G29G30
    176772.42648    182632.32447
                  20381837.9694                                   20381832.4024
                                                                        51.7504
        43.2504
   2560410.00848   2004358.25446
                  21840207.9614                                   21840204.0904
                                                                        50.0004
        37.7504
  -2892625.51247  -2169273.40245
                  23049985.6724                                   23049981.1094
                                                                        47.5004
        35.2504
  -2698172.47347  -2019885.23045
                  22157484.6564                                   22157481.2504
                                                                        47.5004
        35.7504
   -283580.04348   -168920.20346
                  21161828.8444                                   21161824.8204
                                                                        49.0004
        37.0004
   2057133.80947   1620334.66845
                  22508751.2504                                   22508744.1484
                                                                        47.0004
        31.0004
  -1864391.24646  -1434095.39543
                  23715638.2344                                   23715633.8054
                                                                        41.0004
        22.7504
  -1941735.88347  -1440430.51245
                  22735688.6254                                   22735685.2854
                                                                        45.2504
        34.0004
   2842626.97347   2220258.74244
                  24009819.7424                                   24009815.9534
                                                                        42.5004
        24.5004
 09 10 23 23 25 30.0000000  0  9G02G04G05G10G13G23G25G29G30
     86493.95748    112285.46947
                  20364658.6414                                   20364652.9024
                                                                        52.2504
        43.5004
   2548267.48048   1994896.53546
                  21837897.3204                                   21837894.1254
                                                                        49.2504
        37.0004
  -3092824.13748  -2325272.35945
                  23011888.4614                                   23011885.1844
                                                                        48.0004
        34.7504
  -2890173.42247  -2169496.35545
                  22120947.7504                                   22120944.1524
                                                                        47.7504
        35.0004
   -388235.01648   -250469.46946
                  21141913.8134                                   21141909.2424
                                                                        49.5004
        36.7504
   2029667.55548   1598932.42645
                  22503524.7974                                   22503517.7814
                                                                        48.0004
        31.7504
  -2041474.97746  -1572082.73043
                  23681939.7894                                   23681935.6994
                                                                        40.2504
        22.7504
  -2106182.69947  -1568570.84445
                  22704395.2894                                   22704392.2154
                                                                        44.7504
        34.5004
   2839979.74247   2218196.01644
                  24009315.3284                                   24009312.3984
                                                                        42.0004
        25.5004
