     2.11           OBSERVATION DATA    G (GPS)             RINEX VERSION / TYPE
teqc  2019Feb25                         20221121 12:28:44UTCPGM / RUN BY / DATE
OSX ker:10.11.6|Core i5|gcc 4.3 -m64|OSX ker:10.10+|=+      COMMENT
BIT 2 OF LLI FLAGS DATA COLLECTED UNDER A/S CONDITION       COMMENT
04712990                                                    MARKER NAME
2990                                                        MARKER NUMBER
-Unknown-           -Unknown-                               OBSERVER / AGENCY
0220400471          TRIMBLE R7          2.30                REC # / TYPE / VERS
-Unknown-           TRM39105.00     NONE                    ANT # / TYPE
  1449458.8879 -1709242.6820  5952441.4335                  APPROX POSITION XYZ
        0.0000        0.0000        0.0000                  ANTENNA: DELTA H/E/N
     1     1                                                WAVELENGTH FACT L1/2
    20    L1    L2    L5    L6    L7    L8    C1    P1    C2# / TYPES OF OBSERV
          P2    C5    C6    C7    C8    S1    S2    S5    S6# / TYPES OF OBSERV
          S7    S8                                          # / TYPES OF OBSERV
    30.0000                                                 INTERVAL
    15                                                      LEAP SECONDS
Forced Modulo Decimation to 30 seconds                      COMMENT
 SNR is mapped to RINEX snr flag value [0-9]                COMMENT
  L1 & L2: min(max(int(snr_dBHz/6), 0), 9)                  COMMENT
teqc edited: Beidou # 1 - 37 excluded                       COMMENT
  2009    10    26     0     0    0.0000000     GPS         TIME OF FIRST OBS
                                                            END OF HEADER
 09 10 26  0  0  0.0000000  0 10G02G04G05G10G13G23G25G29G16G07
  -6623560.60548  -5135990.88746
                  20994480.2504                                   20994474.8324
                                                                        53.0004
        41.5004
    210227.13347    168394.79344
                  23565885.6024                                   23565882.1804
                                                                        44.2504
        28.5004
 -18522260.43748 -14370926.60246
                  21654305.8914                                   21654301.9574
                                                                        50.7504
        40.2504
 -17286916.42648 -13412376.67246
                  20965336.7034                                   20965333.3554
                                                                        51.5004
        41.0004
  -7736240.32447  -5996108.87945
                  21599609.3984                                   21599605.2074
                                                                        47.7504
        34.0004
   -967627.46146   -744460.48444
                  24037870.3674                                   24037864.7624
                                                                        41.7504
        24.2504
 -15754285.26247 -12225401.14145
                  22797142.5704                                   22797138.9694
                                                                        46.5004
        30.0004
 -14150354.89148 -10976994.25046
                  22090145.6564                                   22090142.4924
                                                                        49.2504
        37.7504
  -6769273.24647  -5236915.56643
                  23907928.2194                                   23907923.0864
                                                                        42.0004
        21.5004
  -6369403.25047  -4951241.10544
                  23876226.5944                                   23876223.5594
                                                                        43.2504
        27.2504
 09 10 26  0  0 30.0000000  0 10G02G04G05G10G13G23G25G29G16G07
  -6658532.26648  -5163241.52046
                  20987825.1174                                   20987819.6604
                                                                        53.2504
        41.5004
    229236.84047    183207.53144
                  23569502.4304                                   23569499.4804
                                                                        45.0004
        28.7504
 -18688021.42648 -14500090.98846
                  21622762.3284                                   21622758.9344
                                                                        51.0004
        41.0004
 -17434815.59448 -13527622.77746
                  20937192.2114                                   20937189.0594
                                                                        52.0004
        40.5004
  -7778555.37947  -6029081.67645
                  21591557.1334                                   21591553.6724
                                                                        47.7504
        34.5004
   -955794.11746   -735239.71944
                  24040122.4614                                   24040116.9104
                                                                        41.7504
        24.7504
 -15885301.64547 -12327491.83245
                  22772211.4614                                   22772207.0864
                                                                        46.2504
        30.0004
 -14261085.82848 -11063278.10246
                  22069074.0314                                   22069070.8594
                                                                        49.5004
        37.0004
  -6905556.09847  -5343109.98843
                  23881994.7734                                   23881989.3634
                                                                        42.5004
        20.7504
  -6548818.29747  -5091044.95344
                  23842085.2814                                   23842082.0234
                                                                        42.2504
        26.5004
 09 10 26  0  1  0.0000000  0 10G02G04G05G10G13G23G25G29G16G07
  -6692942.32848  -5190054.55946
                  20981277.2584                                   20981271.5864
                                                                        52.5004
        41.5004
    248474.42647    198197.77744
                  23573162.8444                                   23573160.5664
                                                                        44.5004
        27.5004
 -18853342.66848 -14628912.74246
                  21591302.8054                                   21591299.1724
                                                                        50.5004
        40.5004
 -17582171.64548 -13642445.66846
                  20909151.4304                                   20909148.1454
                                                                        51.7504
        41.0004
  -7820242.65648  -6061565.28945
                  21583624.5784                                   21583620.7114
                                                                        48.2504
        34.7504
   -943656.55146   -725781.88743
                  24042432.1024                                   24042425.9734
                                                                        41.7504
        22.5004
 -16015738.94147 -12429131.28544
                  22747389.5554                                   22747386.1294
                                                                        46.2504
        29.7504
 -14371176.79348 -11149063.30946
                  22048124.6024                                   22048121.4534
                                                                        49.5004
        37.5004
  -7041249.96946  -5448845.47743
                  23856172.2114                                   23856167.0554
                                                                        41.2504
        20.2504
  -6727847.69547  -5230548.30144
                  23808017.1954                                   23808014.0554
                                                                        42.5004
        27.2504
 09 10 26  0  1 30.0000000  0 10G02G04G05G10G13G23G25G29G16G07
  -6726794.15648  -5216432.59046
                  20974835.5004                                   20974830.0904
                                                                        53.2504
        41.2504
    267935.85547    213362.45744
                  23576866.2734                                   23576863.9184
                                                                        45.5004
        27.5004
 -19018223.94948 -14757391.65246
                  21559926.9534                                   21559923.1954
                                                                        51.2504
        40.5004
 -17728985.19148 -13756845.83646
                  20881213.8204                                   20881210.5394
                                                                        51.7504
        40.5004
  -7861306.18748  -6093562.85945
                  21575810.0164                                   21575806.1134
                                                                        48.5004
        33.5004
   -931219.38746   -716090.60244
                  24044798.0394                                   24044793.0354
                                                                        40.7504
        24.5004
 -16145597.73847 -12530319.96145
                  22722678.3444                                   22722674.6724
                                                                        46.2504
        30.0004
 -14480629.07848 -11234350.78546
                  22027296.3754                                   22027293.3484
                                                                        49.7504
        37.2504
  -7176354.84447  -5554122.00443
                  23830462.3834                                   23830458.4064
                                                                        42.0004
        21.5004
  -6906490.72347  -5369750.62144
                  23774022.8984                                   23774019.6214
                                                                        43.0004
        28.7504
 09 10 26  0  2  0.0000000  0 10G02G04G05G10G13G23G25G29G16G07
  -6760090.44148  -5242377.74646
                  20968499.3284                                   20968493.7074
                                                                        52.5004
        41.0004
    287617.85547    228699.07044
                  23580611.6254                                   23580609.2584
                                                                        45.0004
        28.0004
 -19182664.94548 -14885527.47746
                  21528634.8674                                   21528630.9964
                                                                        51.0004
        40.5004
 -17875255.59848 -13870822.78546
                  20853379.4774                                   20853375.9614
                                                                        51.2504
        40.7504
  -7901748.92648  -6125076.68745
                  21568114.2584                                   21568109.8244
                                                                        49.2504
        33.7504
   -918486.20346   -706168.65243
                  24047221.4224                                   24047216.0394
                                                                        40.2504
        23.5004
 -16274877.64147 -12631057.56245
                  22698077.6884                                   22698073.4654
                                                                        45.5004
        30.2504
 -14589442.44548 -11319140.41846
                  22006590.1564                                   22006587.2114
                                                                        49.5004
        38.0004
  -7310870.04747  -5658939.04343
                  23804864.8204                                   23804861.0594
                                                                        42.0004
        21.7504
  -7084745.93047  -5508650.77044
                  23740101.7974                                   23740098.3834
                                                                        43.0004
        27.7504
 09 10 26  0  2 30.0000000  0 10G02G04G05G10G13G23G25G29G16G07
  -6792830.69548  -5267889.63746
                  20962269.1024                                   20962263.2704
                                                                        52.5004
        41.0004
    307520.10547    244207.30144
                  23584399.3984                                   23584396.6374
                                                                        44.2504
        28.0004
 -19346662.35548 -15013317.67246
                  21497427.3054                                   21497423.4344
                                                                        50.0004
        40.7504
 -18020980.28548 -13984374.48446
                  20825648.7344                                   20825645.4884
                                                                        51.7504
        40.5004
  -7941571.10248  -6156106.96545
                  21560536.4304                                   21560532.6174
                                                                        49.2504
        34.0004
   -905458.27046   -696017.04743
                  24049700.6334                                   24049695.1374
                                                                        38.7504
        21.0004
 -16403575.73847 -12731341.79344
                  22673586.2194                                   22673583.5864
                                                                        45.5004
        29.5004
 -14697614.66848 -11403430.44946
                  21986005.7814                                   21986002.5204
                                                                        49.0004
        37.7504
  -7444792.41046  -5763294.11743
                  23779380.6884                                   23779376.5084
                                                                        41.2504
        22.7504
  -7262608.40247  -5647244.89544
                  23706256.2424                                   23706252.4184
                                                                        43.7504
        29.5004
 09 10 26  0  3  0.0000000  0 10G02G04G05G10G13G23G25G29G16G07
  -6825017.17248  -5292970.01646
                  20956144.1484                                   20956139.0744
                                                                        52.0004
        40.7504
    327639.37947    259884.61344
                  23588227.7274                                   23588225.8484
                                                                        43.5004
        27.5004
 -19510215.35948 -15140761.55546
                  21466304.0554                                   21466300.6214
                                                                        50.5004
        40.7504
 -18166158.37548 -14097500.26646
                  20798022.3444                                   20798019.3714
                                                                        51.7504
        41.0004
  -7980775.39548  -6186655.76245
                  21553076.1414                                   21553071.9184
                                                                        49.2504
        34.0004
   -892138.84846   -685638.27743
                  24052235.1564                                   24052229.1454
                                                                        40.7504
        20.2504
 -16531691.37547 -12831172.14544
                  22649206.7974                                   22649203.5864
                                                                        46.0004
        29.2504
 -14805145.97748 -11487221.08246
                  21965543.0004                                   21965539.8094
                                                                        49.0004
        38.0004
  -7578121.25446  -5867186.74243
                  23754009.0864                                   23754005.5124
                                                                        41.5004
        22.7504
  -7440076.40647  -5785531.62944
                  23672484.6564                                   23672481.7504
                                                                        42.2504
        28.5004
 09 10 26  0  3 30.0000000  0 10G02G04G05G10G13G23G25G29G16G07
  -6856650.48448  -5317619.35946
                  20950124.6334                                   20950118.9534
                                                                        53.0004
        41.7504
    347974.85247    275730.40244
                  23592097.3524                                   23592094.6334
                                                                        44.0004
        28.0004
 -19673321.02748 -15267856.87946
                  21435266.3984                                   21435262.5864
                                                                        50.5004
        41.0004
 -18310787.74248 -14210198.46946
                  20770500.8524                                   20770497.2304
                                                                        51.7504
        41.0004
  -8019362.64148  -6216723.73845
                  21545732.8754                                   21545729.1914
                                                                        49.5004
        34.5004
   -878529.34046   -675033.44543
                  24054824.8204                                   24054818.8834
                                                                        40.5004
        19.5004
 -16659221.88347 -12930546.59045
                  22624938.6724                                   22624935.2584
                                                                        46.0004
        31.0004
 -14912034.64848 -11570510.96946
                  21945202.8134                                   21945199.6094
                                                                        48.7504
        38.0004
  -7710853.64146  -5970614.53943
                  23728751.0474                                   23728746.8094
                                                                        41.7504
        23.7504
  -7617145.54747  -5923507.52744
                  23638789.2584                                   23638785.9734
                                                                        43.0004
        27.2504
 09 10 26  0  4  0.0000000  0 10G02G04G05G10G13G23G25G29G16G07
  -6887734.02048  -5341840.30146
                  20944209.5634                                   20944204.0594
                                                                        51.7504
        41.5004
    368522.44147    291741.52744
                  23596007.7274                                   23596005.1414
                                                                        43.5004
        29.0004
 -19835979.55548 -15394603.78546
                  21404313.5004                                   21404309.5474
                                                                        51.0004
        40.5004
 -18454868.43048 -14322469.13346
                  20743082.7344                                   20743079.1374
                                                                        51.0004
        40.5004
  -8057336.82048  -6246314.01245
                  21538506.9454                                   21538502.9964
                                                                        48.5004
        34.0004
   -864635.02746   -664206.69943
                  24057468.5554                                   24057463.4654
                                                                        39.7504
        21.0004
 -16786168.06247 -13029465.68745
                  22600782.0164                                   22600778.0744
                                                                        46.0004
        30.5004
 -15018281.91448 -11653301.02746
                  21924984.5004                                   21924981.6174
                                                                        48.7504
        38.2504
  -7842989.91046  -6073577.85943
                  23703605.8834                                   23703602.1134
                                                                        41.0004
        22.7504
  -7793815.13746  -6061172.06244
                  23605170.4694                                   23605167.0314
                                                                        41.7504
        28.5004
 09 10 26  0  4 30.0000000  0 10G02G04G05G10G13G23G25G29G16G07
  -6918268.53548  -5365633.43046
                  20938398.9774                                   20938393.6524
                                                                        52.5004
        41.0004
    389280.75447    307916.83644
                  23599957.9224                                   23599955.1724
                                                                        43.2504
        27.7504
 -19998188.44948 -15521000.32046
                  21373445.8594                                   21373442.1884
                                                                        51.0004
        41.0004
 -18598398.66448 -14434310.86746
                  20715770.1334                                   20715766.8444
                                                                        52.2504
        40.5004
  -8094699.13748  -6275427.49245
                  21531397.3054                                   21531393.0474
                                                                        49.5004
        35.2504
   -850457.21547   -653159.07043
                  24060167.5784                                   24060160.9574
                                                                        42.0004
        21.0004
 -16912527.82447 -13127927.85245
                  22576736.0634                                   22576732.6884
                                                                        45.0004
        30.0004
 -15123886.41448 -11735590.26246
                  21904888.6564                                   21904886.1024
                                                                        49.0004
        38.0004
  -7974528.09846  -6176075.13744
                  23678575.1254                                   23678571.7624
                                                                        41.2504
        24.7504
  -7970081.64846  -6198522.54344
                  23571628.2344                                   23571624.7854
                                                                        41.5004
        27.0004
 09 10 26  0  5  0.0000000  0  9G02G04G05G10G13G25G29G16G07
  -6948257.86748  -5389001.73846
                  20932692.3054                                   20932686.4694
                                                                        52.5004
        41.0004
    410245.99247    324253.38744
                  23603947.5554                                   23603944.1684
                                                                        42.5004
        27.5004
 -20159948.01648 -15647046.72746
                  21342664.2734                                   21342660.9534
                                                                        49.5004
        41.0004
 -18741378.65248 -14545723.84046
                  20688561.8204                                   20688558.4024
                                                                        52.0004
        41.5004
  -8131453.48448  -6304067.23845
                  21524403.0234                                   21524399.0204
                                                                        49.2504
        33.5004
 -17038301.71547 -13225933.47745
                  22552802.4454                                   22552798.8284
                                                                        45.5004
        30.2504
 -15228849.22748 -11817379.46946
                  21884915.2974                                   21884912.1604
                                                                        48.0004
        38.0004
  -8105468.47746  -6278106.58644
                  23653658.1564                                   23653654.3634
                                                                        40.2504
        25.0004
  -8145944.16847  -6335558.20744
                  23538162.1024                                   23538158.9344
                                                                        42.2504
        27.2504
 09 10 26  0  5 30.0000000  0  9G02G04G05G10G13G25G29G16G07
  -6977702.37548  -5411945.53146
                  20927089.2504                                   20927084.0824
                                                                        52.0004
        41.2504
    431416.60247    340749.94144
                  23607975.8054                                   23607973.5084
                                                                        42.0004
        27.2504
 -20321256.52348 -15772741.66846
                  21311968.2114                                   21311964.4804
                                                                        50.7504
        41.5004
 -18883806.99248 -14656706.96546
                  20661458.4224                                   20661455.1214
                                                                        51.7504
        40.5004
  -8167601.14548  -6332234.22345
                  21517524.4064                                   21517520.2304
                                                                        49.5004
        33.5004
 -17163487.85947 -13323481.12145
                  22528980.1414                                   22528976.6724
                                                                        46.2504
        30.0004
 -15333169.74648 -11898668.19146
                  21865063.1484                                   21865060.3014
                                                                        49.2504
        37.7504
  -8235808.96946  -6379670.61344
                  23628855.2664                                   23628851.6684
                                                                        41.7504
        24.7504
  -8321399.21147  -6472276.37544
                  23504773.9924                                   23504771.2934
                                                                        43.0004
        28.5004
 09 10 26  0  6  0.0000000  0  9G02G04G05G10G13G25G29G16G07
  -5431178.59048  -4206862.06246
                  21221382.8134                                   21221377.4414
                                                                        51.2504
        41.0004
   2028214.04747   1585007.63344
                  23911836.5474                                   23911834.4654
                                                                        43.0004
        27.2504
 -18906682.10248 -14670475.88346
                  21581152.3524                                   21581148.9264
                                                                        50.0004
        41.0004
 -17450253.06248 -13539651.95346
                  20934254.8834                                   20934251.5204
                                                                        52.0004
        41.0004
  -6627718.76248  -5132325.86345
                  21810554.4844                                   21810549.7704
                                                                        49.2504
        33.5004
 -15712656.36347 -12192963.08645
                  22805064.3834                                   22805060.7384
                                                                        46.2504
        30.0004
 -13861418.79748 -10751849.25446
                  22145128.1334                                   22145125.0634
                                                                        49.0004
        38.0004
  -6790118.60946  -5253158.63744
                  23903961.0554                                   23903956.9184
                                                                        41.7504
        26.5004
  -6921013.96947  -5381067.04744
                  23771258.8134                                   23771254.8674
                                                                        42.7504
        28.5004
 09 10 26  0  6 30.0000000  0  9G02G04G05G10G13G25G29G16G07
  -5459526.58648  -4228951.41446
                  21215988.5864                                   21215983.0594
                                                                        51.2504
        41.0004
   2049800.89147   1601828.53944
                  23915944.3054                                   23915942.0634
                                                                        44.2504
        28.0004
 -19067070.43048 -14795453.79746
                  21550631.9064                                   21550628.5124
                                                                        50.5004
        41.0004
 -17591561.43748 -13649762.36746
                  20907364.7894                                   20907361.3324
                                                                        52.0004
        41.2504
  -6662647.45348  -5159543.02045
                  21803907.6094                                   21803903.4304
                                                                        48.7504
        33.5004
 -15836651.12547 -12289582.37945
                  22781468.8524                                   22781465.8054
                                                                        45.7504
        30.7504
 -13964439.77048 -10832125.30146
                  22125523.9224                                   22125521.2894
                                                                        48.7504
        38.2504
  -6919242.05147  -5353774.30544
                  23879389.2584                                   23879385.8874
                                                                        43.0004
        24.5004
  -7095633.69547  -5517134.34844
                  23738030.1024                                   23738025.4804
                                                                        42.0004
        27.0004
 09 10 26  0  7  0.0000000  0  9G02G04G05G10G13G25G29G16G07
  -5487327.48448  -4250614.44946
                  21210698.3984                                   21210692.8324
                                                                        51.7504
        40.7504
   2071593.85547   1618810.03944
                  23920091.6724                                   23920088.8244
                                                                        44.0004
        26.7504
 -19226995.21548 -14920070.50846
                  21520198.8054                                   21520195.1524
                                                                        49.5004
        41.0004
 -17732306.93448 -13759434.18446
                  20880581.2814                                   20880577.9774
                                                                        52.0004
        40.7504
  -6696968.85948  -5186286.96945
                  21797376.2584                                   21797372.2814
                                                                        49.0004
        33.2504
 -15960047.34047 -12385735.26645
                  22757987.7894                                   22757983.9494
                                                                        46.2504
        31.0004
 -14066809.33248 -10911893.75446
                  22106043.7734                                   22106040.4304
                                                                        48.0004
        38.0004
  -7047753.73846  -5453913.28944
                  23854935.2894                                   23854930.6884
                                                                        41.7504
        24.7504
  -7269830.51247  -5652872.08644
                  23704881.3054                                   23704877.2584
                                                                        44.5004
        28.7504
 09 10 26  0  7 30.0000000  0  9G02G04G05G10G13G25G29G16G07
  -5514589.46948  -4271857.55546
                  21205510.5944                                   21205504.7584
                                                                        51.7504
        40.7504
   2093584.53547   1635945.59844
                  23924276.3834                                   23924273.1724
                                                                        44.2504
        26.0004
 -19386461.32848 -15044329.82446
                  21489853.7424                                   21489850.0824
                                                                        50.5004
        41.5004
 -17872494.64848 -13868671.35946
                  20853904.8054                                   20853901.6054
                                                                        52.0004
        41.2504
  -6730691.00848  -5212563.97345
                  21790959.0084                                   21790955.4774
                                                                        48.5004
        34.2504
 -16082849.96547 -12481425.61345
                  22734619.1804                                   22734615.3674
                                                                        46.5004
        30.5004
 -14168533.45348 -10991159.28546
                  22086686.5314                                   22086683.2234
                                                                        48.0004
        38.5004
  -7175658.71947  -5553579.48444
                  23830594.8054                                   23830591.5704
                                                                        42.5004
        24.2504
  -7443607.84447  -5788282.95344
                  23671812.5004                                   23671809.0314
                                                                        44.5004
        28.5004
 09 10 26  0  8  0.0000000  0  9G02G04G05G10G13G25G29G16G07
  -5541316.43048  -4292683.76246
                  21200424.5554                                   21200419.1254
                                                                        51.7504
        40.2504
   2115768.30547   1653231.56344
                  23928497.2894                                   23928494.7194
                                                                        43.0004
        24.5004
 -19545469.32448 -15168232.15246
                  21459595.6724                                   21459591.9804
                                                                        50.5004
        41.5004
 -18012125.85248 -13977474.89146
                  20827333.9844                                   20827330.9844
                                                                        52.0004
        41.2504
  -6763818.60548  -5238377.68445
                  21784655.2034                                   21784651.1054
                                                                        48.5004
        34.0004
 -16205060.30147 -12576654.43445
                  22711363.1724                                   22711359.6954
                                                                        46.2504
        30.7504
 -14269613.73448 -11069923.10946
                  22067451.3984                                   22067448.1094
                                                                        48.7504
        37.5004
  -7302958.00046  -5652773.72743
                  23806370.8204                                   23806366.4694
                                                                        41.2504
        23.7504
  -7616965.36347  -5923366.70744
                  23638823.8754                                   23638820.3094
                                                                        42.7504
        29.0004
 09 10 26  0  8 30.0000000  0  9G02G04G05G10G13G25G29G16G07
  -5567512.75448  -4313096.48046
                  21195439.2274                                   21195434.0984
                                                                        52.2504
        40.5004
   2138140.55147   1670664.43844
                  23932754.7344                                   23932752.3524
                                                                        43.2504
        28.0004
 -19704020.64848 -15291778.63746
                  21429424.3914                                   21429420.5394
                                                                        51.0004
        41.2504
 -18151202.03548 -14085845.93746
                  20800868.6484                                   20800865.5474
                                                                        52.0004
        41.0004
  -6796356.52748  -5263731.89545
                  21778463.4924                                   21778459.6804
                                                                        49.5004
        33.7504
 -16326680.19947 -12671423.16845
                  22688219.3914                                   22688215.8954
                                                                        46.5004
        31.2504
 -14370052.80548 -11148187.29746
                  22048338.4534                                   22048335.3794
                                                                        49.0004
        37.7504
  -7429653.11747  -5751497.21543
                  23782261.9774                                   23782257.2464
                                                                        42.2504
        22.7504
  -7789903.37547  -6058123.57444
                  23605914.2114                                   23605910.7854
                                                                        42.5004
        27.2504
 09 10 26  0  9  0.0000000  0  9G02G04G05G10G13G25G29G16G07
  -5593182.10948  -4333098.57846
                  21190554.4844                                   21190549.5234
                                                                        51.0004
        41.0004
   2160696.85947   1688240.76244
                  23937047.3444                                   23937044.8524
                                                                        44.5004
        29.2504
 -19862115.43448 -15414969.37946
                  21399339.3914                                   21399335.9574
                                                                        49.7504
        41.5004
 -18289723.70348 -14193784.90246
                  20774508.8204                                   20774505.6524
                                                                        53.0004
        41.5004
  -6828308.98048  -5288629.91045
                  21772383.2274                                   21772379.3444
                                                                        48.2504
        33.0004
 -16447710.37547 -12765732.40645
                  22665188.2274                                   22665184.8554
                                                                        47.2504
        31.0004
 -14469852.27347 -11225953.10546
                  22029347.1254                                   22029344.1914
                                                                        47.5004
        37.7504
  -7555744.59846  -5849750.31243
                  23758267.5634                                   23758262.7704
                                                                        40.0004
        21.5004
  -7962420.84847  -6192552.74244
                  23573085.4534                                   23573082.3404
                                                                        42.5004
        28.7504
 09 10 26  0  9 30.0000000  0  9G02G04G05G10G13G25G29G16G07
  -5618327.58648  -4352692.46946
                  21185769.7424                                   21185764.3754
                                                                        51.0004
        41.0004
   2183433.80547   1705957.86744
                  23941373.7664                                   23941371.9924
                                                                        45.0004
        28.0004
 -20019753.80548 -15537804.47746
                  21369342.2974                                   21369339.0634
                                                                        50.2504
        41.2504
 -18427691.48448 -14301292.27046
                  20748254.5474                                   20748251.0394
                                                                        52.5004
        41.0004
  -6859679.55148  -5313074.51645
                  21766413.3364                                   21766409.6484
                                                                        48.7504
        33.0004
 -16568151.13347 -12859582.35545
                  22642269.5554                                   22642265.6134
                                                                        46.5004
        32.0004
 -14569012.94948 -11303221.13346
                  22010477.6484                                   22010474.4384
                                                                        48.5004
        38.0004
  -7681232.25446  -5947532.91443
                  23734388.3754                                   23734382.2074
                                                                        41.0004
        22.7504
  -8134516.35247  -6326653.09444
                  23540336.5084                                   23540333.2854
                                                                        42.0004
        28.2504
 09 10 26  0 10  0.0000000  0  9G02G04G05G10G13G25G29G16G07
  -5642951.57848  -4371879.99246
                  21181083.8834                                   21181078.2304
                                                                        51.5004
        40.5004
   2206348.64147   1723813.55144
                  23945734.2504                                   23945731.9884
                                                                        44.7504
        27.5004
 -20176934.55948 -15660282.98046
                  21339431.7194                                   21339428.2154
                                                                        51.2504
        41.2504
 -18565104.44548 -14408367.30946
                  20722105.5164                                   20722102.6374
                                                                        53.0004
        41.5004
  -6890471.05948  -5337067.90245
                  21760553.9224                                   21760549.7774
                                                                        49.0004
        33.5004
 -16688001.97347 -12952972.62945
                  22619462.0084                                   22619458.6914
                                                                        47.0004
        30.5004
 -14667535.30148 -11379991.77046
                  21991729.4304                                   21991726.1644
                                                                        48.5004
        38.5004
  -7806115.56646  -6044844.60943
                  23710623.4144                                   23710617.8714
                                                                        41.5004
        22.0004
  -8306188.17247  -6460423.31644
                  23507668.7894                                   23507665.0394
                                                                        43.0004
        29.0004
 09 10 26  0 10 30.0000000  0  9G02G04G05G10G13G25G29G16G07
  -5667054.66848  -4390661.62546
                  21176497.1884                                   21176491.6024
                                                                        51.5004
        40.2504
   2229440.68447   1741807.27344
                  23950129.2114                                   23950126.3984
                                                                        43.7504
        26.7504
 -20333654.93448 -15782402.75446
                  21309608.8914                                   21309605.0124
                                                                        51.2504
        41.7504
 -18701960.22348 -14515008.17246
                  20696062.8054                                   20696059.6414
                                                                        51.7504
        41.5004
  -6920684.05548  -5360610.49645
                  21754804.6564                                   21754800.6334
                                                                        49.0004
        33.7504
 -16807260.41847 -13045901.29345
                  22596768.1414                                   22596764.5784
                                                                        46.7504
        30.5004
 -14765417.38748 -11456263.52746
                  21973102.9924                                   21973099.9144
                                                                        48.0004
        37.7504
  -7930392.02046  -6141683.41843
                  23686974.5554                                   23686968.9574
                                                                        41.7504
        22.5004
  -8477431.60247  -6593859.73444
                  23475082.5234                                   23475078.7274
                                                                        43.2504
        29.5004
 09 10 26  0 11  0.0000000  0  9G02G04G05G10G13G25G29G16G07
  -5690638.14148  -4409038.35546
                  21172009.1254                                   21172003.9064
                                                                        51.2504
        40.7504
   2252707.72747   1759937.42644
                  23954556.1174                                   23954553.9964
                                                                        43.5004
        25.7504
 -20489913.14848 -15904162.40246
                  21279873.7194                                   21279870.1994
                                                                        51.5004
        41.5004
 -18838257.69548 -14621213.99246
                  20670126.1804                                   20670123.1214
                                                                        52.0004
        41.0004
  -6950320.90248  -5383704.15245
                  21749165.1414                                   21749161.3524
                                                                        49.0004
        33.0004
 -16925925.57447 -13138367.64545
                  22574186.7734                                   22574183.5944
                                                                        47.0004
        31.2504
 -14862659.06648 -11532036.25446
                  21954597.9694                                   21954594.9064
                                                                        50.0004
        38.5004
  -8054060.07446  -6238048.14143
                  23663440.8754                                   23663436.4494
                                                                        39.5004
        21.5004
  -8648244.45347  -6726960.62544
                  23442577.7974                                   23442573.5274
                                                                        43.0004
        28.7504
 09 10 26  0 11 30.0000000  0  9G02G04G05G10G13G25G29G16G07
  -5713703.89848  -4427011.68046
                  21167620.0394                                   21167614.7424
                                                                        51.7504
        40.7504
   2276148.04347   1778202.60543
                  23959016.5314                                   23959014.4494
                                                                        43.0004
        23.5004
 -20645707.86748 -16025560.87546
                  21250227.1024                                   21250223.5044
                                                                        51.7504
        41.7504
 -18973995.87548 -14726984.00446
                  20644296.0234                                   20644292.9184
                                                                        51.5004
        41.0004
  -6979383.97348  -5406350.70345
                  21743634.6884                                   21743630.9064
                                                                        48.5004
        33.2504
 -17043996.34847 -13230370.85545
                  22551718.5864                                   22551715.2854
                                                                        46.2504
        32.0004
 -14959260.38348 -11607309.98446
                  21936215.7664                                   21936212.6994
                                                                        50.0004
        38.5004
  -8177118.86746  -6333938.11343
                  23640023.4844                                   23640019.0084
                                                                        41.0004
        22.2504
  -8818624.01647  -6859723.89544
                  23410155.5784                                   23410151.4534
                                                                        43.7504
        28.5004
 09 10 26  0 12  0.0000000  0  9G02G04G05G10G13G25G29G16G07
  -5736253.31248  -4444582.66046
                  21163329.3754                                   21163323.8404
                                                                        51.5004
        40.7504
   2299759.41847   1796601.07444
                  23963510.1564                                   23963507.4184
                                                                        44.0004
        26.0004
 -20801037.13748 -16146596.67246
                  21220668.4924                                   21220665.1644
                                                                        51.5004
        41.2504
 -19109173.30148 -14832317.05546
                  20618572.5704                                   20618569.5744
                                                                        51.7504
        41.0004
  -7007874.87148  -5428551.40245
                  21738212.6484                                   21738208.8914
                                                                        48.0004
        33.0004
 -17161471.32447 -13321909.79745
                  22529364.1724                                   22529360.2974
                                                                        46.0004
        30.0004
 -15055220.10948 -11682083.77046
                  21917955.5864                                   21917952.2304
                                                                        49.7504
        38.7504
  -8299566.35246  -6429351.72743
                  23616722.9304                                   23616718.4224
                                                                        41.0004
        23.2504
  -8988567.14547  -6992147.10244
                  23377816.2734                                   23377812.3324
                                                                        42.0004
        29.0004
 09 10 26  0 12 30.0000000  0  9G02G04G05G10G13G25G29G16G07
  -5758288.51648  -4461752.94546
                  21159136.0164                                   21159130.2034
                                                                        51.5004
        40.0004
   2323539.58247   1815131.03144
                  23968035.3524                                   23968033.6414
                                                                        43.0004
        27.0004
 -20955900.01248 -16267269.04746
                  21191199.4844                                   21191195.8324
                                                                        51.2504
        41.5004
 -19243788.88748 -14937212.32046
                  20592956.2034                                   20592952.8324
                                                                        52.5004
        41.5004
  -7035796.66448  -5450308.63345
                  21732899.6024                                   21732895.7974
                                                                        48.2504
        33.5004
 -17278350.06247 -13412984.15245
                  22507122.4534                                   22507119.0784
                                                                        46.2504
        31.0004
 -15150538.73848 -11756358.03546
                  21899816.5004                                   21899813.7504
                                                                        50.0004
        38.7504
  -8421402.19546  -6524288.73843
                  23593538.1564                                   23593533.8984
                                                                        41.5004
        23.2504
  -9158071.35547  -7124228.32044
                  23345560.7114                                   23345556.6214
                                                                        42.5004
        29.0004
 09 10 26  0 13  0.0000000  0  9G02G04G05G10G13G25G29G16G07
  -5779811.73448  -4478524.28946
                  21155040.4304                                   21155034.6524
                                                                        51.2504
        40.7504
   2347485.75447   1833790.26644
                  23972592.6884                                   23972590.2074
                                                                        43.0004
        27.2504
 -21110294.98448 -16387576.80946
                  21161819.0704                                   21161815.4964
                                                                        51.0004
        41.7504
 -19377841.81648 -15041669.14547
                  20567447.0234                                   20567443.2114
                                                                        51.7504
        42.0004
  -7063151.60948  -5471624.17645
                  21727693.9144                                   21727689.6724
                                                                        48.5004
        32.7504
 -17394631.87947 -13503593.35545
                  22484994.7734                                   22484991.4184
                                                                        45.5004
        30.2504
 -15245215.98848 -11830132.48446
                  21881800.2664                                   21881797.0984
                                                                        49.5004
        38.5004
  -8542625.15246  -6618748.19144
                  23570470.4774                                   23570466.0784
                                                                        41.0004
        24.0004
  -9327134.30147  -7255965.63744
                  23313389.1024                                   23313385.8754
                                                                        43.2504
        29.5004
 09 10 26  0 13 30.0000000  0  9G02G04G05G10G13G25G29G16G07
  -5800824.31648  -4494897.73446
                  21151041.6254                                   21151036.4224
                                                                        52.0004
        40.5004
   2371596.76247   1852577.99644
                  23977180.5864                                   23977178.6214
                                                                        42.5004
        26.7504
 -21264220.34048 -16507518.64546
                  21132528.2114                                   21132524.4024
                                                                        51.7504
        41.5004
 -19511331.14848 -15145686.80546
                  20542044.9694                                   20542041.2704
                                                                        52.2504
        40.7504
  -7089941.66448  -5492499.53545
                  21722596.0474                                   21722592.1954
                                                                        48.2504
        33.5004
 -17510315.34447 -13593736.30945
                  22462981.2114                                   22462976.9964
                                                                        45.7504
        30.0004
 -15339251.48448 -11903406.89546
                  21863905.8444                                   21863902.7424
                                                                        50.2504
        38.5004
  -8663233.68446  -6712728.86343
                  23547519.0084                                   23547514.6254
                                                                        41.5004
        22.0004
  -9495753.24247  -7387357.00444
                  23281301.9534                                   23281298.7384
                                                                        43.2504
        29.5004
 09 10 26  0 14  0.0000000  0  9G02G04G05G10G13G25G29G16G07
  -5821328.93048  -4510875.37146
                  21147139.9384                                   21147134.6174
                                                                        52.2504
        41.0004
   2395869.35946   1871491.71543
                  23981799.3364                                   23981797.0594
                                                                        40.5004
        23.2504
 -21417675.33248 -16627093.96946
                  21103326.3444                                   21103322.8874
                                                                        51.5004
        41.5004
 -19644256.42248 -15249264.94146
                  20516749.8754                                   20516746.1254
                                                                        52.5004
        41.0004
  -7116169.96948  -5512937.17245
                  21717604.9844                                   21717601.1254
                                                                        48.0004
        33.0004
 -17625400.59047 -13683413.12145
                  22441081.3134                                   22441077.5314
                                                                        45.2504
        30.2504
 -15432646.10948 -11976181.92246
                  21846133.4224                                   21846130.1884
                                                                        49.7504
        38.5004
  -8783227.94146  -6806230.89543
                  23524684.8134                                   23524680.9774
                                                                        40.5004
        23.5004
  -9663926.20747  -7518400.85544
