     2.11           OBSERVATION DATA    G (GPS)             RINEX VERSION / TYPE
teqc  2019Feb25                         20221121 12:28:26UTCPGM / RUN BY / DATE
OSX ker:10.11.6|Core i5|gcc 4.3 -m64|OSX ker:10.10+|=+      COMMENT
BIT 2 OF LLI FLAGS DATA COLLECTED UNDER A/S CONDITION       COMMENT
04712900                                                    MARKER NAME
2900                                                        MARKER NUMBER
-Unknown-           -Unknown-                               OBSERVER / AGENCY
0220400471          TRIMBLE R7          2.30                REC # / TYPE / VERS
-Unknown-           TRM39105.00     NONE                    ANT # / TYPE
  1449459.2553 -1709241.3753  5952440.1727                  APPROX POSITION XYZ
        0.0000        0.0000        0.0000                  ANTENNA: DELTA H/E/N
     1     1                                                WAVELENGTH FACT L1/2
    20    L1    L2    L5    L6    L7    L8    C1    P1    C2# / TYPES OF OBSERV
          P2    C5    C6    C7    C8    S1    S2    S5    S6# / TYPES OF OBSERV
          S7    S8                                          # / TYPES OF OBSERV
    30.0000                                                 INTERVAL
    15                                                      LEAP SECONDS
Forced Modulo Decimation to 30 seconds                      COMMENT
 SNR is mapped to RINEX snr flag value [0-9]                COMMENT
  L1 & L2: min(max(int(snr_dBHz/6), 0), 9)                  COMMENT
teqc edited: Beidou # 1 - 37 excluded                       COMMENT
  2009    10    17     0     0    0.0000000     GPS         TIME OF FIRST OBS
                                                            END OF HEADER
 09 10 17  0  0  0.0000000  0  8G02G04G10G05G13G29G23G25
  -9878275.48448  -7681220.77747
                  20518285.1254                                   20518279.0744
                                                                        52.5004
        43.0004
  -1586136.30548  -1229417.15246
                  22133275.6484                                   22133272.0274
                                                                        49.0004
        36.0004
 -18881612.51648 -14697437.25846
                  22111518.2584                                   22111514.7384
                                                                        48.0004
        36.5004
 -13312573.82448 -10332211.37945
                  22940948.0554                                   22940944.2384
                                                                        48.0004
        34.0004
 -11681069.83648  -9081130.13746
                  21261640.3444                                   21261635.6954
                                                                        48.7504
        37.2504
 -16519362.14547 -12858038.00445
                  22706758.4064                                   22706755.1254
                                                                        46.0004
        33.5004
  -3448448.44947  -2677259.33645
                  22812005.4064                                   22811998.9264
                                                                        45.7504
        30.0004
  -6406325.59046  -4956676.51643
                  23641939.1884                                   23641935.2814
                                                                        41.7504
        22.7504
 09 10 17  0  0 30.0000000  0  8G02G04G10G05G13G29G23G25
  -9942570.69948  -7731320.94147
                  20506050.2894                                   20506044.3634
                                                                        51.7504
        42.2504
  -1576147.75048  -1221633.88346
                  22135176.4774                                   22135172.7704
                                                                        48.5004
        36.5004
 -19052360.40247 -14830487.62546
                  22079025.8364                                   22079022.2894
                                                                        47.7504
        36.0004
 -13491807.79747 -10471874.25045
                  22906841.0554                                   22906836.7734
                                                                        47.0004
        34.0004
 -11759300.94148  -9142089.43046
                  21246753.3834                                   21246748.8914
                                                                        49.2504
        37.5004
 -16660109.99247 -12967711.65645
                  22679974.7344                                   22679971.5084
                                                                        46.7504
        34.0004
  -3451284.88347  -2679469.55545
                  22811465.4144                                   22811459.8634
                                                                        45.0004
        30.2504
  -6560628.16846  -5076912.24444
                  23612576.3284                                   23612572.7304
                                                                        41.5004
        24.0004
 09 10 17  0  1  0.0000000  0  8G02G04G10G05G13G29G23G25
 -10006255.66048  -7780945.57447
                  20493931.3284                                   20493925.4494
                                                                        52.2504
        42.5004
  -1565783.03548  -1213557.48045
                  22137148.4774                                   22137144.8054
                                                                        48.7504
        35.5004
 -19222719.58247 -14963235.18746
                  22046607.8984                                   22046604.2234
                                                                        47.2504
        36.0004
 -13670754.00047 -10611312.92245
                  22872788.6334                                   22872784.7114
                                                                        47.5004
        35.7504
 -11836835.74248  -9202506.14846
                  21231999.0554                                   21231994.5664
                                                                        49.0004
        37.0004
 -16800340.17647 -13076982.10545
                  22653290.5704                                   22653286.9654
                                                                        46.0004
        33.5004
  -3453640.41847  -2681305.04745
                  22811017.0634                                   22811010.8134
                                                                        45.5004
        30.0004
  -6714514.52347  -5196823.63744
                  23583292.3284                                   23583289.1094
                                                                        42.5004
        24.5004
 09 10 17  0  1 30.0000000  0  8G02G04G10G05G13G29G23G25
 -10069327.09048  -7830092.18747
                  20481929.3674                                   20481923.1524
                                                                        52.0004
        43.0004
  -1555040.91048  -1205186.99646
                  22139192.8524                                   22139189.3094
                                                                        49.0004
        36.5004
 -19392684.12548 -15095675.21146
                  22014264.6484                                   22014261.1024
                                                                        48.0004
        36.2504
 -13849407.53547 -10750523.49645
                  22838792.3834                                   22838788.5164
                                                                        47.0004
        35.0004
 -11913671.30148  -9262377.97346
                  21217377.8204                                   21217372.9344
                                                                        48.7504
        37.0004
 -16940046.40247 -13185843.96945
                  22626704.7734                                   22626701.6764
                                                                        46.2504
        34.0004
  -3455514.23447  -2682765.17645
                  22810661.1724                                   22810654.4694
                                                                        45.0004
        31.0004
  -6867978.94547  -5316406.34044
                  23554089.4694                                   23554085.7344
                                                                        43.5004
        25.2504
 09 10 17  0  2  0.0000000  0  8G02G04G10G05G13G29G23G25
 -10131788.59848  -7878763.44947
                  20470043.3674                                   20470036.7304
                                                                        51.0004
        42.7504
  -1543927.19548  -1196526.98446
                  22141307.9304                                   22141304.3954
                                                                        48.5004
        36.2504
 -19562255.07448 -15227808.55145
                  21981997.2194                                   21981992.8794
                                                                        48.2504
        35.5004
 -14027769.81647 -10889507.15645
                  22804851.1254                                   22804847.1174
                                                                        46.0004
        35.5004
 -11989811.35248  -9321707.87146
                  21202888.5784                                   21202883.7584
                                                                        49.5004
        37.2504
 -17079231.16847 -13294299.71545
                  22600218.9844                                   22600215.7584
                                                                        46.7504
        35.2504
  -3456912.03147  -2683854.33245
                  22810394.6414                                   22810388.4264
                                                                        45.0004
        31.0004
  -7021022.29347  -5435660.87544
                  23524966.5864                                   23524962.6054
                                                                        43.7504
        27.2504
 09 10 17  0  2 30.0000000  0  8G02G04G10G05G13G29G23G25
 -10193642.59048  -7926961.43047
                  20458273.1644                                   20458267.1134
                                                                        52.0004
        42.2504
  -1532445.17648  -1187579.97746
                  22143492.8054                                   22143489.6604
                                                                        48.7504
        36.0004
 -19731432.30148 -15359634.93046
                  21949803.5704                                   21949799.5314
                                                                        48.5004
        36.0004
 -14205840.89147 -11028264.05545
                  22770965.0394                                   22770961.4804
                                                                        46.5004
        35.5004
 -12065258.06248  -9380497.48046
                  21188531.4384                                   21188526.7734
                                                                        49.7504
        37.0004
 -17217893.98847 -13402348.68445
                  22573832.4534                                   22573828.8524
                                                                        47.5004
        34.0004
  -3457838.29347  -2684576.06244
                  22810218.3524                                   22810212.0274
                                                                        45.7504
        29.5004
  -7173643.83647  -5554586.74244
                  23495923.1254                                   23495919.5824
                                                                        43.0004
        28.0004
 09 10 17  0  3  0.0000000  0  8G02G04G10G05G13G29G23G25
 -10254892.19548  -7974688.41447
                  20446617.5164                                   20446611.4734
                                                                        51.7504
        42.5004
  -1520600.54348  -1178350.40646
                  22145746.5634                                   22145743.0864
                                                                        49.5004
        36.0004
 -19900217.57448 -15491155.96145
                  21917684.9144                                   21917680.7814
                                                                        48.2504
        35.7504
 -14383621.60247 -11166794.48845
                  22737134.7274                                   22737130.4224
                                                                        46.5004
        34.5004
 -12140014.30948  -9438749.07046
                  21174306.0084                                   21174301.2034
                                                                        49.7504
        36.5004
 -17356035.59047 -13509991.48845
                  22547544.8754                                   22547541.5434
                                                                        47.5004
        34.0004
  -3458298.50047  -2684934.67644
                  22810130.4924                                   22810124.4414
                                                                        45.0004
        29.2504
  -7325844.36347  -5673184.52744
                  23466960.6644                                   23466956.6134
                                                                        43.2504
        27.2504
 09 10 17  0  3 30.0000000  0  8G02G04G10G05G13G29G23G25
 -10315533.33248  -8021941.27347
                  20435077.5394                                   20435071.6134
                                                                        52.0004
        42.5004
  -1508390.68448  -1168836.24245
                  22148069.9844                                   22148066.7894
                                                                        49.5004
        35.5004
 -20068604.01648 -15622366.15645
                  21885641.4304                                   21885637.9104
                                                                        48.0004
        35.5004
 -14561106.15247 -11305094.28545
                  22703360.5314                                   22703356.7424
                                                                        46.7504
        35.5004
 -12214076.53148  -9496459.88346
                  21160212.2034                                   21160207.7074
                                                                        50.5004
        36.5004
 -17493650.19947 -13617223.53545
                  22521357.7974                                   22521354.2114
                                                                        46.5004
        34.0004
  -3458290.94947  -2684928.77344
                  22810132.1484                                   22810125.4224
                                                                        45.2504
        29.2504
  -7477616.87146  -5791448.84444
                  23438079.2814                                   23438075.8324
                                                                        41.5004
        26.0004
 09 10 17  0  4  0.0000000  0  8G02G04G10G05G13G29G23G25
 -10375567.87548  -8068721.39147
                  20423653.6024                                   20423647.6524
                                                                        51.7504
        42.5004
  -1495819.60948  -1159040.62945
                  22150462.4064                                   22150458.8714
                                                                        48.5004
        35.7504
 -20236590.61748 -15753264.52745
                  21853674.6804                                   21853670.6884
                                                                        49.5004
        35.5004
 -14738293.23847 -11443162.11346
                  22669643.0474                                   22669639.3404
                                                                        46.0004
        36.2504
 -12287446.61748  -9553631.37546
                  21146250.3834                                   21146245.7624
                                                                        50.5004
        37.0004
 -17630736.93747 -13724044.26245
                  22495270.6024                                   22495266.9614
                                                                        47.0004
        34.2504
  -3457819.85947  -2684561.67644
                  22810221.5944                                   22810215.3834
                                                                        44.7504
        29.0004
  -7628960.78947  -5909379.10944
                  23409278.5944                                   23409275.5984
                                                                        42.7504
        26.2504
 09 10 17  0  4 30.0000000  0  8G02G04G10G05G13G29G23G25
 -10434994.74248  -8115028.01647
                  20412345.2274                                   20412339.2544
                                                                        52.2504
        42.0004
  -1482887.73048  -1148963.85245
                  22152923.4144                                   22152919.9494
                                                                        49.5004
        34.5004
 -20404175.02048 -15883849.80146
                  21821784.4924                                   21821780.9344
                                                                        49.0004
        36.5004
 -14915179.80147 -11580995.58245
                  22635982.2504                                   22635978.4884
                                                                        46.5004
        35.2504
 -12360123.53548  -9610262.78146
                  21132420.5314                                   21132415.8094
                                                                        51.2504
        36.7504
 -17767292.85247 -13830451.44545
                  22469284.9694                                   22469281.4344
                                                                        47.5004
        34.2504
  -3456886.07047  -2683834.06644
                  22810399.7814                                   22810393.3134
                                                                        46.5004
        29.5004
  -7779872.03546  -6026972.19944
                  23380561.3054                                   23380558.0634
                                                                        41.5004
        24.5004
 09 10 17  0  5  0.0000000  0  8G02G04G10G05G13G29G23G25
 -10493815.71948  -8160862.58247
                  20401151.7034                                   20401145.8484
                                                                        51.7504
        42.5004
  -1469598.70348  -1138608.77045
                  22155452.0394                                   22155448.6684
                                                                        49.2504
        35.2504
 -20571355.82448 -16014120.40246
                  21789970.7504                                   21789967.1914
                                                                        48.0004
        36.2504
 -15091765.73447 -11718595.07445
                  22602379.2114                                   22602375.4884
                                                                        46.5004
        35.7504
 -12432109.10548  -9666355.41046
                  21118722.1174                                   21118717.2734
                                                                        50.5004
        36.7504
 -17903317.06247 -13936444.30545
                  22443399.9454                                   22443396.7774
                                                                        47.0004
        34.0004
  -3455493.18047  -2682748.69145
                  22810664.7114                                   22810658.1684
                                                                        45.2504
        30.0004
  -7930349.57046  -6144227.29744
                  23351926.6644                                   23351922.4614
                                                                        41.7504
        24.0004
 09 10 17  0  5 30.0000000  0  8G02G04G10G05G13G29G23G25
 -10552033.60548  -8206227.17647
                  20390073.2114                                   20390067.2274
                                                                        51.5004
        42.0004
  -1455957.13348  -1127978.97345
                  22158048.0784                                   22158044.4774
                                                                        49.7504
        34.7504
 -20738134.22348 -16144077.55146
                  21758233.8674                                   21758230.2154
                                                                        48.2504
        36.0004
 -15268052.04747 -11855961.12146
                  22568833.2584                                   22568829.6684
                                                                        46.5004
        36.0004
 -12503406.26248  -9721911.66846
                  21105154.7504                                   21105150.0704
                                                                        51.5004
        36.5004
 -18038810.61347 -14042023.66045
                  22417616.7584                                   22417613.4924
                                                                        47.0004
        33.7504
  -3453646.38347  -2681309.67244
                  22811016.6644                                   22811010.7974
                                                                        46.5004
        29.5004
  -8080393.82047  -6261144.85244
                  23323374.1254                                   23323370.2234
                                                                        42.0004
        24.5004
 09 10 17  0  6  0.0000000  0  8G02G04G10G05G13G29G23G25
 -10609646.71948  -8251120.51647
                  20379109.8914                                   20379103.9774
                                                                        51.0004
        42.2504
  -1441963.02348  -1117074.50045
                  22160711.1024                                   22160707.5474
                                                                        49.2504
        35.7504
 -20904505.80948 -16273717.69546
                  21726574.5554                                   21726570.9454
                                                                        48.5004
        37.0004
 -15444034.38747 -11993090.32445
                  22535344.7894                                   22535341.0084
                                                                        47.5004
        35.0004
 -12574012.89548  -9776929.80546
                  21091718.7504                                   21091713.9884
                                                                        50.7504
        36.2504
 -18173768.99247 -14147186.00445
                  22391935.0944                                   22391931.4414
                                                                        46.5004
        35.0004
  -3451346.62147  -2679517.64545
                  22811453.5704                                   22811447.8284
                                                                        46.5004
        30.2504
  -8230000.09447  -6377721.16044
                  23294905.3674                                   23294901.5944
                                                                        42.0004
        25.5004
 09 10 17  0  6 30.0000000  0  8G02G04G10G05G13G29G23G25
 -10666652.93448  -8295540.92647
                  20368261.8674                                   20368255.9654
                                                                        52.0004
        42.2504
  -1427615.75848  -1105894.85245
                  22163441.0784                                   22163437.5394
                                                                        49.0004
        35.5004
 -21070465.70748 -16403037.03546
                  21694993.1724                                   21694989.6844
                                                                        49.0004
        36.2504
 -15619707.51247 -12129978.36745
                  22501915.0084                                   22501911.6134
                                                                        46.7504
        35.7504
 -12643927.25848  -9831408.53146
                  21078414.4304                                   21078409.7774
                                                                        51.2504
        36.7504
 -18308188.11747 -14251928.15645
                  22366355.7664                                   22366352.2734
                                                                        47.2504
        34.5004
  -3448593.53547  -2677372.37144
                  22811977.2424                                   22811971.2974
                                                                        46.5004
        29.2504
  -8379163.39147  -6493952.25044
                  23266521.0234                                   23266516.7624
                                                                        42.7504
        26.0004
 09 10 17  0  7  0.0000000  0  8G02G04G10G05G13G29G23G25
  -9147633.91848  -7111889.72347
                  20657321.6414                                   20657315.6484
                                                                        52.7504
        43.0004
    162498.72348    133155.39845
                  22466030.2584                                   22466026.3554
                                                                        48.2504
        35.2504
 -19660589.93448 -15304432.50446
                  21963283.7344                                   21963279.8284
                                                                        48.2504
        36.5004
 -14219647.72348 -11039022.63346
                  22768338.5474                                   22768334.3714
                                                                        48.0004
        36.2504
 -11137730.49248  -8657748.68046
                  21365034.0704                                   21365029.5434
                                                                        51.5004
        37.2504
 -16866644.47747 -13128647.28145
                  22640672.2114                                   22640668.8094
                                                                        45.5004
        35.2504
  -1869972.59847  -1447278.10944
                  23112378.6564                                   23112372.5664
                                                                        45.5004
        27.2504
  -6952459.51647  -5382234.92244
                  23538013.0554                                   23538009.1054
                                                                        43.0004
        26.2504
 09 10 17  0  7 30.0000000  0  8G02G04G10G05G13G29G23G25
  -9203434.64148  -7155370.77747
                  20646703.0004                                   20646697.1954
                                                                        51.7504
        42.5004
    177538.71548    144874.88345
                  22468891.5864                                   22468888.5634
                                                                        49.5004
        35.2504
 -19825728.30148 -15433111.66446
                  21931859.0164                                   21931855.0274
                                                                        49.0004
        37.0004
 -14394705.35247 -11175431.29346
                  22735025.7584                                   22735021.8874
                                                                        47.5004
        36.0004
 -11206269.14148  -8711155.39146
                  21351991.6094                                   21351987.0434
                                                                        51.0004
        36.5004
 -16999986.30947 -13232549.94145
                  22615298.2034                                   22615295.1294
                                                                        46.2504
        35.5004
  -1866327.21947  -1444437.54744
                  23113072.4454                                   23113065.8794
                                                                        45.2504
        27.0004
  -7100737.10246  -5497775.89144
                  23509796.9924                                   23509792.9184
                                                                        40.7504
        27.0004
 09 10 17  0  8  0.0000000  0  8G02G04G10G05G13G29G23G25
  -9258632.75848  -7198382.30147
                  20636199.0554                                   20636193.0784
                                                                        52.5004
        42.2504
    192922.37948    156862.14545
                  22471819.5004                                   22471816.1914
                                                                        48.7504
        35.2504
 -19990452.56248 -15561468.15246
                  21900512.9064                                   21900509.1484
                                                                        48.5004
        36.7504
 -14569451.20347 -11311596.84046
                  22701772.5634                                   22701769.0314
                                                                        47.7504
        36.0004
 -11274120.16448  -8764026.29346
                  21339080.3444                                   21339075.8054
                                                                        50.7504
        36.5004
 -17132786.13347 -13336030.31645
                  22590027.5084                                   22590024.0124
                                                                        46.2504
        35.5004
  -1862239.06247  -1441251.97344
                  23113850.6804                                   23113844.1914
                                                                        44.5004
        27.2504
  -7248567.52046  -5612968.39144
                  23481664.8284                                   23481661.7814
                                                                        41.7504
        26.5004
 09 10 17  0  8 30.0000000  0  8G02G04G10G05G13G29G23G25
  -9313228.63348  -7240924.56247
                  20625810.0394                                   20625803.8484
                                                                        52.7504
        42.5004
    208648.05948    169115.89845
                  22474811.7504                                   22474808.5044
                                                                        48.0004
        35.2504
 -20154760.12948 -15689500.00046
                  21869246.2974                                   21869242.4964
                                                                        48.7504
        36.7504
 -14743883.38348 -11447517.91846
                  22668579.2274                                   22668575.2934
                                                                        48.5004
        36.0004
 -11341283.65248  -8816361.45346
                  21326299.2114                                   21326294.9224
                                                                        51.2504
        36.7504
 -17265041.82847 -13439086.67645
                  22564859.6954                                   22564856.4734
                                                                        46.5004
        34.5004
  -1857710.71147  -1437723.34044
                  23114712.9924                                   23114706.4694
                                                                        46.2504
        27.7504
  -7395948.33246  -5727810.57044
                  23453619.0864                                   23453615.9264
                                                                        41.2504
        25.5004
 09 10 17  0  9  0.0000000  0  8G02G04G10G05G13G29G23G25
  -9367225.27748  -7282999.89547
                  20615535.0474                                   20615529.0704
                                                                        52.0004
        43.0004
    224710.81647    181632.30945
                  22477868.5864                                   22477864.9964
                                                                        47.0004
        34.0004
 -20318651.62948 -15817207.54746
                  21838058.1334                                   21838054.6454
                                                                        48.7504
        37.0004
 -14918002.53948 -11583195.02746
                  22635445.1334                                   22635441.3134
                                                                        48.0004
        36.0004
 -11407762.67648  -8868163.29746
                  21313648.5474                                   21313643.9384
                                                                        51.7504
        36.0004
 -17396753.89847 -13541719.45745
                  22539795.5864                                   22539792.5044
                                                                        45.7504
        35.0004
  -1852746.59047  -1433855.17644
                  23115657.0634                                   23115650.4384
                                                                        45.0004
        29.2504
  -7542879.44546  -5842302.27344
                  23425658.9924                                   23425656.1764
                                                                        39.7504
        26.0004
 09 10 17  0  9 30.0000000  0  8G02G04G10G05G13G29G23G25
  -9420621.55148  -7324607.41846
                  20605374.2194                                   20605367.9454
                                                                        52.2504
        41.7504
    241110.15648    194410.98445
                  22480989.5634                                   22480985.7854
                                                                        48.0004
        34.0004
 -20482123.79348 -15944588.38346
                  21806950.6724                                   21806947.0434
                                                                        49.2504
        37.5004
 -15091805.34048 -11718625.68046
                  22602371.3594                                   22602367.8674
                                                                        48.0004
        36.0004
 -11473556.87548  -8919431.53946
                  21301128.5004                                   21301123.7894
                                                                        51.0004
        36.7504
 -17527919.64147 -13643926.59845
                  22514835.7814                                   22514832.6724
                                                                        47.0004
        35.0004
  -1847348.19947  -1429648.63745
                  23116684.4064                                   23116678.4884
                                                                        46.2504
        30.2504
  -7689357.46547  -5956440.96144
                  23397785.5634                                   23397782.2034
                                                                        42.0004
        27.2504
 09 10 17  0 10  0.0000000  0  8G02G04G10G05G13G29G23G25
  -9473417.35248  -7365747.01647
                  20595327.2034                                   20595321.3794
                                                                        52.2504
        42.5004
    257844.23848    207450.53145
                  22484173.7584                                   22484170.1954
                                                                        48.5004
        34.5004
 -20645174.23048 -16071640.64846
                  21775923.2584                                   21775919.2234
                                                                        49.5004
        37.5004
 -15265289.28948 -11853807.84046
                  22569358.3134                                   22569354.7234
                                                                        48.5004
        36.0004
 -11538666.42248  -8970166.28146
                  21288738.5234                                   21288733.9844
                                                                        51.0004
        36.5004
 -17658536.02047 -13745705.55945
                  22489980.5004                                   22489976.9924
                                                                        47.2504
        35.5004
  -1841517.98847  -1425105.64144
                  23117793.4304                                   23117787.4024
                                                                        44.2504
        27.5004
  -7835379.71947  -6070224.58244
                  23369998.8914                                   23369995.3134
                                                                        42.0004
        28.0004
 09 10 17  0 10 30.0000000  0  8G02G04G10G05G13G29G23G25
  -9525613.74648  -7406419.55947
                  20585394.4924                                   20585388.5124
                                                                        52.0004
        42.0004
    274910.97748    220749.26245
                  22487421.2814                                   22487417.9144
                                                                        48.7504
        34.2504
 -20807801.26648 -16198363.02346
                  21744976.3054                                   21744972.2584
                                                                        48.2504
        37.0004
 -15438452.83248 -11988740.33646
                  22536406.0234                                   22536402.5594
                                                                        48.2504
        36.2504
 -11603091.74248  -9020367.85946
                  21276478.8594                                   21276474.2664
                                                                        50.7504
        36.7504
 -17788601.87547 -13847055.53145
                  22465229.6024                                   22465225.9804
                                                                        47.0004
        35.5004
  -1835257.96947  -1420227.61744
                  23118984.6804                                   23118978.8794
                                                                        44.0004
        27.7504
  -7980943.81647  -6183651.17644
                  23342298.8914                                   23342295.1094
                                                                        43.5004
        28.0004
 09 10 17  0 11  0.0000000  0  8G02G04G10G05G13G29G23G25
  -9577211.76648  -7446625.80947
                  20575575.8594                                   20575569.6884
                                                                        51.2504
        42.0004
    292307.35948    234304.86745
                  22490731.5234                                   22490728.0434
                                                                        48.0004
        34.0004
 -20970003.40648 -16324754.30946
                  21714110.1884                                   21714106.2424
                                                                        49.0004
        37.2504
 -15611294.89847 -12123422.34846
                  22503515.4064                                   22503511.8954
                                                                        47.7504
        36.0004
 -11666834.48448  -9070037.61346
                  21264349.2034                                   21264344.5314
                                                                        50.0004
        36.5004
 -17918116.35547 -13947975.85945
                  22440583.8914                                   22440580.6334
                                                                        46.5004
        34.2504
  -1828572.02347  -1415017.74244
                  23120256.5164                                   23120250.7154
                                                                        43.2504
        28.0004
  -8126048.04347  -6296719.33244
                  23314686.6094                                   23314682.6844
                                                                        43.7504
        27.2504
 09 10 17  0 11 30.0000000  0  8G02G04G10G05G13G29G23G25
  -9628210.73048  -7486365.26247
                  20565870.9694                                   20565865.1334
                                                                        51.5004
        42.7504
    310032.92648    248116.96945
                  22494104.6484                                   22494101.3914
                                                                        48.5004
        33.5004
 -21131777.19548 -16450811.82446
                  21683325.4224                                   21683321.6604
                                                                        49.5004
        37.0004
 -15783812.14847 -12257851.28946
                  22470686.5784                                   22470682.5084
                                                                        47.7504
        36.5004
 -11729893.84048  -9119174.80146
                  21252349.2974                                   21252344.7344
                                                                        50.5004
        36.0004
 -18047075.79747 -14048463.62945
                  22416043.3674                                   22416040.3094
                                                                        47.7504
        35.5004
  -1821461.44947  -1409477.02044
                  23121610.2034                                   23121604.3554
                                                                        43.7504
        27.5004
  -8270689.07047  -6409426.64844
                  23287162.2734                                   23287158.0904
                                                                        43.0004
        27.2504
 09 10 17  0 12  0.0000000  0  8G02G04G10G05G13G29G23G25
  -9678612.14548  -7525639.08247
                  20556279.8594                                   20556274.1644
                                                                        51.5004
        42.2504
    328084.25448    262182.90645
                  22497539.6564                                   22497536.1954
                                                                        49.0004
        34.2504
 -21293121.78148 -16576534.86346
                  21652622.9924                                   21652619.3834
                                                                        49.2504
        37.2504
 -15956003.35247 -12392026.17646
                  22437919.7274                                   22437915.8014
                                                                        47.5004
        36.5004
 -11792271.85548  -9167781.06646
                  21240479.1954                                   21240474.7194
                                                                        51.0004
        36.2504
 -18175479.91448 -14148518.80145
                  22391609.2114                                   22391605.4064
                                                                        48.2504
        35.0004
  -1813929.77047  -1403608.21944
                  23123044.0864                                   23123037.1214
                                                                        44.5004
        28.5004
  -8414865.25847  -6521771.66844
                  23259726.3914                                   23259721.8364
                                                                        43.2504
        26.2504
 09 10 17  0 12 30.0000000  0  8G02G04G10G05G13G29G23G25
  -9728418.19548  -7564448.98847
                  20546802.1094                                   20546796.4454
                                                                        51.5004
        42.2504
    346458.01648    276500.07045
                  22501036.3984                                   22501032.6804
                                                                        48.5004
        34.5004
 -21454036.92648 -16701923.28946
                  21622001.5554                                   21621998.1644
                                                                        48.7504
        37.7504
 -16127867.85948 -12525946.45746
                  22405215.3364                                   22405210.6764
                                                                        48.2504
        37.0004
 -11853970.55948  -9215857.94546
                  21228738.2814                                   21228733.8054
                                                                        50.2504
        36.7504
 -18303328.02347 -14248140.66845
                  22367280.3984                                   22367276.6294
                                                                        47.2504
        35.7504
  -1805980.63347  -1397414.08644
                  23124556.5554                                   23124549.9414
                                                                        44.7504
        27.7504
  -8558576.23847  -6633754.23444
                  23232379.2974                                   23232374.6054
                                                                        42.5004
        25.5004
 09 10 17  0 13  0.0000000  0  8G02G04G10G05G13G29G23G25
  -9777632.19148  -7602797.54347
                  20537437.0004                                   20537431.3404
                                                                        50.5004
        42.0004
    365149.23848    291064.63745
                  22504593.5474                                   22504589.9024
                                                                        48.5004
        34.0004
 -21614523.24248 -16826977.55546
                  21591462.3834                                   21591458.5554
                                                                        49.2504
        37.5004
 -16299407.44947 -12659613.66046
                  22372571.7504                                   22372567.8404
                                                                        46.7504
        37.2504
 -11914993.26248  -9263408.13346
                  21217125.8134                                   21217121.4144
                                                                        50.7504
        36.2504
 -18430621.25847 -14347330.14545
                  22343057.4924                                   22343053.5784
                                                                        47.5004
        35.5004
  -1797619.42247  -1390898.84844
                  23126147.5704                                   23126140.7114
                                                                        44.0004
        27.7504
  -8701822.19547  -6745374.41044
                  23205119.5864                                   23205116.0554
                                                                        42.0004
        25.2504
 09 10 17  0 13 30.0000000  0  8G02G04G10G05G13G29G23G25
  -9826250.54748  -7640681.96547
                  20528185.0474                                   20528179.3164
                                                                        51.7504
        42.0004
    384159.96947    305878.13745
                  22508211.1954                                   22508207.4264
                                                                        47.5004
        34.0004
 -21774574.64848 -16951692.95746
                  21561005.2034                                   21561001.5984
                                                                        49.0004
        37.5004
 -16470615.44947 -12793022.51246
                  22339992.2974                                   22339988.1054
                                                                        47.5004
        37.0004
 -11975336.85948  -9310429.12946
                  21205643.0314                                   21205638.4064
                                                                        50.7504
        36.5004
 -18557354.07048 -14446082.95745
                  22318940.8674                                   22318937.7464
                                                                        48.0004
        35.5004
  -1788844.81247  -1384061.46144
                  23127817.5004                                   23127810.5274
                                                                        43.2504
        26.2504
  -8844596.75447  -6856627.28144
                  23177950.3284                                   23177947.2974
                                                                        42.2504
        27.0004
 09 10 17  0 14  0.0000000  0  8G02G04G10G05G13G29G23G25
  -9874276.24248  -7678104.57447
                  20519046.4064                                   20519040.3054
                                                                        51.5004
        42.0004
    403485.76647    320937.19145
                  22511888.1484                                   22511884.9844
                                                                        47.7504
        33.2504
 -21934191.28148 -17076069.54746
                  21530631.3054                                   21530627.5514
                                                                        49.2504
        37.5004
 -16641492.29747 -12926173.33646
                  22307475.1954                                   22307471.3594
                                                                        47.7504
        37.0004
 -12035004.24248  -9356923.12946
                  21194288.6724                                   21194284.2934
                                                                        51.0004
        36.0004
 -18683526.74648 -14544399.29345
                  22294930.6484                                   22294927.4654
                                                                        49.0004
        35.5004
  -1779661.78547  -1376905.82444
                  23129564.3054                                   23129558.3554
                                                                        44.0004
        26.0004
  -8986900.12547  -6967512.95744
                  23150871.5234                                   23150867.8984
                                                                        43.7504
        27.2504
 09 10 17  0 14 30.0000000  0  8G02G04G10G05G13G29G23G25
  -9921708.40648  -7715064.69946
                  20510020.0784                                   20510014.2704
                                                                        51.7504
        41.7504
    423126.25848    336241.45745
                  22515626.2194                                   22515622.6094
                                                                        48.2504
        33.5004
 -22093370.09448 -17200105.02046
                  21500340.8444                                   21500337.0274
                                                                        49.7504
        37.2504
 -16812034.27047 -13059063.17646
                  22275022.3754                                   22275018.3954
                                                                        47.5004
        36.5004
 -12093995.17648  -9402890.06645
                  21183062.9774                                   21183058.9924
                                                                        50.7504
        35.5004
 -18809136.03148 -14642276.65645
                  22271028.3674                                   22271024.6454
                                                                        48.5004
        35.5004
  -1770070.86747  -1369432.31244
                  23131389.7734                                   23131383.3094
                                                                        43.2504
        25.2504
  -9128728.29747  -7078028.37544
                  23123882.3594                                   23123878.6954
                                                                        45.0004
        27.7504
 09 10 17  0 15  0.0000000  0  9G02G04G10G05G13G29G23G16G25
  -9968550.27348  -7751564.86747
                  20501106.5474                                   20501100.6174
                                                                        51.5004
        42.2504
    443076.46148    351787.03945
                  22519422.2274                                   22519418.6724
                                                                        48.5004
        34.0004
 -22252111.51248 -17323799.60946
                  21470133.1644                                   21470129.8134
                                                                        50.0004
        37.2504
 -16982242.43748 -13191692.92646
                  22242632.7894                                   22242628.8164
                                                                        48.0004
        37.5004
 -12152312.89848  -9448332.43046
                  21171965.3984                                   21171960.9884
                                                                        50.7504
        36.7504
 -18934182.82848 -14739715.71145
                  22247232.8134                                   22247228.8874
                                                                        48.5004
        35.5004
  -1760077.73447  -1361645.44144
                  23133291.1414                                   23133285.2624
                                                                        43.2504
        26.2504
   1360770.58656   1090949.86353
                  24253442.6094                                   24253437.9804
                                                                        40.7504
        22.7504
  -9270081.78947  -7188173.91844
                  23096983.7894                                   23096980.1484
                                                                        45.0004
        29.7504
 09 10 17  0 15 30.0000000  0  9G02G04G10G05G13G29G23G16G25
 -10014804.41848  -7787607.06647
                  20492304.8594                                   20492298.4734
                                                                        52.5004
        42.5004
    463332.66048    367571.08645
                  22523277.5164                                   22523273.6294
                                                                        48.0004
        34.0004
 -22410415.43048 -17447153.28546
                  21440009.0164                                   21440005.5664
                                                                        49.2504
        38.0004
 -17152116.21948 -13324062.11746
                  22210307.4924                                   22210302.7544
                                                                        48.0004
        37.5004
 -12209960.22348  -9493252.40246
                  21160995.5864                                   21160991.2304
                                                                        51.0004
        36.5004
 -19058667.21948 -14836716.48445
                  22223544.1254                                   22223540.6564
                                                                        48.0004
        35.7504
  -1749686.77347  -1353548.57044
                  23135268.4774                                   23135262.2304
                                                                        44.5004
        27.5004
   1214362.02946    976865.30043
                  24225582.3054                                   24225577.4734
                                                                        41.0004
        21.5004
  -9410960.50447  -7297949.52344
                  23070175.9064                                   23070171.7234
                                                                        45.5004
        29.0004
 09 10 17  0 16  0.0000000  0  9G02G04G10G05G13G29G23G16G25
 -10060474.64148  -7823194.24646
                  20483613.9534                                   20483607.9494
                                                                        52.2504
        41.7504
    483889.33648    383589.22345
                  22527188.9454                                   22527185.2504
                                                                        48.0004
        33.7504
 -22568283.47348 -17570167.31646
                  21409967.3914                                   21409964.1484
                                                                        50.0004
        38.0004
 -17321657.45748 -13456172.12946
                  22178044.6724                                   22178040.0554
                                                                        49.0004
        36.7504
 -12266940.83248  -9537652.85946
                  21150152.3834                                   21150148.1174
                                                                        50.5004
        36.7504
 -19182591.02048 -14933280.47746
                  22199962.2424                                   22199958.9264
                                                                        49.0004
        36.2504
  -1738903.34847  -1345145.89144
                  23137320.8054                                   23137314.7034
                                                                        44.7504
        27.7504
   1068427.52046    863150.09443
                  24197810.6414                                   24197806.4844
                                                                        40.7504
        22.5004
  -9551365.04347  -7407355.78544
                  23043457.7584                                   23043453.1024
                                                                        45.2504
        28.2504
 09 10 17  0 16 30.0000000  0  9G02G04G10G05G13G29G23G16G25
 -10105558.85248  -7858324.78147
                  20475034.7344                                   20475028.6294
                                                                        52.7504
        42.5004
    504747.61748    399842.41445
                  22531158.1724                                   22531154.8134
                                                                        48.2504
        33.5004
 -22725710.56248 -17692837.75446
